% program   : GINA 1.0 gpstk's raw solution
% inp file  : C:\Users\lus2bp\Source\Repos\GINA\70_EGNOS_Project\files\PositionComparisonInputFiles\bute0190\bute0190.19o
% inp file  : C:\Users\lus2bp\Source\Repos\GINA\70_EGNOS_Project\files\PositionComparisonInputFiles\bute0190\brdc0190.19n
% obs start : 2019/01/19 00:00:00.0 GPST (week2036 518400.0s)
% obs end   : 2019/01/19 23:59:30.0 GPST (week2036 604770.0s)
% pos mode  : single
% elev mask : 15.0 deg
% ionos opt : EGNOS brdc iono modell
% tropo opt : Zero
% ephemeris : broadcasted
% (lat/lon/height=WGS84/ellipsoidal,Q=1:fix,2:float,3:sbas,4:dgps,5:single,6:ppp,ns=# of satellites)
%  GPST                  latitude(deg) longitude(deg)  height(m)   Q  ns   sdn(m)   sde(m)   sdu(m)  sdne(m)  sdeu(m)  sdun(m) age(s)  ratio
2019/01/19 00:00:00.000   47.480981100   19.056551240   202.6750   5  10   0.7051   0.5178   0.2736   0.2684   0.2684   0.4972   0.00    0.0
2019/01/19 00:00:30.000   47.480961597   19.056544830   198.1894   5   7   1.7939   1.6271   -nan(ind)   2.6496   2.6496   3.2179   0.00    0.0
2019/01/19 00:01:00.000   47.480963707   19.056547082   198.1542   5   7   1.7991   1.6404   -nan(ind)   2.6929   2.6929   3.2366   0.00    0.0
2019/01/19 00:01:30.000   47.480964182   19.056549977   197.9568   5   7   1.8044   1.6536   -nan(ind)   2.7363   2.7363   3.2558   0.00    0.0
2019/01/19 00:02:00.000   47.480964849   19.056549160   198.0110   5   7   1.8098   1.6667   -nan(ind)   2.7798   2.7798   3.2753   0.00    0.0
2019/01/19 00:02:30.000   47.480965760   19.056547055   198.8657   5   7   1.8152   1.6796   -nan(ind)   2.8233   2.8233   3.2951   0.00    0.0
2019/01/19 00:03:00.000   47.480964021   19.056546508   200.1980   5   7   1.8208   1.6925   -nan(ind)   2.8668   2.8668   3.3152   0.00    0.0
2019/01/19 00:03:30.000   47.480965101   19.056544934   199.4047   5   7   1.8263   1.7053   -nan(ind)   2.9102   2.9102   3.3354   0.00    0.0
2019/01/19 00:04:00.000   47.480965383   19.056544917   198.7291   5   7   1.8319   1.7179   -nan(ind)   2.9534   2.9534   3.3558   0.00    0.0
2019/01/19 00:04:30.000   47.480966358   19.056545487   196.7903   5   7   1.8375   1.7304   -nan(ind)   2.9964   2.9964   3.3763   0.00    0.0
2019/01/19 00:05:00.000   47.480964984   19.056545973   196.4955   5   7   1.8431   1.7427   -nan(ind)   3.0390   3.0390   3.3969   0.00    0.0
2019/01/19 00:05:30.000   47.480963008   19.056548284   196.7033   5   7   1.8487   1.7547   -nan(ind)   3.0812   3.0812   3.4176   0.00    0.0
2019/01/19 00:06:00.000   47.480962093   19.056550622   197.0559   5   7   1.8542   1.7666   -nan(ind)   3.1229   3.1229   3.4382   0.00    0.0
2019/01/19 00:06:30.000   47.480961879   19.056552037   196.9620   5   7   1.8597   1.7782   -nan(ind)   3.1640   3.1640   3.4587   0.00    0.0
2019/01/19 00:07:00.000   47.480962587   19.056552051   196.7946   5   7   1.8652   1.7895   -nan(ind)   3.2045   3.2045   3.4790   0.00    0.0
2019/01/19 00:07:30.000   47.480963950   19.056549394   196.7857   5   7   1.8706   1.8006   -nan(ind)   3.2442   3.2442   3.4991   0.00    0.0
2019/01/19 00:08:00.000   47.480964578   19.056546639   196.8456   5   7   1.8759   1.8113   -nan(ind)   3.2830   3.2830   3.5190   0.00    0.0
2019/01/19 00:08:30.000   47.480963919   19.056544714   197.4043   5   7   1.8811   1.8217   -nan(ind)   3.3209   3.3209   3.5385   0.00    0.0
2019/01/19 00:09:00.000   47.480963259   19.056542673   197.8486   5   7   1.8862   1.8317   -nan(ind)   3.3578   3.3578   3.5577   0.00    0.0
2019/01/19 00:09:30.000   47.480962808   19.056543166   198.1102   5   7   1.8911   1.8415   -nan(ind)   3.3935   3.3935   3.5763   0.00    0.0
2019/01/19 00:10:00.000   47.480962446   19.056545166   198.2490   5   7   1.8959   1.8508   -nan(ind)   3.4280   3.4280   3.5943   0.00    0.0
2019/01/19 00:10:30.000   47.480963602   19.056545216   198.3080   5   7   1.9005   1.8597   -nan(ind)   3.4611   3.4611   3.6118   0.00    0.0
2019/01/19 00:11:00.000   47.480964805   19.056545289   197.5655   5   7   1.9049   1.8682   -nan(ind)   3.4928   3.4928   3.6286   0.00    0.0
2019/01/19 00:11:30.000   47.480965059   19.056546515   196.9062   5   7   1.9091   1.8763   -nan(ind)   3.5231   3.5231   3.6446   0.00    0.0
2019/01/19 00:12:00.000   47.480966154   19.056563591   193.4901   5   8   1.0333   1.0792   0.5404   1.1652   1.1652   1.0676   0.00    0.0
2019/01/19 00:12:30.000   47.480965956   19.056564076   193.2196   5   8   1.0360   1.0844   0.5436   1.1766   1.1766   1.0734   0.00    0.0
2019/01/19 00:13:00.000   47.480965929   19.056565403   192.9326   5   8   1.0388   1.0894   0.5468   1.1876   1.1876   1.0790   0.00    0.0
2019/01/19 00:13:30.000   47.480965068   19.056569172   193.0536   5   8   1.0415   1.0943   0.5499   1.1982   1.1982   1.0847   0.00    0.0
2019/01/19 00:14:00.000   47.480965273   19.056570467   193.1578   5   8   1.0441   1.0989   0.5530   1.2084   1.2084   1.0902   0.00    0.0
2019/01/19 00:14:30.000   47.480966245   19.056570725   193.1666   5   8   1.0467   1.1034   0.5560   1.2182   1.2182   1.0956   0.00    0.0
2019/01/19 00:15:00.000   47.480966637   19.056570355   192.9922   5   8   1.0492   1.1077   0.5590   1.2277   1.2277   1.1009   0.00    0.0
2019/01/19 00:15:30.000   47.480966087   19.056568365   192.6516   5   8   1.0517   1.1117   0.5619   1.2366   1.2366   1.1060   0.00    0.0
2019/01/19 00:16:00.000   47.480966315   19.056566557   192.4525   5   8   1.0541   1.1156   0.5647   1.2452   1.2452   1.1111   0.00    0.0
2019/01/19 00:16:30.000   47.480966555   19.056564847   191.6921   5   8   1.0564   1.1192   0.5676   1.2532   1.2532   1.1160   0.00    0.0
2019/01/19 00:17:00.000   47.480964983   19.056566485   191.1787   5   8   1.0587   1.1226   0.5703   1.2609   1.2609   1.1208   0.00    0.0
2019/01/19 00:17:30.000   47.480963839   19.056566058   191.0750   5   8   1.0609   1.1258   0.5731   1.2680   1.2680   1.1255   0.00    0.0
2019/01/19 00:18:00.000   47.480963489   19.056566045   191.0552   5   8   1.0631   1.1287   0.5758   1.2746   1.2746   1.1301   0.00    0.0
2019/01/19 00:18:30.000   47.480963255   19.056567066   191.0847   5   8   1.0651   1.1314   0.5784   1.2808   1.2808   1.1345   0.00    0.0
2019/01/19 00:19:00.000   47.480961954   19.056567065   191.1644   5   8   1.0671   1.1339   0.5810   1.2865   1.2865   1.1387   0.00    0.0
2019/01/19 00:19:30.000   47.480961165   19.056565247   191.0846   5   8   1.0690   1.1362   0.5835   1.2916   1.2916   1.1427   0.00    0.0
2019/01/19 00:20:00.000   47.480960880   19.056564478   190.9453   5   8   1.0708   1.1383   0.5860   1.2963   1.2963   1.1466   0.00    0.0
2019/01/19 00:20:30.000   47.480961121   19.056563736   190.7765   5   8   1.0725   1.1401   0.5884   1.3005   1.3005   1.1503   0.00    0.0
2019/01/19 00:21:00.000   47.480960645   19.056563903   190.7540   5   8   1.0742   1.1417   0.5908   1.3041   1.3041   1.1539   0.00    0.0
2019/01/19 00:21:30.000   47.480958886   19.056565904   191.0777   5   8   1.0758   1.1431   0.5932   1.3072   1.3072   1.1573   0.00    0.0
2019/01/19 00:22:00.000   47.480957728   19.056567004   191.3213   5   8   1.0772   1.1442   0.5954   1.3098   1.3098   1.1604   0.00    0.0
2019/01/19 00:22:30.000   47.480957246   19.056568657   191.3284   5   8   1.0786   1.1451   0.5977   1.3120   1.3120   1.1634   0.00    0.0
2019/01/19 00:23:00.000   47.480958161   19.056566862   191.0579   5   8   1.0799   1.1458   0.5999   1.3136   1.3136   1.1662   0.00    0.0
2019/01/19 00:23:30.000   47.480958765   19.056564623   190.6946   5   8   1.0811   1.1463   0.6020   1.3147   1.3147   1.1689   0.00    0.0
2019/01/19 00:24:00.000   47.480958925   19.056563920   190.5779   5   8   1.0823   1.1466   0.6041   1.3153   1.3153   1.1713   0.00    0.0
2019/01/19 00:24:30.000   47.480958318   19.056564271   190.4612   5   8   1.0833   1.1466   0.6062   1.3154   1.3154   1.1736   0.00    0.0
2019/01/19 00:25:00.000   47.480957050   19.056566889   190.6289   5   8   1.0843   1.1465   0.6082   1.3150   1.3150   1.1756   0.00    0.0
2019/01/19 00:25:30.000   47.480956242   19.056568998   190.9151   5   8   1.0851   1.1461   0.6102   1.3142   1.3142   1.1775   0.00    0.0
2019/01/19 00:26:00.000   47.480955284   19.056568885   190.8943   5   8   1.0859   1.1455   0.6121   1.3129   1.3129   1.1792   0.00    0.0
2019/01/19 00:26:30.000   47.480955035   19.056566118   190.5034   5   8   1.0866   1.1448   0.6140   1.3111   1.3111   1.1807   0.00    0.0
2019/01/19 00:27:00.000   47.480954573   19.056563149   190.3094   5   8   1.0872   1.1438   0.6158   1.3089   1.3089   1.1820   0.00    0.0
2019/01/19 00:27:30.000   47.480954430   19.056562321   190.3755   5   8   1.0877   1.1427   0.6176   1.3063   1.3063   1.1831   0.00    0.0
2019/01/19 00:28:00.000   47.480955442   19.056560407   190.2988   5   8   1.0881   1.1413   0.6194   1.3032   1.3032   1.1841   0.00    0.0
2019/01/19 00:28:30.000   47.480955940   19.056559103   190.2730   5   8   1.0885   1.1398   0.6211   1.2997   1.2997   1.1849   0.00    0.0
2019/01/19 00:29:00.000   47.480956805   19.056557166   190.0324   5   8   1.0888   1.1381   0.6228   1.2959   1.2959   1.1854   0.00    0.0
2019/01/19 00:29:30.000   47.480958034   19.056557859   189.8685   5   8   1.0890   1.1362   0.6245   1.2916   1.2916   1.1859   0.00    0.0
2019/01/19 00:30:00.000   47.480958857   19.056558885   189.7007   5   8   1.0891   1.1342   0.6261   1.2870   1.2870   1.1862   0.00    0.0
2019/01/19 00:30:30.000   47.480957817   19.056561061   189.6427   5   8   1.0892   1.1320   0.6277   1.2820   1.2820   1.1863   0.00    0.0
2019/01/19 00:31:00.000   47.480955795   19.056563598   189.8084   5   8   1.0891   1.1296   0.6293   1.2767   1.2767   1.1862   0.00    0.0
2019/01/19 00:31:30.000   47.480956461   19.056559388   189.6209   5   8   1.0890   1.1271   0.6308   1.2710   1.2710   1.1860   0.00    0.0
2019/01/19 00:32:00.000   47.480954572   19.056559049   189.4697   5   8   1.0889   1.1245   0.6323   1.2651   1.2651   1.1856   0.00    0.0
2019/01/19 00:32:30.000   47.480951490   19.056560907   189.2114   5   8   1.0886   1.1217   0.6338   1.2588   1.2588   1.1851   0.00    0.0
2019/01/19 00:33:00.000   47.480949115   19.056562833   189.1045   5   8   1.0883   1.1188   0.6353   1.2522   1.2522   1.1845   0.00    0.0
2019/01/19 00:33:30.000   47.480948303   19.056564622   189.2506   5   8   1.0880   1.1157   0.6368   1.2454   1.2454   1.1837   0.00    0.0
2019/01/19 00:34:00.000   47.480948506   19.056565551   189.3730   5   8   1.0876   1.1125   0.6382   1.2383   1.2383   1.1828   0.00    0.0
2019/01/19 00:34:30.000   47.480949940   19.056563204   189.1911   5   8   1.0871   1.1092   0.6396   1.2310   1.2310   1.1818   0.00    0.0
2019/01/19 00:35:00.000   47.480950106   19.056562141   189.4302   5   8   1.0866   1.1058   0.6410   1.2235   1.2235   1.1806   0.00    0.0
2019/01/19 00:35:30.000   47.480949580   19.056560889   189.4231   5   8   1.0860   1.1023   0.6424   1.2157   1.2157   1.1793   0.00    0.0
2019/01/19 00:36:00.000   47.480949054   19.056559330   189.1518   5   8   1.0853   1.0987   0.6438   1.2077   1.2077   1.1780   0.00    0.0
2019/01/19 00:36:30.000   47.480948810   19.056557685   188.9165   5   8   1.0847   1.0950   0.6451   1.1996   1.1996   1.1765   0.00    0.0
2019/01/19 00:37:00.000   47.480948381   19.056556766   188.8391   5   8   1.0839   1.0912   0.6465   1.1913   1.1913   1.1749   0.00    0.0
2019/01/19 00:37:30.000   47.480948129   19.056556253   188.8547   5   8   1.0831   1.0873   0.6478   1.1828   1.1828   1.1732   0.00    0.0
2019/01/19 00:38:00.000   47.480947896   19.056558839   189.0539   5   8   1.0823   1.0833   0.6492   1.1742   1.1742   1.1715   0.00    0.0
2019/01/19 00:38:30.000   47.480949080   19.056560273   189.2308   5   8   1.0815   1.0793   0.6505   1.1654   1.1654   1.1696   0.00    0.0
2019/01/19 00:39:00.000   47.480949210   19.056560252   189.3119   5   8   1.0806   1.0752   0.6518   1.1565   1.1565   1.1677   0.00    0.0
2019/01/19 00:39:30.000   47.480948226   19.056559430   189.2068   5   8   1.0797   1.0710   0.6531   1.1475   1.1475   1.1657   0.00    0.0
2019/01/19 00:40:00.000   47.480948831   19.056556843   188.9743   5   8   1.0787   1.0667   0.6544   1.1384   1.1384   1.1636   0.00    0.0
2019/01/19 00:40:30.000   47.480948794   19.056557386   189.0389   5   8   1.0777   1.0624   0.6557   1.1293   1.1293   1.1614   0.00    0.0
2019/01/19 00:41:00.000   47.480948497   19.056560965   189.0914   5   8   1.0767   1.0581   0.6570   1.1200   1.1200   1.1592   0.00    0.0
2019/01/19 00:41:30.000   47.480948998   19.056561308   188.6518   5   8   1.0756   1.0537   0.6583   1.1107   1.1107   1.1570   0.00    0.0
2019/01/19 00:42:00.000   47.480947073   19.056562689   188.5224   5   8   1.0746   1.0492   0.6596   1.1013   1.1013   1.1547   0.00    0.0
2019/01/19 00:42:30.000   47.480945576   19.056563093   188.6275   5   8   1.0735   1.0447   0.6609   1.0919   1.0919   1.1523   0.00    0.0
2019/01/19 00:43:00.000   47.480946201   19.056561740   188.7842   5   8   1.0723   1.0401   0.6622   1.0824   1.0824   1.1499   0.00    0.0
2019/01/19 00:43:30.000   47.480949975   19.056561778   189.2427   5   8   1.0712   1.0355   0.6635   1.0729   1.0729   1.1475   0.00    0.0
2019/01/19 00:44:00.000   47.480952840   19.056559598   189.1984   5   8   1.0700   1.0309   0.6648   1.0633   1.0634   1.1450   0.00    0.0
2019/01/19 00:44:30.000   47.480954164   19.056556793   188.8624   5   8   1.0688   1.0263   0.6660   1.0538   1.0538   1.1424   0.00    0.0
2019/01/19 00:45:00.000   47.480953167   19.056558255   188.7152   5   8   1.0676   1.0217   0.6673   1.0443   1.0443   1.1399   0.00    0.0
2019/01/19 00:45:30.000   47.480952638   19.056560118   188.7127   5   8   1.0664   1.0170   0.6686   1.0347   1.0347   1.1373   0.00    0.0
2019/01/19 00:46:00.000   47.480953219   19.056560615   188.8903   5   8   1.0652   1.0123   0.6700   1.0251   1.0251   1.1347   0.00    0.0
2019/01/19 00:46:30.000   47.480952945   19.056561286   188.9781   5   8   1.0640   1.0075   0.6713   1.0156   1.0156   1.1320   0.00    0.0
2019/01/19 00:47:00.000   47.480953282   19.056559473   188.8804   5   8   1.0627   1.0028   0.6726   1.0061   1.0061   1.1294   0.00    0.0
2019/01/19 00:47:30.000   47.480952609   19.056559766   189.0779   5   8   1.0615   0.9981   0.6739   0.9966   0.9966   1.1267   0.00    0.0
2019/01/19 00:48:00.000   47.480952469   19.056559552   189.1796   5   8   1.0602   0.9933   0.6752   0.9871   0.9871   1.1240   0.00    0.0
2019/01/19 00:48:30.000   47.480953517   19.056557402   189.1799   5   8   1.0589   0.9885   0.6765   0.9777   0.9777   1.1213   0.00    0.0
2019/01/19 00:49:00.000   47.480954125   19.056556634   188.8917   5   8   1.0576   0.9838   0.6778   0.9683   0.9683   1.1186   0.00    0.0
2019/01/19 00:49:30.000   47.480954321   19.056557015   188.7454   5   8   1.0563   0.9790   0.6792   0.9589   0.9589   1.1159   0.00    0.0
2019/01/19 00:50:00.000   47.480952982   19.056557469   188.6235   5   8   1.0551   0.9742   0.6805   0.9496   0.9496   1.1131   0.00    0.0
2019/01/19 00:50:30.000   47.480952121   19.056558619   188.7260   5   8   1.0538   0.9695   0.6819   0.9403   0.9403   1.1104   0.00    0.0
2019/01/19 00:51:00.000   47.480952333   19.056558715   188.6919   5   8   1.0525   0.9647   0.6832   0.9311   0.9311   1.1077   0.00    0.0
2019/01/19 00:51:30.000   47.480952060   19.056558835   188.6817   5   8   1.0512   0.9599   0.6845   0.9219   0.9219   1.1049   0.00    0.0
2019/01/19 00:52:00.000   47.480950128   19.056561016   188.7237   5   8   1.0498   0.9552   0.6859   0.9128   0.9128   1.1022   0.00    0.0
2019/01/19 00:52:30.000   47.480948898   19.056561432   188.7448   5   8   1.0486   0.9504   0.6873   0.9037   0.9037   1.0995   0.00    0.0
2019/01/19 00:53:00.000   47.480948056   19.056561712   188.7811   5   8   1.0473   0.9457   0.6886   0.8947   0.8947   1.0967   0.00    0.0
2019/01/19 00:53:30.000   47.480947885   19.056561546   189.1577   5   7   1.6348   1.3486   0.8187   1.8199   1.8199   2.6726   0.00    0.0
2019/01/19 00:54:00.000   47.480949152   19.056562815   188.9754   5   7   1.6322   1.3407   0.8239   1.7984   1.7984   2.6641   0.00    0.0
2019/01/19 00:54:30.000   47.480949894   19.056564568   188.8032   5   7   1.6297   1.3328   0.8292   1.7773   1.7773   2.6560   0.00    0.0
2019/01/19 00:55:00.000   47.480949678   19.056566189   188.6311   5   7   1.6273   1.3251   0.8345   1.7567   1.7567   2.6482   0.00    0.0
2019/01/19 00:55:30.000   47.480948876   19.056565185   188.4509   5   7   1.6251   1.3174   0.8399   1.7365   1.7365   2.6409   0.00    0.0
2019/01/19 00:56:00.000   47.480947841   19.056563928   188.5988   5   7   1.6230   1.3099   0.8453   1.7167   1.7167   2.6340   0.00    0.0
2019/01/19 00:56:30.000   47.480946211   19.056562453   188.8099   5   7   1.6210   1.3025   0.8507   1.6973   1.6973   2.6275   0.00    0.0
2019/01/19 00:57:00.000   47.480946006   19.056561877   188.6453   5   7   1.6191   1.2952   0.8562   1.6783   1.6783   2.6214   0.00    0.0
2019/01/19 00:57:30.000   47.480947332   19.056561460   188.0192   5   7   1.6173   1.2880   0.8617   1.6597   1.6597   2.6157   0.00    0.0
2019/01/19 00:58:00.000   47.480948420   19.056561296   187.4879   5   7   1.6157   1.2809   0.8672   1.6415   1.6415   2.6104   0.00    0.0
2019/01/19 00:58:30.000   47.480948019   19.056562357   187.1617   5   7   1.6141   1.2739   0.8728   1.6236   1.6236   2.6055   0.00    0.0
2019/01/19 00:59:00.000   47.480947680   19.056562687   186.9895   5   7   1.6127   1.2670   0.8784   1.6061   1.6061   2.6009   0.00    0.0
2019/01/19 00:59:30.000   47.480948847   19.056561888   186.8045   5   7   1.6115   1.2603   0.8841   1.5890   1.5890   2.5968   0.00    0.0
2019/01/19 01:00:00.000   47.480950796   19.056563111   186.9598   5   7   1.6103   1.2536   0.8898   1.5723   1.5723   2.5931   0.00    0.0
2019/01/19 01:00:30.000   47.480953156   19.056563632   187.2402   5   7   1.6093   1.2471   0.8956   1.5559   1.5559   2.5897   0.00    0.0
2019/01/19 01:01:00.000   47.480958422   19.056556930   185.9084   5   8   1.4013   1.0154   0.5129   1.0315   1.0315   1.9635   0.00    0.0
2019/01/19 01:01:30.000   47.480960135   19.056555889   185.6960   5   8   1.4010   1.0120   0.5203   1.0245   1.0245   1.9628   0.00    0.0
2019/01/19 01:02:00.000   47.480960312   19.056555660   185.7091   5   8   1.4008   1.0086   0.5276   1.0176   1.0176   1.9622   0.00    0.0
2019/01/19 01:02:30.000   47.480959198   19.056554867   185.8351   5   8   1.4006   1.0052   0.5349   1.0108   1.0108   1.9617   0.00    0.0
2019/01/19 01:03:00.000   47.480957452   19.056553812   186.3780   5   8   1.4004   1.0018   0.5420   1.0040   1.0040   1.9612   0.00    0.0
2019/01/19 01:03:30.000   47.480956096   19.056555347   186.8498   5   8   1.4003   0.9984   0.5491   0.9972   0.9972   1.9609   0.00    0.0
2019/01/19 01:04:00.000   47.480956370   19.056554861   187.2157   5   8   1.4002   0.9950   0.5561   0.9905   0.9905   1.9607   0.00    0.0
2019/01/19 01:04:30.000   47.480955441   19.056553742   187.6954   5   8   1.4002   0.9917   0.5630   0.9839   0.9839   1.9605   0.00    0.0
2019/01/19 01:05:00.000   47.480953689   19.056552421   187.8076   5   8   1.4002   0.9884   0.5698   0.9773   0.9773   1.9604   0.00    0.0
2019/01/19 01:05:30.000   47.480954211   19.056550078   187.6018   5   8   1.4002   0.9850   0.5766   0.9708   0.9708   1.9605   0.00    0.0
2019/01/19 01:06:00.000   47.480956352   19.056547320   187.2374   5   8   1.4002   0.9818   0.5833   0.9643   0.9643   1.9606   0.00    0.0
2019/01/19 01:06:30.000   47.480957728   19.056545700   186.9669   5   8   1.4003   0.9785   0.5899   0.9579   0.9579   1.9608   0.00    0.0
2019/01/19 01:07:00.000   47.480958834   19.056545397   187.0257   5   8   1.4004   0.9752   0.5964   0.9515   0.9515   1.9611   0.00    0.0
2019/01/19 01:07:30.000   47.480959467   19.056545438   187.0721   5   8   1.4005   0.9720   0.6029   0.9452   0.9452   1.9615   0.00    0.0
2019/01/19 01:08:00.000   47.480960261   19.056545515   186.9836   5   8   1.4007   0.9688   0.6093   0.9390   0.9390   1.9620   0.00    0.0
2019/01/19 01:08:30.000   47.480961484   19.056544405   186.6412   5   8   1.4009   0.9656   0.6157   0.9328   0.9328   1.9625   0.00    0.0
2019/01/19 01:09:00.000   47.480963758   19.056543108   186.4653   5   8   1.4011   0.9624   0.6220   0.9267   0.9267   1.9632   0.00    0.0
2019/01/19 01:09:30.000   47.480965008   19.056542554   186.3156   5   8   1.4014   0.9593   0.6283   0.9206   0.9206   1.9639   0.00    0.0
2019/01/19 01:10:00.000   47.480964584   19.056542478   186.3684   5   8   1.4017   0.9562   0.6345   0.9146   0.9146   1.9648   0.00    0.0
2019/01/19 01:10:30.000   47.480963665   19.056543573   186.4674   5   8   1.4020   0.9530   0.6406   0.9087   0.9087   1.9657   0.00    0.0
2019/01/19 01:11:00.000   47.480961477   19.056546369   186.7692   5   8   1.4024   0.9499   0.6467   0.9028   0.9028   1.9667   0.00    0.0
2019/01/19 01:11:30.000   47.480959455   19.056546643   186.8153   5   8   1.4028   0.9469   0.6528   0.8969   0.8969   1.9678   0.00    0.0
2019/01/19 01:12:00.000   47.480959253   19.056545216   186.5152   5   8   1.4032   0.9438   0.6588   0.8912   0.8912   1.9689   0.00    0.0
2019/01/19 01:12:30.000   47.480958418   19.056544042   186.1334   5   8   1.4036   0.9408   0.6647   0.8855   0.8855   1.9701   0.00    0.0
2019/01/19 01:13:00.000   47.480958561   19.056543224   185.9813   5   8   1.4041   0.9378   0.6706   0.8798   0.8798   1.9714   0.00    0.0
2019/01/19 01:13:30.000   47.480959285   19.056543277   186.0821   5   8   1.4046   0.9348   0.6765   0.8742   0.8742   1.9728   0.00    0.0
2019/01/19 01:14:00.000   47.480960601   19.056543001   186.2367   5   8   1.4051   0.9318   0.6823   0.8687   0.8687   1.9742   0.00    0.0
2019/01/19 01:14:30.000   47.480963793   19.056541573   186.2549   5   8   1.4056   0.9289   0.6881   0.8632   0.8632   1.9757   0.00    0.0
2019/01/19 01:15:00.000   47.480966132   19.056540859   186.3956   5   8   1.4062   0.9260   0.6939   0.8578   0.8578   1.9773   0.00    0.0
2019/01/19 01:15:30.000   47.480966547   19.056541596   186.6841   5   8   1.4068   0.9231   0.6996   0.8524   0.8524   1.9790   0.00    0.0
2019/01/19 01:16:00.000   47.480966340   19.056542823   186.9507   5   8   1.4074   0.9202   0.7052   0.8471   0.8471   1.9807   0.00    0.0
2019/01/19 01:16:30.000   47.480922929   19.056552547   182.6040   5   7   1.4082   0.9029   0.7132   0.8154   0.8154   1.9830   0.00    0.0
2019/01/19 01:17:00.000   47.480923079   19.056552184   182.5939   5   7   1.4089   0.8999   0.7188   0.8100   0.8100   1.9849   0.00    0.0
2019/01/19 01:17:30.000   47.480923072   19.056552498   182.6250   5   7   1.4095   0.8969   0.7243   0.8047   0.8047   1.9868   0.00    0.0
2019/01/19 01:18:00.000   47.480922513   19.056552031   182.5370   5   7   1.4102   0.8940   0.7298   0.7994   0.7994   1.9887   0.00    0.0
2019/01/19 01:18:30.000   47.480923625   19.056551809   182.5087   5   7   1.4109   0.8911   0.7353   0.7942   0.7942   1.9907   0.00    0.0
2019/01/19 01:19:00.000   47.480924759   19.056551554   182.5391   5   7   1.4117   0.8882   0.7407   0.7891   0.7891   1.9928   0.00    0.0
2019/01/19 01:19:30.000   47.480927617   19.056548744   182.3067   5   7   1.4124   0.8854   0.7461   0.7841   0.7841   1.9949   0.00    0.0
2019/01/19 01:20:00.000   47.480928818   19.056546834   182.3973   5   7   1.4131   0.8826   0.7514   0.7792   0.7792   1.9970   0.00    0.0
2019/01/19 01:20:30.000   47.480929469   19.056544962   182.4093   5   7   1.4139   0.8798   0.7567   0.7743   0.7743   1.9991   0.00    0.0
2019/01/19 01:21:00.000   47.480930600   19.056543890   182.4830   5   7   1.4147   0.8771   0.7620   0.7695   0.7695   2.0013   0.00    0.0
2019/01/19 01:21:30.000   47.480931526   19.056542893   182.5473   5   7   1.4155   0.8744   0.7673   0.7648   0.7648   2.0036   0.00    0.0
2019/01/19 01:22:00.000   47.480930854   19.056541765   182.5696   5   7   1.4163   0.8718   0.7725   0.7602   0.7602   2.0058   0.00    0.0
2019/01/19 01:22:30.000   47.480930350   19.056539913   182.6878   5   7   1.4171   0.8692   0.7776   0.7557   0.7557   2.0081   0.00    0.0
2019/01/19 01:23:00.000   47.480930421   19.056537861   182.6384   5   7   1.4179   0.8666   0.7828   0.7512   0.7512   2.0104   0.00    0.0
2019/01/19 01:23:30.000   47.480930695   19.056535482   182.5344   5   7   1.4187   0.8640   0.7879   0.7468   0.7468   2.0127   0.00    0.0
2019/01/19 01:24:00.000   47.480931291   19.056536499   182.8320   5   7   1.4195   0.8615   0.7930   0.7425   0.7425   2.0151   0.00    0.0
2019/01/19 01:24:30.000   47.480932731   19.056538006   183.0553   5   7   1.4204   0.8591   0.7980   0.7382   0.7382   2.0174   0.00    0.0
2019/01/19 01:25:00.000   47.480935397   19.056539859   183.0229   5   7   1.4212   0.8566   0.8030   0.7340   0.7340   2.0198   0.00    0.0
2019/01/19 01:25:30.000   47.480937641   19.056540838   182.6054   5   7   1.4220   0.8542   0.8080   0.7299   0.7299   2.0222   0.00    0.0
2019/01/19 01:26:00.000   47.480936935   19.056541039   182.0715   5   7   1.4229   0.8519   0.8129   0.7259   0.7259   2.0245   0.00    0.0
2019/01/19 01:26:30.000   47.480936383   19.056540846   181.6864   5   7   1.4237   0.8495   0.8178   0.7219   0.7219   2.0269   0.00    0.0
2019/01/19 01:27:00.000   47.480933489   19.056542372   181.4055   5   7   1.4245   0.8473   0.8226   0.7181   0.7181   2.0293   0.00    0.0
2019/01/19 01:27:30.000   47.480932108   19.056543758   181.3139   5   7   1.4253   0.8450   0.8275   0.7143   0.7143   2.0316   0.00    0.0
2019/01/19 01:28:00.000   47.480933700   19.056544358   181.2631   5   7   1.4262   0.8428   0.8323   0.7106   0.7106   2.0339   0.00    0.0
2019/01/19 01:28:30.000   47.480934769   19.056544806   181.4334   5   7   1.4270   0.8406   0.8370   0.7069   0.7069   2.0362   0.00    0.0
2019/01/19 01:29:00.000   47.480934948   19.056544847   181.6054   5   7   1.4278   0.8385   0.8417   0.7033   0.7033   2.0386   0.00    0.0
2019/01/19 01:29:30.000   47.480936832   19.056543134   181.7390   5   7   1.4286   0.8364   0.8464   0.6997   0.6997   2.0408   0.00    0.0
2019/01/19 01:30:00.000   47.480939039   19.056541877   181.7594   5   7   1.4294   0.8343   0.8511   0.6963   0.6963   2.0431   0.00    0.0
2019/01/19 01:30:30.000   47.480939431   19.056542698   181.8428   5   7   1.4301   0.8323   0.8557   0.6929   0.6929   2.0453   0.00    0.0
2019/01/19 01:31:00.000   47.480939297   19.056541942   181.9300   5   7   1.4309   0.8303   0.8603   0.6895   0.6895   2.0475   0.00    0.0
2019/01/19 01:31:30.000   47.480939026   19.056539689   181.8728   5   7   1.4317   0.8283   0.8648   0.6863   0.6863   2.0497   0.00    0.0
2019/01/19 01:32:00.000   47.480939381   19.056539165   182.0001   5   7   1.4324   0.8263   0.8693   0.6830   0.6830   2.0518   0.00    0.0
2019/01/19 01:32:30.000   47.480940477   19.056538627   182.0468   5   7   1.4331   0.8244   0.8738   0.6799   0.6799   2.0539   0.00    0.0
2019/01/19 01:33:00.000   47.480941299   19.056537412   181.8945   5   7   1.4338   0.8225   0.8783   0.6768   0.6768   2.0559   0.00    0.0
2019/01/19 01:33:30.000   47.480960185   19.056525796   183.1895   5   8   1.4331   0.8494   0.8725   0.7217   0.7217   2.0538   0.00    0.0
2019/01/19 01:34:00.000   47.480959384   19.056524512   182.9025   5   8   1.4334   0.8509   0.8755   0.7242   0.7242   2.0546   0.00    0.0
2019/01/19 01:34:30.000   47.480959412   19.056522813   182.7452   5   8   1.4336   0.8523   0.8784   0.7266   0.7266   2.0551   0.00    0.0
2019/01/19 01:35:00.000   47.480959261   19.056522578   182.6660   5   8   1.4337   0.8536   0.8812   0.7289   0.7289   2.0555   0.00    0.0
2019/01/19 01:35:30.000   47.480961149   19.056522030   182.3435   5   8   1.4338   0.8549   0.8840   0.7311   0.7311   2.0557   0.00    0.0
2019/01/19 01:36:00.000   47.480961421   19.056523295   182.2842   5   8   1.4338   0.8561   0.8868   0.7332   0.7332   2.0557   0.00    0.0
2019/01/19 01:36:30.000   47.480961288   19.056523451   182.4762   5   8   1.4337   0.8573   0.8894   0.7351   0.7351   2.0555   0.00    0.0
2019/01/19 01:37:00.000   47.480959611   19.056525598   182.6983   5   8   1.4335   0.8583   0.8920   0.7369   0.7369   2.0550   0.00    0.0
2019/01/19 01:37:30.000   47.480958156   19.056526671   182.7878   5   8   1.4333   0.8593   0.8946   0.7386   0.7386   2.0544   0.00    0.0
2019/01/19 01:38:00.000   47.480956514   19.056527439   182.8202   5   8   1.4330   0.8602   0.8971   0.7402   0.7402   2.0535   0.00    0.0
2019/01/19 01:38:30.000   47.480955418   19.056527769   182.8426   5   8   1.4326   0.8610   0.8995   0.7416   0.7416   2.0524   0.00    0.0
2019/01/19 01:39:00.000   47.480956034   19.056526387   182.7026   5   8   1.4322   0.8618   0.9019   0.7429   0.7429   2.0512   0.00    0.0
2019/01/19 01:39:30.000   47.480956163   19.056526156   182.7033   5   8   1.4317   0.8625   0.9042   0.7441   0.7441   2.0497   0.00    0.0
2019/01/19 01:40:00.000   47.480956814   19.056525938   182.7472   5   8   1.4311   0.8631   0.9064   0.7452   0.7452   2.0479   0.00    0.0
2019/01/19 01:40:30.000   47.480955924   19.056525590   182.7670   5   8   1.4304   0.8636   0.9086   0.7461   0.7461   2.0460   0.00    0.0
2019/01/19 01:41:00.000   47.480954063   19.056525865   182.8291   5   8   1.4296   0.8640   0.9107   0.7468   0.7468   2.0438   0.00    0.0
2019/01/19 01:41:30.000   47.480953616   19.056524419   182.7312   5   8   1.4288   0.8644   0.9127   0.7475   0.7475   2.0415   0.00    0.0
2019/01/19 01:42:00.000   47.480952692   19.056523012   182.7138   5   8   1.4279   0.8647   0.9147   0.7480   0.7480   2.0389   0.00    0.0
2019/01/19 01:42:30.000   47.480951459   19.056524174   182.9676   5   8   1.4269   0.8649   0.9166   0.7483   0.7483   2.0361   0.00    0.0
2019/01/19 01:43:00.000   47.480950765   19.056524984   183.1294   5   8   1.4258   0.8650   0.9185   0.7486   0.7486   2.0330   0.00    0.0
2019/01/19 01:43:30.000   47.480950095   19.056525915   183.2437   5   8   1.4247   0.8651   0.9203   0.7486   0.7486   2.0298   0.00    0.0
2019/01/19 01:44:00.000   47.480950360   19.056527460   183.1976   5   8   1.4235   0.8651   0.9220   0.7486   0.7486   2.0263   0.00    0.0
2019/01/19 01:44:30.000   47.480951411   19.056527473   182.9131   5   8   1.4222   0.8650   0.9236   0.7484   0.7484   2.0226   0.00    0.0
2019/01/19 01:45:00.000   47.480948164   19.056530562   183.6080   5   9   1.1499   0.6595   0.5472   0.4351   0.4351   1.3223   0.00    0.0
2019/01/19 01:45:30.000   47.480948865   19.056529369   183.5697   5   9   1.1493   0.6606   0.5494   0.4365   0.4365   1.3208   0.00    0.0
2019/01/19 01:46:00.000   47.480950894   19.056526774   183.3252   5   9   1.1486   0.6616   0.5516   0.4378   0.4378   1.3192   0.00    0.0
2019/01/19 01:46:30.000   47.480951364   19.056524680   183.0855   5   9   1.1478   0.6625   0.5537   0.4391   0.4391   1.3175   0.00    0.0
2019/01/19 01:47:00.000   47.480951308   19.056524118   183.2298   5   9   1.1471   0.6634   0.5558   0.4403   0.4403   1.3158   0.00    0.0
2019/01/19 01:47:30.000   47.480958277   19.056535052   181.4308   5   8   1.5208   0.9298   0.4252   0.8648   0.8648   2.3130   0.00    0.0
2019/01/19 01:48:00.000   47.480959011   19.056535489   181.3359   5   8   1.5194   0.9323   0.4303   0.8694   0.8694   2.3087   0.00    0.0
2019/01/19 01:48:30.000   47.480957783   19.056534581   181.4545   5   8   1.5180   0.9346   0.4353   0.8738   0.8738   2.3042   0.00    0.0
2019/01/19 01:49:00.000   47.480957755   19.056534934   181.2458   5   8   1.5164   0.9369   0.4402   0.8780   0.8780   2.2996   0.00    0.0
2019/01/19 01:49:30.000   47.480958384   19.056535860   180.8793   5   8   1.5148   0.9391   0.4450   0.8821   0.8821   2.2948   0.00    0.0
2019/01/19 01:50:00.000   47.480960859   19.056535614   180.4313   5   8   1.5132   0.9412   0.4498   0.8861   0.8861   2.2897   0.00    0.0
2019/01/19 01:50:30.000   47.480963687   19.056538576   179.9913   5   8   1.5115   0.9432   0.4544   0.8899   0.8899   2.2846   0.00    0.0
2019/01/19 01:51:00.000   47.480964872   19.056540381   179.6833   5   8   1.5097   0.9451   0.4590   0.8935   0.8935   2.2792   0.00    0.0
2019/01/19 01:51:30.000   47.480966641   19.056540051   179.3494   5   8   1.5079   0.9470   0.4635   0.8970   0.8970   2.2737   0.00    0.0
2019/01/19 01:52:00.000   47.480966171   19.056540452   179.3430   5   8   1.5060   0.9487   0.4679   0.9003   0.9003   2.2680   0.00    0.0
2019/01/19 01:52:30.000   47.480966001   19.056540464   179.4897   5   8   1.5040   0.9503   0.4723   0.9034   0.9034   2.2621   0.00    0.0
2019/01/19 01:53:00.000   47.480964714   19.056540104   179.7333   5   8   1.5020   0.9519   0.4766   0.9063   0.9063   2.2561   0.00    0.0
2019/01/19 01:53:30.000   47.480964991   19.056539747   179.7867   5   8   1.4999   0.9533   0.4808   0.9091   0.9091   2.2498   0.00    0.0
2019/01/19 01:54:00.000   47.480967187   19.056538338   179.8107   5   8   1.4978   0.9547   0.4849   0.9117   0.9117   2.2434   0.00    0.0
2019/01/19 01:54:30.000   47.480968376   19.056538091   179.7500   5   8   1.4956   0.9560   0.4890   0.9141   0.9141   2.2368   0.00    0.0
2019/01/19 01:55:00.000   47.480970159   19.056537250   179.4869   5   8   1.4933   0.9572   0.4930   0.9164   0.9164   2.2300   0.00    0.0
2019/01/19 01:55:30.000   47.480970513   19.056537823   179.2177   5   8   1.4910   0.9582   0.4969   0.9185   0.9185   2.2230   0.00    0.0
2019/01/19 01:56:00.000   47.480970443   19.056538742   178.9655   5   8   1.4886   0.9592   0.5007   0.9203   0.9203   2.2159   0.00    0.0
2019/01/19 01:56:30.000   47.480970399   19.056539235   178.9492   5   8   1.4861   0.9601   0.5045   0.9221   0.9221   2.2086   0.00    0.0
2019/01/19 01:57:00.000   47.480969984   19.056540160   179.0775   5   8   1.4836   0.9609   0.5082   0.9236   0.9236   2.2011   0.00    0.0
2019/01/19 01:57:30.000   47.480971093   19.056539630   179.2178   5   8   1.4810   0.9616   0.5119   0.9249   0.9249   2.1935   0.00    0.0
2019/01/19 01:58:00.000   47.480970932   19.056539376   179.6932   5   8   1.4784   0.9622   0.5155   0.9261   0.9261   2.1856   0.00    0.0
2019/01/19 01:58:30.000   47.480971082   19.056537492   179.9420   5   8   1.4757   0.9627   0.5190   0.9271   0.9271   2.1777   0.00    0.0
2019/01/19 01:59:00.000   47.480970889   19.056537574   180.0165   5   8   1.4729   0.9632   0.5224   0.9279   0.9279   2.1695   0.00    0.0
2019/01/19 01:59:30.000   47.480971039   19.056538325   179.8904   5   8   1.4701   0.9635   0.5258   0.9285   0.9285   2.1612   0.00    0.0
2019/01/19 02:00:00.000   47.480972446   19.056538327   179.5865   5   8   1.4672   0.9637   0.5291   0.9290   0.9290   2.1527   0.00    0.0
2019/01/19 02:00:30.000   47.480973204   19.056542516   179.3444   5   8   1.4643   0.9639   0.5324   0.9293   0.9293   2.1440   0.00    0.0
2019/01/19 02:01:00.000   47.480972882   19.056542660   179.5281   5   8   1.4613   0.9639   0.5356   0.9293   0.9293   2.1353   0.00    0.0
2019/01/19 02:01:30.000   47.480972147   19.056542663   179.5125   5   8   1.4582   0.9639   0.5387   0.9292   0.9292   2.1263   0.00    0.0
2019/01/19 02:02:00.000   47.480971316   19.056542704   179.1993   5   8   1.4551   0.9637   0.5418   0.9290   0.9290   2.1172   0.00    0.0
2019/01/19 02:02:30.000   47.480970806   19.056542204   178.9651   5   8   1.4519   0.9635   0.5448   0.9285   0.9285   2.1080   0.00    0.0
2019/01/19 02:03:00.000   47.480970925   19.056541116   178.8501   5   8   1.4487   0.9631   0.5477   0.9279   0.9279   2.0986   0.00    0.0
2019/01/19 02:03:30.000   47.480971863   19.056539169   178.8651   5   8   1.4454   0.9627   0.5506   0.9271   0.9271   2.0891   0.00    0.0
2019/01/19 02:04:00.000   47.480972843   19.056537709   179.0699   5   8   1.4420   0.9622   0.5535   0.9261   0.9261   2.0795   0.00    0.0
2019/01/19 02:04:30.000   47.480972170   19.056539059   179.4707   5   8   1.4387   0.9616   0.5562   0.9249   0.9249   2.0697   0.00    0.0
2019/01/19 02:05:00.000   47.480971761   19.056539259   179.8540   5   8   1.4352   0.9609   0.5590   0.9236   0.9236   2.0598   0.00    0.0
2019/01/19 02:05:30.000   47.480965087   19.056534698   178.8773   5   7   1.4336   0.9182   0.5505   0.8432   0.8432   2.0551   0.00    0.0
2019/01/19 02:06:00.000   47.480976810   19.056532998   180.4727   5   8   1.4211   0.8323   0.5538   0.6929   0.6929   2.0194   0.00    0.0
2019/01/19 02:06:30.000   47.480978144   19.056533548   180.3117   5   8   1.4164   0.8373   0.5582   0.7012   0.7012   2.0063   0.00    0.0
2019/01/19 02:07:00.000   47.480977395   19.056532547   180.0831   5   8   1.4119   0.8423   0.5625   0.7096   0.7096   1.9934   0.00    0.0
2019/01/19 02:07:30.000   47.480973746   19.056531727   179.9286   5   8   1.4074   0.8473   0.5669   0.7181   0.7181   1.9809   0.00    0.0
2019/01/19 02:08:00.000   47.480969467   19.056532120   179.9324   5   8   1.4031   0.8525   0.5713   0.7269   0.7269   1.9687   0.00    0.0
2019/01/19 02:08:30.000   47.480966857   19.056533653   180.0139   5   8   1.3989   0.8577   0.5757   0.7358   0.7358   1.9568   0.00    0.0
2019/01/19 02:09:00.000   47.480966379   19.056534539   180.2745   5   8   1.3947   0.8629   0.5802   0.7448   0.7448   1.9452   0.00    0.0
2019/01/19 02:09:30.000   47.480967115   19.056534848   180.4431   5   8   1.3907   0.8683   0.5847   0.7541   0.7541   1.9340   0.00    0.0
2019/01/19 02:10:00.000   47.480968928   19.056532973   180.1653   5   8   1.3867   0.8737   0.5892   0.7635   0.7635   1.9231   0.00    0.0
2019/01/19 02:10:30.000   47.480968847   19.056531611   180.0570   5   8   1.3829   0.8792   0.5938   0.7732   0.7732   1.9124   0.00    0.0
2019/01/19 02:11:00.000   47.480967237   19.056531493   180.1119   5   8   1.3792   0.8848   0.5984   0.7830   0.7830   1.9021   0.00    0.0
2019/01/19 02:11:30.000   47.480964934   19.056530641   180.0098   5   8   1.3755   0.8904   0.6030   0.7930   0.7930   1.8921   0.00    0.0
2019/01/19 02:12:00.000   47.480962801   19.056530872   180.2609   5   8   1.3720   0.8962   0.6077   0.8033   0.8033   1.8824   0.00    0.0
2019/01/19 02:12:30.000   47.480962285   19.056531403   180.3892   5   8   1.3686   0.9020   0.6124   0.8138   0.8138   1.8730   0.00    0.0
2019/01/19 02:13:00.000   47.480963136   19.056530541   180.3093   5   8   1.3653   0.9079   0.6172   0.8245   0.8245   1.8640   0.00    0.0
2019/01/19 02:13:30.000   47.480964396   19.056529755   179.9927   5   8   1.3621   0.9139   0.6220   0.8354   0.8354   1.8552   0.00    0.0
2019/01/19 02:14:00.000   47.480965542   19.056550942   183.8257   5   9   1.2823   0.7606   0.4135   0.5786   0.5786   1.6442   0.00    0.0
2019/01/19 02:14:30.000   47.480966154   19.056551819   183.6537   5   9   1.2781   0.7648   0.4171   0.5851   0.5851   1.6335   0.00    0.0
2019/01/19 02:15:00.000   47.480965158   19.056553063   183.6718   5   9   1.2739   0.7691   0.4207   0.5917   0.5917   1.6229   0.00    0.0
2019/01/19 02:15:30.000   47.480964459   19.056553212   183.5917   5   9   1.2699   0.7734   0.4243   0.5984   0.5984   1.6126   0.00    0.0
2019/01/19 02:16:00.000   47.480964324   19.056550234   183.1899   5   9   1.2659   0.7778   0.4279   0.6052   0.6052   1.6026   0.00    0.0
2019/01/19 02:16:30.000   47.480964434   19.056548632   183.0483   5   9   1.2620   0.7822   0.4315   0.6121   0.6121   1.5928   0.00    0.0
2019/01/19 02:17:00.000   47.480964115   19.056548714   182.9683   5   9   1.2582   0.7867   0.4352   0.6192   0.6192   1.5832   0.00    0.0
2019/01/19 02:17:30.000   47.480963559   19.056549074   183.0797   5   9   1.2545   0.7913   0.4389   0.6264   0.6264   1.5738   0.00    0.0
2019/01/19 02:18:00.000   47.480963195   19.056548869   182.8424   5   9   1.2509   0.7959   0.4426   0.6337   0.6337   1.5647   0.00    0.0
2019/01/19 02:18:30.000   47.480963208   19.056549035   182.5421   5   9   1.2473   0.8006   0.4463   0.6412   0.6412   1.5558   0.00    0.0
2019/01/19 02:19:00.000   47.480963602   19.056548406   182.0397   5   9   1.2438   0.8053   0.4500   0.6488   0.6488   1.5471   0.00    0.0
2019/01/19 02:19:30.000   47.480963206   19.056550038   181.8807   5   9   1.2404   0.8101   0.4538   0.6565   0.6565   1.5387   0.00    0.0
2019/01/19 02:20:00.000   47.480962676   19.056550054   181.8531   5   9   1.2371   0.8150   0.4576   0.6644   0.6644   1.5305   0.00    0.0
2019/01/19 02:20:30.000   47.480962364   19.056547588   181.8751   5   9   1.2339   0.8199   0.4614   0.6725   0.6725   1.5225   0.00    0.0
2019/01/19 02:21:00.000   47.480962618   19.056544509   182.0038   5   9   1.2307   0.8249   0.4653   0.6806   0.6806   1.5147   0.00    0.0
2019/01/19 02:21:30.000   47.480962325   19.056544703   182.1719   5   9   1.2277   0.8299   0.4691   0.6890   0.6890   1.5072   0.00    0.0
2019/01/19 02:22:00.000   47.480962137   19.056545465   182.4143   5   9   1.2247   0.8350   0.4730   0.6975   0.6975   1.4999   0.00    0.0
2019/01/19 02:22:30.000   47.480961264   19.056545771   182.8266   5   9   1.2218   0.8402   0.4770   0.7061   0.7061   1.4927   0.00    0.0
2019/01/19 02:23:00.000   47.480959704   19.056546017   183.1252   5   9   1.2190   0.8454   0.4809   0.7150   0.7150   1.4858   0.00    0.0
2019/01/19 02:23:30.000   47.480959643   19.056545077   183.2415   5   9   1.2162   0.8507   0.4849   0.7240   0.7240   1.4792   0.00    0.0
2019/01/19 02:24:00.000   47.480960177   19.056543828   183.0961   5   9   1.2136   0.8561   0.4890   0.7331   0.7331   1.4727   0.00    0.0
2019/01/19 02:24:30.000   47.480960921   19.056543752   182.9634   5   9   1.2110   0.8615   0.4930   0.7425   0.7425   1.4664   0.00    0.0
2019/01/19 02:25:00.000   47.480961238   19.056543753   182.6923   5   9   1.2085   0.8670   0.4971   0.7520   0.7520   1.4604   0.00    0.0
2019/01/19 02:25:30.000   47.480961158   19.056544466   182.5234   5   9   1.2061   0.8726   0.5013   0.7616   0.7616   1.4546   0.00    0.0
2019/01/19 02:26:00.000   47.480960388   19.056543707   182.0237   5   9   1.2037   0.8782   0.5055   0.7715   0.7715   1.4489   0.00    0.0
2019/01/19 02:26:30.000   47.480960010   19.056543653   181.8408   5  10   1.1997   0.8563   0.4921   0.7335   0.7335   1.4394   0.00    0.0
2019/01/19 02:27:00.000   47.480959589   19.056542719   181.6678   5  10   1.1972   0.8595   0.4947   0.7389   0.7389   1.4334   0.00    0.0
2019/01/19 02:27:30.000   47.480959158   19.056542310   181.9342   5  10   1.1948   0.8627   0.4974   0.7445   0.7445   1.4276   0.00    0.0
2019/01/19 02:28:00.000   47.480958776   19.056542917   182.2292   5  10   1.1924   0.8659   0.5000   0.7500   0.7500   1.4219   0.00    0.0
2019/01/19 02:28:30.000   47.480958673   19.056542653   182.3495   5  10   1.1901   0.8692   0.5027   0.7557   0.7557   1.4163   0.00    0.0
2019/01/19 02:29:00.000   47.480957346   19.056541848   182.1399   5  10   1.1878   0.8724   0.5054   0.7614   0.7614   1.4109   0.00    0.0
2019/01/19 02:29:30.000   47.480955918   19.056539312   181.7069   5  10   1.1856   0.8758   0.5082   0.7672   0.7672   1.4056   0.00    0.0
2019/01/19 02:30:00.000   47.480955546   19.056538292   181.3481   5  10   1.1834   0.8791   0.5109   0.7731   0.7731   1.4004   0.00    0.0
2019/01/19 02:30:30.000   47.480955290   19.056538884   181.1591   5  10   1.1812   0.8825   0.5137   0.7790   0.7790   1.3953   0.00    0.0
2019/01/19 02:31:00.000   47.480955348   19.056540031   181.3699   5  10   1.1792   0.8858   0.5164   0.7849   0.7849   1.3904   0.00    0.0
2019/01/19 02:31:30.000   47.480955685   19.056541289   181.7969   5  10   1.1771   0.8892   0.5192   0.7910   0.7910   1.3856   0.00    0.0
2019/01/19 02:32:00.000   47.480955874   19.056540949   182.2140   5  10   1.1751   0.8926   0.5220   0.7971   0.7971   1.3809   0.00    0.0
2019/01/19 02:32:30.000   47.480956165   19.056539079   182.1617   5  10   1.1732   0.8961   0.5249   0.8032   0.8032   1.3763   0.00    0.0
2019/01/19 02:33:00.000   47.480955392   19.056538173   181.9411   5  10   1.1713   0.8995   0.5277   0.8094   0.8094   1.3718   0.00    0.0
2019/01/19 02:33:30.000   47.480953926   19.056538325   181.7556   5  10   1.1694   0.9030   0.5306   0.8157   0.8157   1.3675   0.00    0.0
2019/01/19 02:34:00.000   47.480952544   19.056538898   181.6562   5  10   1.1676   0.9065   0.5335   0.8220   0.8220   1.3632   0.00    0.0
2019/01/19 02:34:30.000   47.480952720   19.056538712   181.7171   5  10   1.1658   0.9100   0.5364   0.8284   0.8284   1.3591   0.00    0.0
2019/01/19 02:35:00.000   47.480952962   19.056537724   181.7114   5  10   1.1641   0.9135   0.5393   0.8348   0.8348   1.3550   0.00    0.0
2019/01/19 02:35:30.000   47.480953573   19.056536428   181.7450   5  10   1.1624   0.9170   0.5422   0.8412   0.8412   1.3511   0.00    0.0
2019/01/19 02:36:00.000   47.480953897   19.056535753   181.9814   5  10   1.1607   0.9206   0.5452   0.8477   0.8477   1.3472   0.00    0.0
2019/01/19 02:36:30.000   47.480954093   19.056535625   182.2357   5  10   1.1591   0.9241   0.5482   0.8543   0.8543   1.3435   0.00    0.0
2019/01/19 02:37:00.000   47.480954383   19.056535621   182.1995   5  10   1.1575   0.9277   0.5512   0.8609   0.8609   1.3398   0.00    0.0
2019/01/19 02:37:30.000   47.480953355   19.056535584   182.2051   5  10   1.1560   0.9312   0.5542   0.8675   0.8675   1.3363   0.00    0.0
2019/01/19 02:38:00.000   47.480950750   19.056535680   182.0420   5  10   1.1545   0.9348   0.5572   0.8741   0.8741   1.3328   0.00    0.0
2019/01/19 02:38:30.000   47.480948571   19.056536729   181.7729   5  10   1.1530   0.9384   0.5602   0.8808   0.8808   1.3294   0.00    0.0
2019/01/19 02:39:00.000   47.480947202   19.056537250   181.6310   5  10   1.1515   0.9419   0.5633   0.8875   0.8875   1.3260   0.00    0.0
2019/01/19 02:39:30.000   47.480947220   19.056537872   181.7167   5  10   1.1501   0.9455   0.5664   0.8942   0.8942   1.3228   0.00    0.0
2019/01/19 02:40:00.000   47.480947874   19.056536595   181.7784   5  10   1.1487   0.9490   0.5695   0.9010   0.9010   1.3196   0.00    0.0
2019/01/19 02:40:30.000   47.480948575   19.056534761   181.8704   5  10   1.1474   0.9526   0.5726   0.9077   0.9077   1.3165   0.00    0.0
2019/01/19 02:41:00.000   47.480949399   19.056532579   181.8739   5  10   1.1460   0.9561   0.5757   0.9145   0.9145   1.3134   0.00    0.0
2019/01/19 02:41:30.000   47.480949177   19.056532152   181.9568   5  10   1.1447   0.9597   0.5788   0.9213   0.9213   1.3104   0.00    0.0
2019/01/19 02:42:00.000   47.480948181   19.056532225   182.1043   5  10   1.1435   0.9632   0.5819   0.9280   0.9280   1.3075   0.00    0.0
2019/01/19 02:42:30.000   47.480946306   19.056533327   182.0694   5  10   1.1422   0.9667   0.5851   0.9348   0.9348   1.3046   0.00    0.0
2019/01/19 02:43:00.000   47.480946207   19.056533245   181.8539   5  10   1.1410   0.9701   0.5882   0.9415   0.9415   1.3018   0.00    0.0
2019/01/19 02:43:30.000   47.480947458   19.056533075   181.5699   5  10   1.1397   0.9736   0.5914   0.9482   0.9482   1.2990   0.00    0.0
2019/01/19 02:44:00.000   47.480948367   19.056532646   181.5393   5  10   1.1385   0.9771   0.5945   0.9549   0.9549   1.2963   0.00    0.0
2019/01/19 02:44:30.000   47.480947362   19.056531409   181.6074   5  10   1.1373   0.9804   0.5977   0.9616   0.9616   1.2936   0.00    0.0
2019/01/19 02:45:00.000   47.480945711   19.056528329   181.3338   5  10   1.1362   0.9838   0.6009   0.9682   0.9682   1.2909   0.00    0.0
2019/01/19 02:45:30.000   47.480944197   19.056526667   181.1249   5  10   1.1350   0.9872   0.6040   0.9747   0.9747   1.2882   0.00    0.0
2019/01/19 02:46:00.000   47.480943773   19.056526492   181.1267   5  10   1.1339   0.9904   0.6072   0.9813   0.9813   1.2856   0.00    0.0
2019/01/19 02:46:30.000   47.480944460   19.056527432   181.4501   5  10   1.1327   0.9937   0.6104   0.9877   0.9877   1.2831   0.00    0.0
2019/01/19 02:47:00.000   47.480945193   19.056526690   181.5546   5  10   1.1316   0.9969   0.6136   0.9941   0.9941   1.2805   0.00    0.0
2019/01/19 02:47:30.000   47.480944954   19.056526663   181.7741   5  10   1.1305   1.0000   0.6168   1.0004   1.0004   1.2779   0.00    0.0
2019/01/19 02:48:00.000   47.480943751   19.056527338   181.6824   5  10   1.1293   1.0031   0.6199   1.0066   1.0066   1.2754   0.00    0.0
2019/01/19 02:48:30.000   47.480943510   19.056528420   181.8572   5  10   1.1282   1.0062   0.6231   1.0127   1.0127   1.2728   0.00    0.0
2019/01/19 02:49:00.000   47.480944259   19.056529972   182.0853   5  10   1.1271   1.0092   0.6263   1.0187   1.0187   1.2703   0.00    0.0
2019/01/19 02:49:30.000   47.480945590   19.056529973   182.1404   5  10   1.1259   1.0121   0.6294   1.0246   1.0246   1.2678   0.00    0.0
2019/01/19 02:50:00.000   47.480947016   19.056529142   182.2496   5  10   1.1248   1.0149   0.6326   1.0304   1.0304   1.2652   0.00    0.0
2019/01/19 02:50:30.000   47.480947839   19.056527581   182.3046   5  10   1.1237   1.0177   0.6357   1.0360   1.0360   1.2626   0.00    0.0
2019/01/19 02:51:00.000   47.480948420   19.056524229   182.2317   5  10   1.1225   1.0204   0.6388   1.0415   1.0415   1.2600   0.00    0.0
2019/01/19 02:51:30.000   47.480948812   19.056522740   182.5669   5  10   1.1213   1.0230   0.6419   1.0468   1.0468   1.2574   0.00    0.0
2019/01/19 02:52:00.000   47.480948143   19.056522804   182.9465   5  10   1.1202   1.0255   0.6450   1.0520   1.0520   1.2548   0.00    0.0
2019/01/19 02:52:30.000   47.480947564   19.056523167   182.9676   5  10   1.1190   1.0280   0.6480   1.0570   1.0570   1.2521   0.00    0.0
2019/01/19 02:53:00.000   47.480947077   19.056523419   182.9333   5  10   1.1178   1.0303   0.6511   1.0618   1.0618   1.2494   0.00    0.0
2019/01/19 02:53:30.000   47.480946343   19.056521032   182.7030   5  10   1.1166   1.0325   0.6541   1.0665   1.0665   1.2467   0.00    0.0
2019/01/19 02:54:00.000   47.480945829   19.056518889   182.6256   5  10   1.1153   1.0347   0.6571   1.0709   1.0709   1.2439   0.00    0.0
2019/01/19 02:54:30.000   47.480946286   19.056518099   182.6788   5  10   1.1140   1.0367   0.6601   1.0751   1.0751   1.2411   0.00    0.0
2019/01/19 02:55:00.000   47.480944520   19.056520391   183.6634   5  11   0.9332   0.9215   0.4607   0.8495   0.8495   0.8708   0.00    0.0
2019/01/19 02:55:30.000   47.480947536   19.056526419   183.0789   5  10   1.2409   1.1178   0.3623   1.2500   1.2500   1.5398   0.00    0.0
2019/01/19 02:56:00.000   47.480946850   19.056525742   183.6564   5  10   1.2429   1.1233   0.3685   1.2622   1.2622   1.5447   0.00    0.0
2019/01/19 02:56:30.000   47.480946777   19.056525435   183.5732   5  10   1.2448   1.1286   0.3745   1.2742   1.2742   1.5495   0.00    0.0
2019/01/19 02:57:00.000   47.480948006   19.056526019   183.0672   5  10   1.2467   1.1338   0.3805   1.2861   1.2861   1.5542   0.00    0.0
2019/01/19 02:57:30.000   47.480947760   19.056526645   183.1094   5  10   1.2485   1.1389   0.3863   1.2976   1.2976   1.5586   0.00    0.0
2019/01/19 02:58:00.000   47.480947733   19.056528316   182.8693   5  10   1.2502   1.1439   0.3920   1.3089   1.3089   1.5629   0.00    0.0
2019/01/19 02:58:30.000   47.480947997   19.056530153   182.7503   5  10   1.2518   1.1487   0.3976   1.3199   1.3199   1.5671   0.00    0.0
2019/01/19 02:59:00.000   47.480948890   19.056530019   182.5483   5  10   1.2534   1.1533   0.4031   1.3306   1.3306   1.5710   0.00    0.0
2019/01/19 02:59:30.000   47.480949904   19.056530723   182.7917   5  10   1.2549   1.1578   0.4085   1.3410   1.3410   1.5747   0.00    0.0
2019/01/19 03:00:00.000   47.480950731   19.056532667   182.8310   5  10   1.2563   1.1621   0.4138   1.3510   1.3510   1.5783   0.00    0.0
2019/01/19 03:00:30.000   47.480950641   19.056533886   182.7023   5  10   1.2576   1.1663   0.4190   1.3606   1.3606   1.5815   0.00    0.0
2019/01/19 03:01:00.000   47.480950023   19.056533369   183.1092   5  10   1.2588   1.1702   0.4241   1.3699   1.3699   1.5846   0.00    0.0
2019/01/19 03:01:30.000   47.480949331   19.056530666   183.7570   5  10   1.2599   1.1740   0.4290   1.3788   1.3788   1.5874   0.00    0.0
2019/01/19 03:02:00.000   47.480949142   19.056527465   184.3400   5  10   1.2610   1.1776   0.4339   1.3872   1.3872   1.5900   0.00    0.0
2019/01/19 03:02:30.000   47.480949102   19.056526037   184.5601   5  10   1.2619   1.1810   0.4386   1.3951   1.3951   1.5923   0.00    0.0
2019/01/19 03:03:00.000   47.480949076   19.056526320   184.4125   5  10   1.2627   1.1841   0.4432   1.4026   1.4026   1.5944   0.00    0.0
2019/01/19 03:03:30.000   47.480948278   19.056526516   184.0730   5  10   1.2634   1.1871   0.4477   1.4097   1.4097   1.5961   0.00    0.0
2019/01/19 03:04:00.000   47.480949050   19.056525879   183.6928   5  10   1.2640   1.1898   0.4520   1.4162   1.4162   1.5976   0.00    0.0
2019/01/19 03:04:30.000   47.480949546   19.056525772   183.6115   5  10   1.2644   1.1924   0.4563   1.4222   1.4222   1.5988   0.00    0.0
2019/01/19 03:05:00.000   47.480949205   19.056525711   183.7056   5  10   1.2648   1.1947   0.4604   1.4277   1.4277   1.5997   0.00    0.0
2019/01/19 03:05:30.000   47.480949232   19.056524931   183.7761   5  10   1.2650   1.1967   0.4644   1.4326   1.4326   1.6002   0.00    0.0
2019/01/19 03:06:00.000   47.480949883   19.056523465   184.4306   5  10   1.2651   1.1985   0.4683   1.4370   1.4370   1.6005   0.00    0.0
2019/01/19 03:06:30.000   47.480951866   19.056522364   185.0400   5  10   1.2651   1.2001   0.4720   1.4408   1.4408   1.6004   0.00    0.0
2019/01/19 03:07:00.000   47.480952682   19.056521928   184.9720   5  10   1.2649   1.2015   0.4756   1.4440   1.4440   1.6000   0.00    0.0
2019/01/19 03:07:30.000   47.480952954   19.056523818   185.0947   5  10   1.2646   1.2026   0.4791   1.4467   1.4467   1.5993   0.00    0.0
2019/01/19 03:08:00.000   47.480952472   19.056525469   185.3960   5  10   1.2642   1.2034   0.4825   1.4487   1.4487   1.5982   0.00    0.0
2019/01/19 03:08:30.000   47.480951864   19.056526702   185.8034   5  10   1.2637   1.2040   0.4857   1.4501   1.4501   1.5969   0.00    0.0
2019/01/19 03:09:00.000   47.480952803   19.056526862   185.9061   5  10   1.2630   1.2043   0.4888   1.4509   1.4509   1.5952   0.00    0.0
2019/01/19 03:09:30.000   47.480953816   19.056523659   185.2497   5  10   1.2622   1.2044   0.4918   1.4511   1.4511   1.5931   0.00    0.0
2019/01/19 03:10:00.000   47.480954030   19.056522055   185.1124   5  10   1.2612   1.2042   0.4946   1.4507   1.4507   1.5907   0.00    0.0
2019/01/19 03:10:30.000   47.480954384   19.056522912   185.0000   5  10   1.2601   1.2038   0.4973   1.4497   1.4497   1.5879   0.00    0.0
2019/01/19 03:11:00.000   47.480955044   19.056523141   185.1039   5  10   1.2589   1.2031   0.4999   1.4481   1.4481   1.5849   0.00    0.0
2019/01/19 03:11:30.000   47.480955245   19.056522369   185.0759   5  10   1.2576   1.2022   0.5023   1.4458   1.4458   1.5815   0.00    0.0
2019/01/19 03:12:00.000   47.480954330   19.056521627   184.5162   5  10   1.2561   1.2010   0.5046   1.4430   1.4430   1.5777   0.00    0.0
2019/01/19 03:12:30.000   47.480952541   19.056520808   183.8511   5  10   1.2545   1.1996   0.5068   1.4395   1.4395   1.5737   0.00    0.0
2019/01/19 03:13:00.000   47.480950646   19.056520381   183.7260   5  10   1.2527   1.1979   0.5088   1.4355   1.4355   1.5693   0.00    0.0
2019/01/19 03:13:30.000   47.480950445   19.056521925   184.2441   5  10   1.2509   1.1959   0.5108   1.4308   1.4308   1.5646   0.00    0.0
2019/01/19 03:14:00.000   47.480951425   19.056523893   184.5063   5  10   1.2489   1.1938   0.5126   1.4256   1.4256   1.5597   0.00    0.0
2019/01/19 03:14:30.000   47.480952916   19.056525234   184.8092   5  10   1.2468   1.1913   0.5143   1.4198   1.4198   1.5544   0.00    0.0
2019/01/19 03:15:00.000   47.480953940   19.056526605   185.3425   5  10   1.2445   1.1886   0.5158   1.4135   1.4135   1.5489   0.00    0.0
2019/01/19 03:15:30.000   47.480953879   19.056526746   185.6108   5  10   1.2422   1.1858   0.5173   1.4066   1.4066   1.5430   0.00    0.0
2019/01/19 03:16:00.000   47.480953287   19.056526456   185.5584   5  10   1.2397   1.1826   0.5186   1.3992   1.3992   1.5369   0.00    0.0
2019/01/19 03:16:30.000   47.480953444   19.056526771   184.8636   5  10   1.2371   1.1793   0.5198   1.3913   1.3913   1.5305   0.00    0.0
2019/01/19 03:17:00.000   47.480954776   19.056525542   183.9341   5  10   1.2345   1.1757   0.5209   1.3829   1.3829   1.5239   0.00    0.0
2019/01/19 03:17:30.000   47.480955454   19.056524784   183.2916   5  10   1.2317   1.1720   0.5219   1.3740   1.3740   1.5170   0.00    0.0
2019/01/19 03:18:00.000   47.480953541   19.056524563   183.0717   5  10   1.2288   1.1680   0.5228   1.3647   1.3647   1.5099   0.00    0.0
2019/01/19 03:18:30.000   47.480951932   19.056524760   183.2742   5  10   1.2258   1.1638   0.5236   1.3549   1.3549   1.5026   0.00    0.0
2019/01/19 03:19:00.000   47.480951133   19.056524798   183.6127   5  10   1.2227   1.1594   0.5242   1.3447   1.3447   1.4951   0.00    0.0
2019/01/19 03:19:30.000   47.480953026   19.056525334   183.6510   5  10   1.2196   1.1548   0.5248   1.3341   1.3341   1.4874   0.00    0.0
2019/01/19 03:20:00.000   47.480954331   19.056525485   183.8749   5  10   1.2164   1.1501   0.5253   1.3232   1.3232   1.4795   0.00    0.0
2019/01/19 03:20:30.000   47.480965886   19.056535120   188.5576   5  11   1.1514   0.9623   0.3825   0.9266   0.9266   1.3257   0.00    0.0
2019/01/19 03:21:00.000   47.480964298   19.056534102   188.7549   5  11   1.1496   0.9609   0.3855   0.9239   0.9239   1.3217   0.00    0.0
2019/01/19 03:21:30.000   47.480962479   19.056533584   188.8711   5  11   1.1478   0.9594   0.3885   0.9209   0.9209   1.3175   0.00    0.0
2019/01/19 03:22:00.000   47.480961578   19.056533462   188.8368   5  11   1.1459   0.9578   0.3914   0.9178   0.9178   1.3132   0.00    0.0
2019/01/19 03:22:30.000   47.480961867   19.056534561   188.7623   5  11   1.1440   0.9560   0.3942   0.9144   0.9144   1.3087   0.00    0.0
2019/01/19 03:23:00.000   47.480962195   19.056535530   188.3263   5  11   1.1420   0.9542   0.3970   0.9109   0.9109   1.3042   0.00    0.0
2019/01/19 03:23:30.000   47.480961974   19.056534498   187.7448   5  11   1.1400   0.9522   0.3997   0.9071   0.9071   1.2995   0.00    0.0
2019/01/19 03:24:00.000   47.480962103   19.056533582   187.6263   5  11   1.1379   0.9501   0.4023   0.9031   0.9031   1.2948   0.00    0.0
2019/01/19 03:24:30.000   47.480962473   19.056532599   187.8670   5  11   1.1357   0.9479   0.4049   0.8990   0.8990   1.2899   0.00    0.0
2019/01/19 03:25:00.000   47.480963101   19.056532692   187.9875   5  11   1.1336   0.9456   0.4075   0.8946   0.8946   1.2850   0.00    0.0
2019/01/19 03:25:30.000   47.480962743   19.056532921   188.3248   5  11   1.1313   0.9432   0.4100   0.8901   0.8901   1.2799   0.00    0.0
2019/01/19 03:26:00.000   47.480964028   19.056533535   188.3466   5  11   1.1291   0.9407   0.4124   0.8854   0.8854   1.2748   0.00    0.0
2019/01/19 03:26:30.000   47.480965536   19.056533187   187.9983   5  11   1.1268   0.9381   0.4147   0.8805   0.8805   1.2696   0.00    0.0
2019/01/19 03:27:00.000   47.480964762   19.056533629   188.0663   5  11   1.1244   0.9354   0.4170   0.8754   0.8754   1.2643   0.00    0.0
2019/01/19 03:27:30.000   47.480963564   19.056533180   188.3931   5  11   1.1220   0.9326   0.4193   0.8702   0.8702   1.2589   0.00    0.0
2019/01/19 03:28:00.000   47.480962459   19.056534879   188.8138   5  11   1.1196   0.9297   0.4215   0.8648   0.8648   1.2535   0.00    0.0
2019/01/19 03:28:30.000   47.480962225   19.056537550   188.9961   5  11   1.1171   0.9268   0.4236   0.8593   0.8593   1.2480   0.00    0.0
2019/01/19 03:29:00.000   47.480962565   19.056538035   189.1299   5  11   1.1146   0.9237   0.4257   0.8536   0.8536   1.2424   0.00    0.0
