% program   : RTKPOST ver.demo5 b31
% inp file  : C:\Users\lus2bp\Source\Repos\GINA\70_EGNOS_Project\files\PositionComparisonInputFiles\bute0190\bute0190.19o
% inp file  : C:\Users\lus2bp\Source\Repos\GINA\70_EGNOS_Project\files\PositionComparisonInputFiles\bute0190\brdc0190.19n
% obs start : 2019/01/19 00:00:00.0 GPST (week2036 518400.0s)
% obs end   : 2019/01/19 23:59:30.0 GPST (week2036 604770.0s)
% pos mode  : single
% elev mask : 15.0 deg
% ionos opt : off
% tropo opt : off
% ephemeris : broadcast
%
% (lat/lon/height=WGS84/ellipsoidal,Q=1:fix,2:float,3:sbas,4:dgps,5:single,6:ppp,ns=# of satellites)
%  GPST                  latitude(deg) longitude(deg)  height(m)   Q  ns   sdn(m)   sde(m)   sdu(m)  sdne(m)  sdeu(m)  sdun(m) age(s)  ratio
2019/01/19 00:00:00.000   47.480938459   19.056523148   191.5521   5   7   5.9568   6.4217  15.4326   2.9012  -7.2197   4.2459   0.00    0.0
2019/01/19 00:00:30.000   47.480940289   19.056522586   191.6218   5   7   5.9536   6.4075  15.5447   2.8484  -7.2370   4.3261   0.00    0.0
2019/01/19 00:01:00.000   47.480942460   19.056525117   191.4690   5   7   5.9505   6.3935  15.6566   2.7954  -7.2541   4.4041   0.00    0.0
2019/01/19 00:01:30.000   47.480942998   19.056528285   191.1555   5   7   5.9475   6.3795  15.7683   2.7423  -7.2710   4.4799   0.00    0.0
2019/01/19 00:02:00.000   47.480943730   19.056527736   191.0953   5   7   5.9447   6.3658  15.8794   2.6891  -7.2877   4.5535   0.00    0.0
2019/01/19 00:02:30.000   47.480944709   19.056525890   191.8385   5   7   5.9419   6.3521  15.9900   2.6358  -7.3040   4.6249   0.00    0.0
2019/01/19 00:03:00.000   47.480944857   19.056523165   192.1284   5   7   5.9391   6.3386  16.0998   2.5823  -7.3200   4.6940   0.00    0.0
2019/01/19 00:03:30.000   47.480946001   19.056521817   191.2233   5   7   5.9364   6.3251  16.2088   2.5288  -7.3355   4.7609   0.00    0.0
2019/01/19 00:04:00.000   47.480946352   19.056522016   190.4385   5   7   5.9337   6.3117  16.3166   2.4753  -7.3504   4.8255   0.00    0.0
2019/01/19 00:04:30.000   47.480945975   19.056523298   190.2074   5   7   5.9309   6.2983  16.4232   2.4217  -7.3648   4.8878   0.00    0.0
2019/01/19 00:05:00.000   47.480944690   19.056524004   189.8085   5   7   5.9281   6.2850  16.5285   2.3681  -7.3784   4.9476   0.00    0.0
2019/01/19 00:05:30.000   47.480942776   19.056526464   189.9172   5   7   5.9253   6.2716  16.6321   2.3145  -7.3913   5.0051   0.00    0.0
2019/01/19 00:06:00.000   47.480941893   19.056528867   190.1761   5   7   5.9223   6.2583  16.7339   2.2611  -7.4034   5.0601   0.00    0.0
2019/01/19 00:06:30.000   47.480941739   19.056530378   189.9920   5   7   5.9192   6.2449  16.8338   2.2077  -7.4145   5.1125   0.00    0.0
2019/01/19 00:07:00.000   47.480942557   19.056530566   189.7369   5   7   5.9160   6.2315  16.9316   2.1545  -7.4246   5.1624   0.00    0.0
2019/01/19 00:07:30.000   47.480944037   19.056528072   189.6450   5   7   5.9126   6.2181  17.0270   2.1015  -7.4337   5.2095   0.00    0.0
2019/01/19 00:08:00.000   47.480944788   19.056525467   189.6267   5   7   5.9090   6.2045  17.1199   2.0487  -7.4416   5.2540   0.00    0.0
2019/01/19 00:08:30.000   47.480944260   19.056523679   190.1121   5   7   5.9051   6.1909  17.2102   1.9962  -7.4483   5.2957   0.00    0.0
2019/01/19 00:09:00.000   47.480943771   19.056521809   190.4884   5   7   5.9011   6.1771  17.2975   1.9440  -7.4536   5.3345   0.00    0.0
2019/01/19 00:09:30.000   47.480943584   19.056522594   190.6869   5   7   5.8967   6.1632  17.3818   1.8923  -7.4576   5.3705   0.00    0.0
2019/01/19 00:10:00.000   47.480943496   19.056524881   190.7666   5   7   5.8921   6.1492  17.4629   1.8410  -7.4602   5.4034   0.00    0.0
2019/01/19 00:10:30.000   47.480944828   19.056525050   190.7714   5   7   5.8872   6.1350  17.5405   1.7903  -7.4612   5.4333   0.00    0.0
2019/01/19 00:11:00.000   47.480946200   19.056525203   189.9810   5   7   5.8820   6.1207  17.6145   1.7402  -7.4606   5.4601   0.00    0.0
2019/01/19 00:11:30.000   47.480946227   19.056520429   190.5822   5   8   5.8590   4.0242  11.9019   0.8845   2.1082   5.9988   0.00    0.0
2019/01/19 00:12:00.000   47.480946523   19.056522264   190.4527   5   8   5.8541   4.0285  11.9400   0.8306   2.1092   6.0053   0.00    0.0
2019/01/19 00:12:30.000   47.480946625   19.056522875   190.2261   5   8   5.8486   4.0330  11.9763   0.7728   2.1103   6.0104   0.00    0.0
2019/01/19 00:13:00.000   47.480946989   19.056524428   190.0192   5   8   5.8427   4.0375  12.0110   0.7102   2.1114   6.0140   0.00    0.0
2019/01/19 00:13:30.000   47.480946470   19.056528357   190.2013   5   8   5.8362   4.0421  12.0438   0.6415   2.1126   6.0160   0.00    0.0
2019/01/19 00:14:00.000   47.480946911   19.056529688   190.3263   5   8   5.8293   4.0469  12.0749   0.5644   2.1139   6.0165   0.00    0.0
2019/01/19 00:14:30.000   47.480948122   19.056529984   190.3582   5   8   5.8218   4.0517  12.1040   0.4748   2.1153   6.0155   0.00    0.0
2019/01/19 00:15:00.000   47.480948749   19.056529523   190.2384   5   8   5.8139   4.0567  12.1313   0.3636   2.1168   6.0128   0.00    0.0
2019/01/19 00:15:30.000   47.480948438   19.056527441   189.9561   5   8   5.8054   4.0617  12.1566   0.1974   2.1185   6.0086   0.00    0.0
2019/01/19 00:16:00.000   47.480948916   19.056525657   189.7906   5   8   5.7965   4.0668  12.1800  -0.2331   2.1204   6.0028   0.00    0.0
2019/01/19 00:16:30.000   47.480949409   19.056524004   189.0606   5   8   5.7870   4.0721  12.2014  -0.3842   2.1224   5.9953   0.00    0.0
2019/01/19 00:17:00.000   47.480948088   19.056525708   188.5817   5   8   5.7771   4.0774  12.2207  -0.4909   2.1246   5.9862   0.00    0.0
2019/01/19 00:17:30.000   47.480947199   19.056525350   188.5142   5   8   5.7667   4.0829  12.2381  -0.5782   2.1270   5.9756   0.00    0.0
2019/01/19 00:18:00.000   47.480946940   19.056525446   188.5348   5   8   5.7558   4.0884  12.2535  -0.6539   2.1297   5.9633   0.00    0.0
2019/01/19 00:18:30.000   47.480946557   19.056526637   188.6110   5   8   5.7445   4.0941  12.2668  -0.7217   2.1326   5.9494   0.00    0.0
2019/01/19 00:19:00.000   47.480945312   19.056526703   188.7462   5   8   5.7327   4.0998  12.2780  -0.7836   2.1358   5.9338   0.00    0.0
2019/01/19 00:19:30.000   47.480944913   19.056524774   188.7311   5   8   5.7205   4.1057  12.2873  -0.8410   2.1392   5.9167   0.00    0.0
2019/01/19 00:20:00.000   47.480945001   19.056523900   188.6525   5   8   5.7079   4.1116  12.2945  -0.8946   2.1429   5.8980   0.00    0.0
2019/01/19 00:20:30.000   47.480945514   19.056523211   188.5278   5   8   5.6949   4.1177  12.2996  -0.9452   2.1470   5.8776   0.00    0.0
2019/01/19 00:21:00.000   47.480945311   19.056523431   188.5508   5   8   5.6815   4.1239  12.3027  -0.9931   2.1513   5.8557   0.00    0.0
2019/01/19 00:21:30.000   47.480943936   19.056525557   188.9609   5   8   5.6677   4.1301  12.3038  -1.0389   2.1560   5.8323   0.00    0.0
2019/01/19 00:22:00.000   47.480943158   19.056526781   189.2923   5   8   5.6536   4.1365  12.3029  -1.0826   2.1610   5.8073   0.00    0.0
2019/01/19 00:22:30.000   47.480942973   19.056528504   189.3596   5   8   5.6391   4.1430  12.3000  -1.1246   2.1664   5.7807   0.00    0.0
2019/01/19 00:23:00.000   47.480944155   19.056526762   189.1400   5   8   5.6243   4.1496  12.2952  -1.1651   2.1721   5.7527   0.00    0.0
2019/01/19 00:23:30.000   47.480945025   19.056524579   188.8285   5   8   5.6092   4.1563  12.2885  -1.2041   2.1782   5.7231   0.00    0.0
2019/01/19 00:24:00.000   47.480945451   19.056523932   188.7641   5   8   5.5939   4.1630  12.2798  -1.2419   2.1846   5.6921   0.00    0.0
2019/01/19 00:24:30.000   47.480945109   19.056524339   188.7003   5   8   5.5783   4.1699  12.2693  -1.2786   2.1915   5.6597   0.00    0.0
2019/01/19 00:25:00.000   47.480944228   19.056527388   188.8777   5   8   5.5625   4.1769  12.2569  -1.3142   2.1987   5.6259   0.00    0.0
2019/01/19 00:25:30.000   47.480943919   19.056530263   189.1350   5   8   5.5464   4.1840  12.2428  -1.3488   2.2062   5.5906   0.00    0.0
2019/01/19 00:26:00.000   47.480943368   19.056530636   189.1186   5   8   5.5302   4.1912  12.2269  -1.3825   2.2142   5.5540   0.00    0.0
2019/01/19 00:26:30.000   47.480943382   19.056527933   188.7828   5   8   5.5138   4.1985  12.2093  -1.4154   2.2226   5.5161   0.00    0.0
2019/01/19 00:27:00.000   47.480943182   19.056525025   188.6445   5   8   5.4972   4.2060  12.1900  -1.4476   2.2313   5.4769   0.00    0.0
2019/01/19 00:27:30.000   47.480943299   19.056524254   188.7676   5   8   5.4805   4.2135  12.1691  -1.4790   2.2405   5.4364   0.00    0.0
2019/01/19 00:28:00.000   47.480944571   19.056522399   188.7479   5   8   5.4637   4.2211  12.1467  -1.5098   2.2500   5.3946   0.00    0.0
2019/01/19 00:28:30.000   47.480945332   19.056521586   188.6503   5   8   5.4469   4.2288  12.1227  -1.5399   2.2599   5.3517   0.00    0.0
2019/01/19 00:29:00.000   47.480946457   19.056520127   188.3409   5   8   5.4300   4.2367  12.0972  -1.5695   2.2702   5.3075   0.00    0.0
2019/01/19 00:29:30.000   47.480947935   19.056520878   188.2337   5   8   5.4130   4.2446  12.0703  -1.5985   2.2808   5.2623   0.00    0.0
2019/01/19 00:30:00.000   47.480949002   19.056521947   188.1270   5   8   5.3960   4.2526  12.0421  -1.6270   2.2918   5.2159   0.00    0.0
2019/01/19 00:30:30.000   47.480948204   19.056524163   188.1306   5   8   5.3791   4.2608  12.0125  -1.6551   2.3032   5.1684   0.00    0.0
2019/01/19 00:31:00.000   47.480946420   19.056526739   188.3578   5   8   5.3621   4.2691  11.9817  -1.6827   2.3149   5.1199   0.00    0.0
2019/01/19 00:31:30.000   47.480947356   19.056522658   188.2392   5   8   5.3452   4.2774  11.9497  -1.7098   2.3270   5.0703   0.00    0.0
2019/01/19 00:32:00.000   47.480945772   19.056522543   188.1660   5   8   5.3284   4.2859  11.9165  -1.7366   2.3395   5.0198   0.00    0.0
2019/01/19 00:32:30.000   47.480942960   19.056524555   187.9785   5   8   5.3116   4.2945  11.8822  -1.7630   2.3522   4.9683   0.00    0.0
2019/01/19 00:33:00.000   47.480940807   19.056526526   187.9321   5   8   5.2950   4.3031  11.8469  -1.7890   2.3653   4.9159   0.00    0.0
2019/01/19 00:33:30.000   47.480940211   19.056528362   188.1386   5   8   5.2785   4.3119  11.8106  -1.8147   2.3787   4.8625   0.00    0.0
2019/01/19 00:34:00.000   47.480940626   19.056529338   188.3213   5   8   5.2621   4.3208  11.7733  -1.8401   2.3924   4.8083   0.00    0.0
2019/01/19 00:34:30.000   47.480942275   19.056527065   188.1944   5   8   5.2458   4.3298  11.7352  -1.8652   2.4064   4.7533   0.00    0.0
2019/01/19 00:35:00.000   47.480942805   19.056526367   188.4236   5   8   5.2298   4.3389  11.6963  -1.8900   2.4206   4.6974   0.00    0.0
2019/01/19 00:35:30.000   47.480942645   19.056525470   188.4089   5   8   5.2139   4.3481  11.6565  -1.9146   2.4352   4.6407   0.00    0.0
2019/01/19 00:36:00.000   47.480942355   19.056524014   188.1861   5   8   5.1982   4.3574  11.6161  -1.9389   2.4500   4.5832   0.00    0.0
2019/01/19 00:36:30.000   47.480942308   19.056522411   188.0124   5   8   5.1828   4.3668  11.5749  -1.9629   2.4650   4.5249   0.00    0.0
2019/01/19 00:37:00.000   47.480942070   19.056521532   187.9963   5   8   5.1675   4.3764  11.5332  -1.9868   2.4803   4.4659   0.00    0.0
2019/01/19 00:37:30.000   47.480942006   19.056521062   188.0724   5   8   5.1525   4.3860  11.4908  -2.0104   2.4958   4.4062   0.00    0.0
2019/01/19 00:38:00.000   47.480941939   19.056523764   188.2989   5   8   5.1378   4.3957  11.4480  -2.0339   2.5116   4.3458   0.00    0.0
2019/01/19 00:38:30.000   47.480943270   19.056525382   188.4723   5   8   5.1233   4.4056  11.4046  -2.0571   2.5275   4.2847   0.00    0.0
2019/01/19 00:39:00.000   47.480943559   19.056525491   188.5730   5   8   5.1091   4.4155  11.3608  -2.0802   2.5437   4.2229   0.00    0.0
2019/01/19 00:39:30.000   47.480942749   19.056524714   188.5245   5   8   5.0951   4.4256  11.3166  -2.1031   2.5600   4.1604   0.00    0.0
2019/01/19 00:40:00.000   47.480943522   19.056522174   188.3479   5   8   5.0815   4.4358  11.2721  -2.1259   2.5765   4.0972   0.00    0.0
2019/01/19 00:40:30.000   47.480943649   19.056522764   188.4684   5   8   5.0681   4.4460  11.2272  -2.1485   2.5932   4.0334   0.00    0.0
2019/01/19 00:41:00.000   47.480943513   19.056526390   188.5762   5   8   5.0551   4.4564  11.1821  -2.1710   2.6100   3.9690   0.00    0.0
2019/01/19 00:41:30.000   47.480944118   19.056526772   188.1820   5   8   5.0424   4.4669  11.1367  -2.1934   2.6270   3.9039   0.00    0.0
2019/01/19 00:42:00.000   47.480942231   19.056528176   188.0868   5   8   5.0300   4.4775  11.0911  -2.2156   2.6441   3.8381   0.00    0.0
2019/01/19 00:42:30.000   47.480940770   19.056528602   188.2264   5   8   5.0179   4.4882  11.0453  -2.2377   2.6613   3.7717   0.00    0.0
2019/01/19 00:43:00.000   47.480941530   19.056527292   188.4357   5   8   5.0061   4.4990  10.9995  -2.2597   2.6786   3.7046   0.00    0.0
2019/01/19 00:43:30.000   47.480943628   19.056527003   188.6149   5   8   4.9947   4.5098  10.9535  -2.2816   2.6961   3.6368   0.00    0.0
2019/01/19 00:44:00.000   47.480946636   19.056524869   188.6238   5   8   4.9836   4.5209  10.9074  -2.3034   2.7136   3.5683   0.00    0.0
2019/01/19 00:44:30.000   47.480948099   19.056522112   188.3403   5   8   4.9728   4.5320  10.8613  -2.3251   2.7312   3.4991   0.00    0.0
2019/01/19 00:45:00.000   47.480947080   19.056523639   188.2550   5   8   4.9624   4.5432  10.8152  -2.3467   2.7489   3.4292   0.00    0.0
2019/01/19 00:45:30.000   47.480946377   19.056525589   188.3236   5   8   4.9523   4.5545  10.7691  -2.3683   2.7667   3.3586   0.00    0.0
2019/01/19 00:46:00.000   47.480946783   19.056526175   188.5718   5   8   4.9426   4.5659  10.7231  -2.3897   2.7845   3.2871   0.00    0.0
2019/01/19 00:46:30.000   47.480946595   19.056526901   188.7126   5   8   4.9332   4.5774  10.6771  -2.4111   2.8024   3.2149   0.00    0.0
2019/01/19 00:47:00.000   47.480947055   19.056525137   188.6651   5   8   4.9242   4.5890  10.6312  -2.4324   2.8204   3.1418   0.00    0.0
2019/01/19 00:47:30.000   47.480946523   19.056525652   188.9139   5   8   4.9155   4.6007  10.5854  -2.4537   2.8383   3.0677   0.00    0.0
2019/01/19 00:48:00.000   47.480946537   19.056525789   189.0660   5   8   4.9071   4.6125  10.5397  -2.4749   2.8563   2.9927   0.00    0.0
2019/01/19 00:48:30.000   47.480947720   19.056523857   189.1145   5   8   4.8991   4.6245  10.4942  -2.4960   2.8744   2.9167   0.00    0.0
2019/01/19 00:49:00.000   47.480948438   19.056523148   188.8737   5   8   4.8914   4.6365  10.4488  -2.5171   2.8924   2.8396   0.00    0.0
2019/01/19 00:49:30.000   47.480948739   19.056523588   188.7740   5   8   4.8841   4.6486  10.4036  -2.5381   2.9105   2.7614   0.00    0.0
2019/01/19 00:50:00.000   47.480947502   19.056524103   188.6979   5   8   4.8771   4.6608  10.3587  -2.5590   2.9285   2.6818   0.00    0.0
2019/01/19 00:50:30.000   47.480946736   19.056525313   188.8450   5   8   4.8704   4.6731  10.3139  -2.5799   2.9466   2.6009   0.00    0.0
2019/01/19 00:51:00.000   47.480946915   19.056525446   188.8321   5   8   4.8641   4.6855  10.2694  -2.6008   2.9646   2.5184   0.00    0.0
2019/01/19 00:51:30.000   47.480946602   19.056525598   188.8422   5   8   4.8581   4.6980  10.2251  -2.6216   2.9827   2.4343   0.00    0.0
2019/01/19 00:52:00.000   47.480944741   19.056527824   188.9256   5   8   4.8524   4.7106  10.1810  -2.6423   3.0007   2.3484   0.00    0.0
2019/01/19 00:52:30.000   47.480943595   19.056528289   188.9897   5   8   4.8470   4.7232  10.1372  -2.6630   3.0186   2.2604   0.00    0.0
2019/01/19 00:53:00.000   47.480942836   19.056528619   189.0685   5   8   4.8420   4.7360  10.0937  -2.6837   3.0366   2.1701   0.00    0.0
2019/01/19 00:53:30.000   47.480943736   19.056529446   189.1153   5   8   4.8373   4.7489  10.0505  -2.7043   3.0545   2.0772   0.00    0.0
2019/01/19 00:54:00.000   47.480944882   19.056530549   189.0554   5   8   4.8328   4.7618  10.0076  -2.7248   3.0724   1.9814   0.00    0.0
2019/01/19 00:54:30.000   47.480945357   19.056532023   189.0544   5   8   4.8287   4.7748   9.9649  -2.7453   3.0902   1.8821   0.00    0.0
2019/01/19 00:55:00.000   47.480949443   19.056537275   187.4217   5   7   5.5284   5.0343  13.1561  -1.8576  -1.9441  -4.4889   0.00    0.0
2019/01/19 00:55:30.000   47.480948720   19.056536179   187.3076   5   7   5.5430   5.0350  13.0998  -1.9013  -1.8096  -4.5532   0.00    0.0
2019/01/19 00:56:00.000   47.480947760   19.056534830   187.5205   5   7   5.5582   5.0360  13.0447  -1.9450  -1.6653  -4.6162   0.00    0.0
2019/01/19 00:56:30.000   47.480946202   19.056533266   187.7957   5   7   5.5738   5.0373  12.9908  -1.9886  -1.5084  -4.6782   0.00    0.0
2019/01/19 00:57:00.000   47.480946069   19.056532606   187.6944   5   7   5.5899   5.0391  12.9382  -2.0322  -1.3342  -4.7390   0.00    0.0
2019/01/19 00:57:30.000   47.480947467   19.056532107   187.1311   5   7   5.6065   5.0412  12.8868  -2.0758  -1.1349  -4.7989   0.00    0.0
2019/01/19 00:58:00.000   47.480948625   19.056531862   186.6619   5   7   5.6237   5.0437  12.8366  -2.1194  -0.8936  -4.8578   0.00    0.0
2019/01/19 00:58:30.000   47.480948289   19.056532844   186.3972   5   7   5.6413   5.0465  12.7876  -2.1630  -0.5582  -4.9158   0.00    0.0
2019/01/19 00:59:00.000   47.480948013   19.056533098   186.2861   5   7   5.6594   5.0497  12.7397  -2.2066   0.4161  -4.9730   0.00    0.0
2019/01/19 00:59:30.000   47.480949241   19.056532224   186.1615   5   7   5.6781   5.0533  12.6931  -2.2502   0.8098  -5.0294   0.00    0.0
2019/01/19 01:00:00.000   47.480952224   19.056532638   186.9172   5   7   5.6972   5.0573  12.6476  -2.2939   1.0660  -5.0851   0.00    0.0
2019/01/19 01:00:30.000   47.480954695   19.056533121   187.2437   5   7   5.7168   5.0616  12.6033  -2.3376   1.2710  -5.1401   0.00    0.0
2019/01/19 01:01:00.000   47.480953416   19.056540359   188.9329   5   8   5.4537   4.3898  10.3160  -1.0807  -4.0038  -3.7717   0.00    0.0
2019/01/19 01:01:30.000   47.480955113   19.056539418   188.7259   5   8   5.4605   4.3779  10.2964  -1.0990  -3.9570  -3.8138   0.00    0.0
2019/01/19 01:02:00.000   47.480955270   19.056539269   188.7462   5   8   5.4674   4.3662  10.2770  -1.1177  -3.9099  -3.8555   0.00    0.0
2019/01/19 01:02:30.000   47.480954126   19.056538542   188.8816   5   8   5.4746   4.3547  10.2579  -1.1367  -3.8625  -3.8968   0.00    0.0
2019/01/19 01:03:00.000   47.480952353   19.056537548   189.4333   5   8   5.4819   4.3436  10.2389  -1.1561  -3.8147  -3.9377   0.00    0.0
2019/01/19 01:03:30.000   47.480950971   19.056539146   189.9146   5   8   5.4895   4.3327  10.2201  -1.1758  -3.7666  -3.9783   0.00    0.0
2019/01/19 01:04:00.000   47.480951227   19.056538724   190.2907   5   8   5.4972   4.3220  10.2016  -1.1958  -3.7181  -4.0185   0.00    0.0
2019/01/19 01:04:30.000   47.480950518   19.056537722   190.7866   5   8   5.5052   4.3117  10.1832  -1.2161  -3.6693  -4.0583   0.00    0.0
2019/01/19 01:05:00.000   47.480948992   19.056536529   190.9153   5   8   5.5133   4.3016  10.1651  -1.2368  -3.6200  -4.0977   0.00    0.0
2019/01/19 01:05:30.000   47.480949520   19.056534266   190.7206   5   8   5.5217   4.2917  10.1472  -1.2578  -3.5703  -4.1368   0.00    0.0
2019/01/19 01:06:00.000   47.480951643   19.056531583   190.3670   5   8   5.5302   4.2822  10.1296  -1.2790  -3.5202  -4.1755   0.00    0.0
2019/01/19 01:06:30.000   47.480952999   19.056530039   190.1072   5   8   5.5390   4.2729  10.1122  -1.3005  -3.4696  -4.2139   0.00    0.0
2019/01/19 01:07:00.000   47.480954087   19.056529811   190.1769   5   8   5.5479   4.2639  10.0951  -1.3223  -3.4186  -4.2519   0.00    0.0
2019/01/19 01:07:30.000   47.480954700   19.056529928   190.2343   5   8   5.5570   4.2551  10.0781  -1.3444  -3.3670  -4.2896   0.00    0.0
2019/01/19 01:08:00.000   47.480955472   19.056530083   190.1568   5   8   5.5663   4.2467  10.0615  -1.3667  -3.3149  -4.3269   0.00    0.0
2019/01/19 01:08:30.000   47.480956672   19.056529051   189.8255   5   8   5.5758   4.2385  10.0451  -1.3893  -3.2622  -4.3640   0.00    0.0
2019/01/19 01:09:00.000   47.480958919   19.056527833   189.6603   5   8   5.5855   4.2305  10.0289  -1.4121  -3.2090  -4.4007   0.00    0.0
2019/01/19 01:09:30.000   47.480960143   19.056527357   189.5213   5   8   5.5954   4.2229  10.0131  -1.4352  -3.1551  -4.4370   0.00    0.0
2019/01/19 01:10:00.000   47.480959693   19.056527359   189.5848   5   8   5.6054   4.2155   9.9974  -1.4584  -3.1006  -4.4731   0.00    0.0
2019/01/19 01:10:30.000   47.480958749   19.056528530   189.6948   5   8   5.6156   4.2084   9.9821  -1.4819  -3.0453  -4.5088   0.00    0.0
2019/01/19 01:11:00.000   47.480956536   19.056531403   190.0077   5   8   5.6260   4.2016   9.9669  -1.5056  -2.9893  -4.5442   0.00    0.0
2019/01/19 01:11:30.000   47.480954455   19.056531943   190.0715   5   8   5.6366   4.1950   9.9521  -1.5295  -2.9326  -4.5794   0.00    0.0
2019/01/19 01:12:00.000   47.480954191   19.056530796   189.7895   5   8   5.6473   4.1887   9.9375  -1.5536  -2.8749  -4.6142   0.00    0.0
2019/01/19 01:12:30.000   47.480953318   19.056529745   189.4211   5   8   5.6582   4.1827   9.9232  -1.5778  -2.8164  -4.6487   0.00    0.0
2019/01/19 01:13:00.000   47.480953428   19.056529023   189.2817   5   8   5.6693   4.1770   9.9091  -1.6023  -2.7569  -4.6829   0.00    0.0
2019/01/19 01:13:30.000   47.480954122   19.056529172   189.3954   5   8   5.6805   4.1716   9.8953  -1.6269  -2.6964  -4.7168   0.00    0.0
2019/01/19 01:14:00.000   47.480955403   19.056528996   189.5635   5   8   5.6919   4.1664   9.8818  -1.6517  -2.6348  -4.7504   0.00    0.0
2019/01/19 01:14:30.000   47.480958543   19.056527775   189.5753   5   8   5.7035   4.1615   9.8685  -1.6766  -2.5720  -4.7837   0.00    0.0
2019/01/19 01:15:00.000   47.480960795   19.056527470   189.6699   5   8   5.7152   4.1569   9.8555  -1.7017  -2.5078  -4.8168   0.00    0.0
2019/01/19 01:15:30.000   47.480961129   19.056528550   189.9245   5   8   5.7270   4.1525   9.8427  -1.7269  -2.4423  -4.8495   0.00    0.0
2019/01/19 01:16:00.000   47.480947785   19.056532866   188.8142   5   7   7.3311   4.2083  10.7525  -2.5094  -2.9536  -1.9893   0.00    0.0
2019/01/19 01:16:30.000   47.480945697   19.056533284   188.8683   5   7   7.3310   4.2030  10.7352  -2.5163  -2.8896  -2.0998   0.00    0.0
2019/01/19 01:17:00.000   47.480945667   19.056533119   188.8579   5   7   7.3308   4.1979  10.7180  -2.5236  -2.8243  -2.2049   0.00    0.0
2019/01/19 01:17:30.000   47.480945477   19.056533630   188.8883   5   7   7.3306   4.1931  10.7010  -2.5312  -2.7577  -2.3053   0.00    0.0
2019/01/19 01:18:00.000   47.480944731   19.056533364   188.7999   5   7   7.3304   4.1886  10.6842  -2.5391  -2.6897  -2.4016   0.00    0.0
2019/01/19 01:18:30.000   47.480945653   19.056533341   188.7711   5   7   7.3301   4.1844  10.6676  -2.5473  -2.6202  -2.4943   0.00    0.0
2019/01/19 01:19:00.000   47.480946594   19.056533287   188.8011   5   7   7.3299   4.1804  10.6511  -2.5558  -2.5490  -2.5836   0.00    0.0
2019/01/19 01:19:30.000   47.480949253   19.056530683   188.5684   5   7   7.3296   4.1768  10.6349  -2.5646  -2.4761  -2.6699   0.00    0.0
2019/01/19 01:20:00.000   47.480950251   19.056528981   188.6591   5   7   7.3293   4.1734  10.6189  -2.5738  -2.4013  -2.7535   0.00    0.0
2019/01/19 01:20:30.000   47.480950696   19.056527319   188.6713   5   7   7.3289   4.1703  10.6031  -2.5832  -2.3243  -2.8345   0.00    0.0
2019/01/19 01:21:00.000   47.480951618   19.056526458   188.7451   5   7   7.3286   4.1675  10.5876  -2.5930  -2.2449  -2.9131   0.00    0.0
2019/01/19 01:21:30.000   47.480952333   19.056525672   188.8096   5   7   7.3283   4.1650  10.5722  -2.6031  -2.1630  -2.9896   0.00    0.0
2019/01/19 01:22:00.000   47.480951445   19.056524757   188.8323   5   7   7.3279   4.1628  10.5571  -2.6135  -2.0781  -3.0639   0.00    0.0
2019/01/19 01:22:30.000   47.480950724   19.056523118   188.9506   5   7   7.3275   4.1609  10.5422  -2.6242  -1.9900  -3.1364   0.00    0.0
2019/01/19 01:23:00.000   47.480950577   19.056521277   188.9013   5   7   7.3272   4.1592  10.5275  -2.6352  -1.8981  -3.2070   0.00    0.0
2019/01/19 01:23:30.000   47.480950630   19.056519112   188.7978   5   7   7.3268   4.1579  10.5130  -2.6465  -1.8019  -3.2758   0.00    0.0
2019/01/19 01:24:00.000   47.480951005   19.056520340   189.0954   5   7   7.3264   4.1568  10.4988  -2.6581  -1.7006  -3.3431   0.00    0.0
2019/01/19 01:24:30.000   47.480952224   19.056522056   189.3181   5   7   7.3260   4.1560  10.4848  -2.6700  -1.5933  -3.4087   0.00    0.0
2019/01/19 01:25:00.000   47.480954666   19.056524118   189.2854   5   7   7.3256   4.1555  10.4710  -2.6822  -1.4786  -3.4728   0.00    0.0
2019/01/19 01:25:30.000   47.480956684   19.056525309   188.8680   5   7   7.3252   4.1553  10.4574  -2.6947  -1.3547  -3.5356   0.00    0.0
2019/01/19 01:26:00.000   47.480955748   19.056525725   188.3346   5   7   7.3248   4.1554  10.4441  -2.7075  -1.2188  -3.5969   0.00    0.0
2019/01/19 01:26:30.000   47.480954964   19.056525749   187.9499   5   7   7.3244   4.1557  10.4310  -2.7205  -1.0663  -3.6569   0.00    0.0
2019/01/19 01:27:00.000   47.480951713   19.056527608   187.7469   5   7   7.3239   4.1563  10.4181  -2.7338  -0.8886  -3.7156   0.00    0.0
2019/01/19 01:27:30.000   47.480949963   19.056529343   187.7416   5   7   7.3235   4.1573  10.4054  -2.7474  -0.6659  -3.7731   0.00    0.0
2019/01/19 01:28:00.000   47.480951305   19.056530180   187.7033   5   7   7.3230   4.1585  10.3930  -2.7612  -0.3137  -3.8294   0.00    0.0
2019/01/19 01:28:30.000   47.480952137   19.056530853   187.8753   5   7   7.3225   4.1599  10.3807  -2.7753   0.4954  -3.8845   0.00    0.0
2019/01/19 01:29:00.000   47.480952077   19.056531119   188.0493   5   7   7.3221   4.1617  10.3687  -2.7896   0.7669  -3.9385   0.00    0.0
2019/01/19 01:29:30.000   47.480953723   19.056529631   188.1850   5   7   7.3216   4.1637  10.3568  -2.8042   0.9642  -3.9914   0.00    0.0
2019/01/19 01:30:00.000   47.480955690   19.056528599   188.2079   5   7   7.3210   4.1660  10.3452  -2.8190   1.1269  -4.0432   0.00    0.0
2019/01/19 01:30:30.000   47.480955840   19.056529647   188.2938   5   7   7.3205   4.1686  10.3338  -2.8340   1.2686  -4.0940   0.00    0.0
2019/01/19 01:31:00.000   47.480955464   19.056529120   188.3838   5   7   7.3199   4.1715  10.3225  -2.8493   1.3955  -4.1438   0.00    0.0
2019/01/19 01:31:30.000   47.480954948   19.056527097   188.3298   5   7   7.3193   4.1746  10.3115  -2.8647   1.5114  -4.1927   0.00    0.0
2019/01/19 01:32:00.000   47.480955056   19.056526806   188.4606   5   7   7.3187   4.1780  10.3006  -2.8804   1.6187  -4.2405   0.00    0.0
2019/01/19 01:32:30.000   47.480955907   19.056526503   188.5108   5   7   7.3181   4.1817  10.2900  -2.8963   1.7191  -4.2874   0.00    0.0
2019/01/19 01:33:00.000   47.480956483   19.056525521   188.3623   5   7   7.3174   4.1856  10.2794  -2.9123   1.8135  -4.3334   0.00    0.0
2019/01/19 01:33:30.000   47.480956428   19.056524952   188.1503   5   7   7.3167   4.1898  10.2691  -2.9286   1.9030  -4.3785   0.00    0.0
2019/01/19 01:34:00.000   47.480956286   19.056523076   187.9629   5   8   6.1913   3.9051   9.8818  -1.6455   2.8585  -5.5048   0.00    0.0
2019/01/19 01:34:30.000   47.480956075   19.056521178   187.8233   5   8   6.1911   3.9099   9.8945  -1.6748   2.8939  -5.5097   0.00    0.0
2019/01/19 01:35:00.000   47.480955740   19.056520980   187.7831   5   8   6.1908   3.9149   9.9067  -1.7036   2.9287  -5.5143   0.00    0.0
2019/01/19 01:35:30.000   47.480957473   19.056520632   187.5140   5   8   6.1903   3.9201   9.9183  -1.7319   2.9631  -5.5186   0.00    0.0
2019/01/19 01:36:00.000   47.480957593   19.056522098   187.5081   5   8   6.1897   3.9253   9.9293  -1.7597   2.9971  -5.5225   0.00    0.0
2019/01/19 01:36:30.000   47.480957306   19.056522458   187.7533   5   8   6.1889   3.9307   9.9397  -1.7869   3.0305  -5.5262   0.00    0.0
2019/01/19 01:37:00.000   47.480955477   19.056524813   188.0289   5   8   6.1881   3.9362   9.9495  -1.8137   3.0636  -5.5295   0.00    0.0
2019/01/19 01:37:30.000   47.480953895   19.056526057   188.1668   5   8   6.1871   3.9419   9.9588  -1.8401   3.0962  -5.5324   0.00    0.0
2019/01/19 01:38:00.000   47.480952213   19.056526847   188.2276   5   8   6.1859   3.9476   9.9674  -1.8659   3.1283  -5.5350   0.00    0.0
2019/01/19 01:38:30.000   47.480951071   19.056527212   188.2806   5   8   6.1846   3.9535   9.9754  -1.8914   3.1601  -5.5373   0.00    0.0
2019/01/19 01:39:00.000   47.480951534   19.056526056   188.1955   5   8   6.1832   3.9595   9.9828  -1.9164   3.1913  -5.5393   0.00    0.0
2019/01/19 01:39:30.000   47.480951515   19.056526052   188.2507   5   8   6.1817   3.9656   9.9896  -1.9410   3.2222  -5.5409   0.00    0.0
2019/01/19 01:40:00.000   47.480952019   19.056526064   188.3488   5   8   6.1800   3.9719   9.9957  -1.9652   3.2526  -5.5421   0.00    0.0
2019/01/19 01:40:30.000   47.480950986   19.056525947   188.4227   5   8   6.1781   3.9782  10.0012  -1.9891   3.2825  -5.5430   0.00    0.0
2019/01/19 01:41:00.000   47.480948981   19.056526455   188.5389   5   8   6.1762   3.9847  10.0060  -2.0125   3.3121  -5.5436   0.00    0.0
2019/01/19 01:41:30.000   47.480948393   19.056525243   188.4947   5   8   6.1741   3.9912  10.0102  -2.0356   3.3412  -5.5438   0.00    0.0
2019/01/19 01:42:00.000   47.480947331   19.056524074   188.5307   5   8   6.1718   3.9979  10.0138  -2.0583   3.3699  -5.5436   0.00    0.0
2019/01/19 01:42:30.000   47.480945963   19.056525474   188.8375   5   8   6.1695   4.0047  10.0167  -2.0806   3.3981  -5.5431   0.00    0.0
2019/01/19 01:43:00.000   47.480945135   19.056526525   189.0521   5   8   6.1670   4.0116  10.0190  -2.1026   3.4259  -5.5422   0.00    0.0
2019/01/19 01:43:30.000   47.480944333   19.056527700   189.2189   5   8   6.1643   4.0186  10.0206  -2.1243   3.4533  -5.5410   0.00    0.0
2019/01/19 01:44:00.000   47.480944469   19.056529491   189.2248   5   8   6.1616   4.0257  10.0216  -2.1456   3.4802  -5.5395   0.00    0.0
2019/01/19 01:44:30.000   47.480945391   19.056529755   188.9920   5   8   6.1587   4.0329  10.0219  -2.1667   3.5068  -5.5376   0.00    0.0
2019/01/19 01:45:00.000   47.480940299   19.056534949   190.1128   5   9   5.3238   3.3471   7.9866   1.4858  -1.1028  -3.4545   0.00    0.0
2019/01/19 01:45:30.000   47.480940976   19.056533910   190.1031   5   9   5.3189   3.3468   7.9934   1.4715  -1.0451  -3.4531   0.00    0.0
2019/01/19 01:46:00.000   47.480942981   19.056531470   189.8874   5   9   5.3138   3.3466   7.9998   1.4570  -0.9838  -3.4516   0.00    0.0
2019/01/19 01:46:30.000   47.480943431   19.056529534   189.6760   5   9   5.3088   3.3465   8.0060   1.4424  -0.9180  -3.4501   0.00    0.0
2019/01/19 01:47:00.000   47.480943360   19.056529128   189.8476   5   9   5.3037   3.3465   8.0120   1.4277  -0.8468  -3.4485   0.00    0.0
2019/01/19 01:47:30.000   47.480950092   19.056539813   188.1368   5   8   5.8143   4.3919   9.9162   2.9671  -4.1456  -5.0843   0.00    0.0
2019/01/19 01:48:00.000   47.480950797   19.056540126   188.0971   5   8   5.8015   4.3831   9.9299   2.9449  -4.1260  -5.0756   0.00    0.0
2019/01/19 01:48:30.000   47.480949542   19.056539094   188.2707   5   8   5.7887   4.3743   9.9431   2.9225  -4.1058  -5.0667   0.00    0.0
2019/01/19 01:49:00.000   47.480949440   19.056539512   188.1075   5   8   5.7760   4.3656   9.9557   2.9000  -4.0853  -5.0576   0.00    0.0
2019/01/19 01:49:30.000   47.480949994   19.056540514   187.7865   5   8   5.7633   4.3570   9.9678   2.8774  -4.0643  -5.0482   0.00    0.0
2019/01/19 01:50:00.000   47.480952398   19.056540347   187.3835   5   8   5.7506   4.3484   9.9793   2.8546  -4.0428  -5.0386   0.00    0.0
2019/01/19 01:50:30.000   47.480955160   19.056543393   186.9879   5   8   5.7379   4.3400   9.9902   2.8317  -4.0209  -5.0288   0.00    0.0
2019/01/19 01:51:00.000   47.480956312   19.056545279   186.7083   5   8   5.7252   4.3316  10.0006   2.8087  -3.9985  -5.0187   0.00    0.0
2019/01/19 01:51:30.000   47.480958090   19.056545024   186.3797   5   8   5.7126   4.3233  10.0104   2.7856  -3.9757  -5.0085   0.00    0.0
2019/01/19 01:52:00.000   47.480957614   19.056545504   186.3886   5   8   5.6999   4.3150  10.0196   2.7623  -3.9524  -4.9980   0.00    0.0
2019/01/19 01:52:30.000   47.480957390   19.056545606   186.5782   5   8   5.6873   4.3069  10.0282   2.7389  -3.9287  -4.9873   0.00    0.0
2019/01/19 01:53:00.000   47.480956053   19.056545340   186.8642   5   8   5.6748   4.2988  10.0362   2.7153  -3.9044  -4.9763   0.00    0.0
2019/01/19 01:53:30.000   47.480956280   19.056545085   186.9606   5   8   5.6622   4.2909  10.0436   2.6916  -3.8797  -4.9652   0.00    0.0
2019/01/19 01:54:00.000   47.480958426   19.056543781   187.0274   5   8   5.6497   4.2830  10.0504   2.6678  -3.8546  -4.9538   0.00    0.0
2019/01/19 01:54:30.000   47.480959494   19.056543788   186.9916   5   8   5.6372   4.2753  10.0565   2.6439  -3.8289  -4.9423   0.00    0.0
2019/01/19 01:55:00.000   47.480961132   19.056543254   186.7472   5   8   5.6248   4.2676  10.0620   2.6198  -3.8027  -4.9305   0.00    0.0
2019/01/19 01:55:30.000   47.480961410   19.056544016   186.5106   5   8   5.6124   4.2600  10.0669   2.5955  -3.7761  -4.9185   0.00    0.0
2019/01/19 01:56:00.000   47.480961309   19.056545041   186.3011   5   8   5.6000   4.2526  10.0712   2.5711  -3.7490  -4.9063   0.00    0.0
2019/01/19 01:56:30.000   47.480961236   19.056545643   186.3269   5   8   5.5877   4.2452  10.0748   2.5466  -3.7213  -4.8939   0.00    0.0
2019/01/19 01:57:00.000   47.480960796   19.056546682   186.4969   5   8   5.5754   4.2380  10.0778   2.5219  -3.6932  -4.8813   0.00    0.0
2019/01/19 01:57:30.000   47.480961881   19.056546270   186.6788   5   8   5.5631   4.2309  10.0802   2.4971  -3.6646  -4.8685   0.00    0.0
2019/01/19 01:58:00.000   47.480961698   19.056546139   187.1955   5   8   5.5509   4.2238  10.0819   2.4721  -3.6355  -4.8556   0.00    0.0
2019/01/19 01:58:30.000   47.480961827   19.056544378   187.4846   5   8   5.5388   4.2170  10.0830   2.4469  -3.6058  -4.8424   0.00    0.0
2019/01/19 01:59:00.000   47.480961617   19.056544588   187.5989   5   8   5.5267   4.2102  10.0834   2.4216  -3.5757  -4.8291   0.00    0.0
2019/01/19 01:59:30.000   47.480961752   19.056545472   187.5120   5   8   5.5147   4.2036  10.0832   2.3961  -3.5450  -4.8156   0.00    0.0
2019/01/19 02:00:00.000   47.480963133   19.056545608   187.2462   5   8   5.5027   4.1971  10.0823   2.3705  -3.5139  -4.8020   0.00    0.0
2019/01/19 02:00:30.000   47.480964190   19.056545237   187.0123   5   8   5.4908   4.1907  10.0808   2.3447  -3.4822  -4.7882   0.00    0.0
2019/01/19 02:01:00.000   47.480963797   19.056545715   187.2537   5   8   5.4789   4.1845  10.0786   2.3187  -3.4499  -4.7742   0.00    0.0
2019/01/19 02:01:30.000   47.480963034   19.056545972   187.3026   5   8   5.4671   4.1784  10.0759   2.2925  -3.4172  -4.7601   0.00    0.0
2019/01/19 02:02:00.000   47.480962164   19.056546289   187.0495   5   8   5.4554   4.1724  10.0724   2.2662  -3.3839  -4.7458   0.00    0.0
2019/01/19 02:02:30.000   47.480961558   19.056546169   186.8628   5   8   5.4437   4.1666  10.0683   2.2397  -3.3501  -4.7314   0.00    0.0
2019/01/19 02:03:00.000   47.480961586   19.056545459   186.7938   5   8   5.4321   4.1610  10.0636   2.2130  -3.3158  -4.7168   0.00    0.0
2019/01/19 02:03:30.000   47.480962434   19.056543889   186.8533   5   8   5.4206   4.1554  10.0583   2.1860  -3.2808  -4.7022   0.00    0.0
2019/01/19 02:04:00.000   47.480963327   19.056542802   187.1009   5   8   5.4091   4.1501  10.0524   2.1589  -3.2454  -4.6874   0.00    0.0
2019/01/19 02:04:30.000   47.480962574   19.056544519   187.5427   5   8   5.3977   4.1449  10.0458   2.1316  -3.2094  -4.6725   0.00    0.0
2019/01/19 02:05:00.000   47.480944271   19.056538549   185.9290   5   7   7.1224   4.2994  11.1252   3.1360  -2.1218   0.8089   0.00    0.0
2019/01/19 02:05:30.000   47.480945172   19.056537179   185.8300   5   7   7.1113   4.2939  11.1830   3.1144  -2.0274   1.2111   0.00    0.0
2019/01/19 02:06:00.000   47.480946556   19.056537009   185.7617   5   7   7.1008   4.2887  11.2423   3.0936  -1.9270   1.5122   0.00    0.0
2019/01/19 02:06:30.000   47.480966035   19.056536328   188.5343   5   8   5.9218   4.2767   9.7659   3.2271  -1.3779  -4.3684   0.00    0.0
2019/01/19 02:07:00.000   47.480965478   19.056535848   188.3486   5   8   5.8991   4.2729   9.7989   3.2035  -1.2367  -4.3139   0.00    0.0
2019/01/19 02:07:30.000   47.480962016   19.056535544   188.2386   5   8   5.8769   4.2693   9.8330   3.1803  -1.0759  -4.2586   0.00    0.0
2019/01/19 02:08:00.000   47.480957780   19.056536539   188.3332   5   8   5.8551   4.2662   9.8682   3.1574  -0.8846  -4.2025   0.00    0.0
2019/01/19 02:08:30.000   47.480955213   19.056538672   188.5065   5   8   5.8338   4.2634   9.9044   3.1351  -0.6357  -4.1455   0.00    0.0
2019/01/19 02:09:00.000   47.480954867   19.056540095   188.8283   5   8   5.8129   4.2610   9.9418   3.1131  -0.1491  -4.0876   0.00    0.0
2019/01/19 02:09:30.000   47.480955785   19.056540903   189.0405   5   8   5.7924   4.2590   9.9804   3.0916   0.6028  -4.0287   0.00    0.0
2019/01/19 02:10:00.000   47.480957802   19.056539520   188.8109   5   8   5.7724   4.2574  10.0200   3.0705   0.8678  -3.9688   0.00    0.0
2019/01/19 02:10:30.000   47.480957960   19.056538642   188.7567   5   8   5.7529   4.2561  10.0609   3.0499   1.0709  -3.9077   0.00    0.0
2019/01/19 02:11:00.000   47.480956580   19.056539008   188.8656   5   8   5.7337   4.2553  10.1029   3.0298   1.2429  -3.8454   0.00    0.0
2019/01/19 02:11:30.000   47.480954462   19.056538647   188.8114   5   8   5.7151   4.2548  10.1461   3.0102   1.3956  -3.7818   0.00    0.0
2019/01/19 02:12:00.000   47.480952514   19.056539364   189.1107   5   8   5.6969   4.2548  10.1905   2.9910   1.5347  -3.7169   0.00    0.0
2019/01/19 02:12:30.000   47.480952181   19.056540380   189.2880   5   8   5.6791   4.2551  10.2362   2.9723   1.6638  -3.6504   0.00    0.0
2019/01/19 02:13:00.000   47.480953217   19.056540000   189.2575   5   8   5.6619   4.2558  10.2831   2.9542   1.7850  -3.5823   0.00    0.0
2019/01/19 02:13:30.000   47.480954663   19.056539694   188.9912   5   8   5.6450   4.2570  10.3313   2.9365   1.9000  -3.5125   0.00    0.0
2019/01/19 02:14:00.000   47.480957252   19.056541636   188.9869   5   9   5.6255   3.7495   8.9353   2.9840  -2.5748  -3.2928   0.00    0.0
2019/01/19 02:14:30.000   47.480957980   19.056542738   188.8138   5   9   5.6100   3.7424   8.9645   2.9643  -2.5272  -3.2238   0.00    0.0
2019/01/19 02:15:00.000   47.480957100   19.056544201   188.8311   5   9   5.5949   3.7357   8.9946   2.9451  -2.4785  -3.1530   0.00    0.0
2019/01/19 02:15:30.000   47.480956514   19.056544569   188.7508   5   9   5.5803   3.7291   9.0255   2.9262  -2.4284  -3.0804   0.00    0.0
2019/01/19 02:16:00.000   47.480956491   19.056541809   188.3495   5   9   5.5662   3.7228   9.0574   2.9077  -2.3771  -3.0058   0.00    0.0
2019/01/19 02:16:30.000   47.480956715   19.056540417   188.2080   5   9   5.5525   3.7168   9.0902   2.8896  -2.3242  -2.9289   0.00    0.0
2019/01/19 02:17:00.000   47.480956508   19.056540704   188.1281   5   9   5.5392   3.7109   9.1239   2.8719  -2.2697  -2.8497   0.00    0.0
2019/01/19 02:17:30.000   47.480956064   19.056541283   188.2436   5   9   5.5265   3.7054   9.1586   2.8545  -2.2135  -2.7678   0.00    0.0
2019/01/19 02:18:00.000   47.480955807   19.056541377   188.0270   5   9   5.5142   3.7000   9.1941   2.8376  -2.1553  -2.6830   0.00    0.0
2019/01/19 02:18:30.000   47.480955924   19.056541827   187.7449   5   9   5.5023   3.6950   9.2306   2.8211  -2.0950  -2.5949   0.00    0.0
2019/01/19 02:19:00.000   47.480956424   19.056541383   187.2417   5   9   5.4910   3.6902   9.2681   2.8050  -2.0324  -2.5033   0.00    0.0
2019/01/19 02:19:30.000   47.480956131   19.056543196   187.0820   5   9   5.4801   3.6856   9.3065   2.7893  -1.9671  -2.4075   0.00    0.0
2019/01/19 02:20:00.000   47.480955703   19.056543388   187.0535   5   9   5.4696   3.6813   9.3459   2.7740  -1.8990  -2.3072   0.00    0.0
2019/01/19 02:20:30.000   47.480955492   19.056541097   187.0751   5   9   5.4597   3.6772   9.3862   2.7592  -1.8275  -2.2017   0.00    0.0
2019/01/19 02:21:00.000   47.480955850   19.056538188   187.2035   5   9   5.4502   3.6734   9.4275   2.7448  -1.7524  -2.0900   0.00    0.0
2019/01/19 02:21:30.000   47.480955657   19.056538550   187.3715   5   9   5.4412   3.6699   9.4698   2.7309  -1.6729  -1.9712   0.00    0.0
2019/01/19 02:22:00.000   47.480955568   19.056539478   187.6139   5   9   5.4326   3.6666   9.5131   2.7174  -1.5885  -1.8437   0.00    0.0
2019/01/19 02:22:30.000   47.480954793   19.056539945   188.0262   5   9   5.4246   3.6636   9.5573   2.7045  -1.4983  -1.7057   0.00    0.0
2019/01/19 02:23:00.000   47.480953331   19.056540351   188.3249   5   9   5.4170   3.6608   9.6026   2.6919  -1.4011  -1.5543   0.00    0.0
2019/01/19 02:23:30.000   47.480953365   19.056539569   188.4413   5   9   5.4099   3.6584   9.6488   2.6799  -1.2952  -1.3850   0.00    0.0
2019/01/19 02:24:00.000   47.480953994   19.056538474   188.2958   5   9   5.4033   3.6562   9.6961   2.6684  -1.1782  -1.1902   0.00    0.0
2019/01/19 02:24:30.000   47.480954831   19.056538552   188.1633   5   9   5.3972   3.6543   9.7444   2.6573  -1.0463  -0.9541   0.00    0.0
2019/01/19 02:25:00.000   47.480955239   19.056538703   187.8919   5   9   5.3915   3.6527   9.7936   2.6468  -0.8930  -0.6322   0.00    0.0
2019/01/19 02:25:30.000   47.480955249   19.056539564   187.7228   5   9   5.3863   3.6513   9.8439   2.6368  -0.7041   0.3399   0.00    0.0
2019/01/19 02:26:00.000   47.480954569   19.056538952   187.2235   5   9   5.3817   3.6503   9.8952   2.6274  -0.4355   0.7972   0.00    0.0
2019/01/19 02:26:30.000   47.480964438   19.056548088   188.9101   5  10   4.7606   3.3227   9.0462   1.7553  -2.4748  -3.0311   0.00    0.0
2019/01/19 02:27:00.000   47.480964038   19.056547252   188.7665   5  10   4.7523   3.3183   9.0736   1.7331  -2.4389  -2.9765   0.00    0.0
2019/01/19 02:27:30.000   47.480963571   19.056546875   189.0717   5  10   4.7443   3.3140   9.1016   1.7111  -2.4022  -2.9209   0.00    0.0
2019/01/19 02:28:00.000   47.480963179   19.056547543   189.4020   5  10   4.7367   3.3098   9.1300   1.6893  -2.3646  -2.8639   0.00    0.0
2019/01/19 02:28:30.000   47.480963143   19.056547417   189.5465   5  10   4.7295   3.3058   9.1590   1.6677  -2.3262  -2.8057   0.00    0.0
2019/01/19 02:29:00.000   47.480961884   19.056546751   189.3615   5  10   4.7226   3.3020   9.1884   1.6462  -2.2867  -2.7461   0.00    0.0
2019/01/19 02:29:30.000   47.480960523   19.056544355   188.9533   5  10   4.7160   3.2983   9.2183   1.6250  -2.2462  -2.6849   0.00    0.0
2019/01/19 02:30:00.000   47.480960219   19.056543476   188.6190   5  10   4.7098   3.2949   9.2486   1.6040  -2.2046  -2.6221   0.00    0.0
2019/01/19 02:30:30.000   47.480960035   19.056544205   188.4549   5  10   4.7039   3.2915   9.2795   1.5831  -2.1618  -2.5576   0.00    0.0
2019/01/19 02:31:00.000   47.480960167   19.056545489   188.6907   5  10   4.6983   3.2884   9.3108   1.5626  -2.1176  -2.4912   0.00    0.0
2019/01/19 02:31:30.000   47.480960583   19.056546883   189.1428   5  10   4.6931   3.2854   9.3425   1.5422  -2.0721  -2.4227   0.00    0.0
2019/01/19 02:32:00.000   47.480960849   19.056546679   189.5852   5  10   4.6883   3.2826   9.3747   1.5221  -2.0251  -2.3519   0.00    0.0
2019/01/19 02:32:30.000   47.480961216   19.056544945   189.5579   5  10   4.6837   3.2799   9.4073   1.5022  -1.9765  -2.2787   0.00    0.0
2019/01/19 02:33:00.000   47.480960597   19.056544144   189.3397   5  10   4.6796   3.2774   9.4403   1.4826  -1.9260  -2.2028   0.00    0.0
2019/01/19 02:33:30.000   47.480959377   19.056544359   189.1311   5  10   4.6757   3.2752   9.4737   1.4633  -1.8737  -2.1239   0.00    0.0
2019/01/19 02:34:00.000   47.480958237   19.056545071   189.0169   5  10   4.6722   3.2730   9.5076   1.4442  -1.8192  -2.0417   0.00    0.0
2019/01/19 02:34:30.000   47.480958644   19.056545186   189.0776   5  10   4.6690   3.2711   9.5418   1.4254  -1.7624  -1.9557   0.00    0.0
2019/01/19 02:35:00.000   47.480959123   19.056544504   189.0693   5  10   4.6661   3.2693   9.5764   1.4070  -1.7030  -1.8653   0.00    0.0
2019/01/19 02:35:30.000   47.480959838   19.056543362   189.1235   5  10   4.6636   3.2678   9.6113   1.3888  -1.6407  -1.7701   0.00    0.0
2019/01/19 02:36:00.000   47.480960257   19.056542828   189.3817   5  10   4.6614   3.2664   9.6466   1.3710  -1.5752  -1.6690   0.00    0.0
2019/01/19 02:36:30.000   47.480960550   19.056542843   189.6579   5  10   4.6595   3.2652   9.6822   1.3536  -1.5059  -1.5610   0.00    0.0
2019/01/19 02:37:00.000   47.480960939   19.056542982   189.6432   5  10   4.6580   3.2642   9.7181   1.3364  -1.4324  -1.4446   0.00    0.0
2019/01/19 02:37:30.000   47.480960009   19.056543090   189.6704   5  10   4.6567   3.2634   9.7544   1.3197  -1.3539  -1.3175   0.00    0.0
2019/01/19 02:38:00.000   47.480957502   19.056543332   189.5288   5  10   4.6558   3.2628   9.7909   1.3034  -1.2695  -1.1763   0.00    0.0
2019/01/19 02:38:30.000   47.480955420   19.056544528   189.2809   5  10   4.6552   3.2624   9.8276   1.2874  -1.1778  -1.0150   0.00    0.0
2019/01/19 02:39:00.000   47.480954151   19.056545197   189.1597   5  10   4.6549   3.2622   9.8646   1.2719  -1.0770  -0.8222   0.00    0.0
2019/01/19 02:39:30.000   47.480954270   19.056545966   189.2658   5  10   4.6549   3.2622   9.9019   1.2568  -0.9643  -0.5664   0.00    0.0
2019/01/19 02:40:00.000   47.480955024   19.056544837   189.3474   5  10   4.6552   3.2624   9.9393   1.2421  -0.8347   0.1881   0.00    0.0
2019/01/19 02:40:30.000   47.480955820   19.056543197   189.4673   5  10   4.6559   3.2629   9.9769   1.2280  -0.6786   0.6263   0.00    0.0
2019/01/19 02:41:00.000   47.480956713   19.056541496   189.5488   5  10   4.6568   3.2635  10.0146   1.2142  -0.4704   0.8660   0.00    0.0
2019/01/19 02:41:30.000   47.480956564   19.056541504   189.7009   5  10   4.6579   3.2644  10.0525   1.2010   0.1451   1.0527   0.00    0.0
2019/01/19 02:42:00.000   47.480955665   19.056541714   189.8637   5  10   4.6594   3.2654  10.0904   1.1883   0.5163   1.2112   0.00    0.0
2019/01/19 02:42:30.000   47.480953886   19.056542956   189.8435   5  10   4.6612   3.2667  10.1285   1.1762   0.7178   1.3514   0.00    0.0
2019/01/19 02:43:00.000   47.480953885   19.056543016   189.6420   5  10   4.6632   3.2683  10.1665   1.1645   0.8759   1.4784   0.00    0.0
2019/01/19 02:43:30.000   47.480955232   19.056542990   189.3715   5  10   4.6655   3.2700  10.2046   1.1535   1.0111   1.5954   0.00    0.0
2019/01/19 02:44:00.000   47.480956202   19.056542669   189.3448   5  10   4.6680   3.2720  10.2427   1.1430   1.1316   1.7044   0.00    0.0
2019/01/19 02:44:30.000   47.480955225   19.056541507   189.4081   5  10   4.6708   3.2742  10.2807   1.1330   1.2419   1.8068   0.00    0.0
2019/01/19 02:45:00.000   47.480953635   19.056538539   189.1383   5  10   4.6739   3.2767  10.3187   1.1237   1.3443   1.9036   0.00    0.0
2019/01/19 02:45:30.000   47.480952217   19.056537027   188.9418   5  10   4.6772   3.2794  10.3565   1.1149   1.4406   1.9955   0.00    0.0
2019/01/19 02:46:00.000   47.480951887   19.056537003   188.9549   5  10   4.6807   3.2823  10.3942   1.1068   1.5319   2.0833   0.00    0.0
2019/01/19 02:46:30.000   47.480952667   19.056538094   189.2885   5  10   4.6845   3.2855  10.4317   1.0993   1.6190   2.1673   0.00    0.0
2019/01/19 02:47:00.000   47.480953489   19.056537505   189.4023   5  10   4.6884   3.2890  10.4690   1.0924   1.7027   2.2479   0.00    0.0
2019/01/19 02:47:30.000   47.480953420   19.056537544   189.6210   5  10   4.6926   3.2926  10.5060   1.0861   1.7833   2.3255   0.00    0.0
2019/01/19 02:48:00.000   47.480952387   19.056538276   189.5264   5  10   4.6970   3.2966  10.5428   1.0804   1.8612   2.4002   0.00    0.0
2019/01/19 02:48:30.000   47.480952310   19.056539418   189.6971   5  10   4.7015   3.3008  10.5792   1.0754   1.9369   2.4723   0.00    0.0
2019/01/19 02:49:00.000   47.480953144   19.056541113   189.9285   5  10   4.7062   3.3052  10.6152   1.0709   2.0104   2.5419   0.00    0.0
2019/01/19 02:49:30.000   47.480954547   19.056541269   189.9866   5  10   4.7111   3.3100  10.6508   1.0671   2.0821   2.6093   0.00    0.0
2019/01/19 02:50:00.000   47.480956025   19.056540603   190.0957   5  10   4.7162   3.3149  10.6860   1.0639   2.1520   2.6744   0.00    0.0
2019/01/19 02:50:30.000   47.480956892   19.056539209   190.1491   5  10   4.7214   3.3202  10.7206   1.0613   2.2204   2.7375   0.00    0.0
2019/01/19 02:51:00.000   47.480957514   19.056536023   190.0737   5  10   4.7267   3.3257  10.7548   1.0592   2.2874   2.7986   0.00    0.0
2019/01/19 02:51:30.000   47.480957960   19.056534689   190.4066   5  10   4.7322   3.3314  10.7883   1.0578   2.3529   2.8578   0.00    0.0
2019/01/19 02:52:00.000   47.480957348   19.056534902   190.7834   5  10   4.7378   3.3374  10.8212   1.0568   2.4173   2.9151   0.00    0.0
2019/01/19 02:52:30.000   47.480956821   19.056535416   190.7996   5  10   4.7434   3.3437  10.8534   1.0564   2.4804   2.9706   0.00    0.0
2019/01/19 02:53:00.000   47.480956383   19.056535817   190.7590   5  10   4.7492   3.3503  10.8849   1.0565   2.5425   3.0244   0.00    0.0
2019/01/19 02:53:30.000   47.480955653   19.056533631   190.5168   5  10   4.7550   3.3571  10.9157   1.0571   2.6034   3.0764   0.00    0.0
2019/01/19 02:54:00.000   47.480952836   19.056533708   191.0921   5  11   4.4871   3.2379   9.9560   1.6039   1.7149   4.1248   0.00    0.0
2019/01/19 02:54:30.000   47.480953413   19.056533123   191.0362   5  11   4.4982   3.2398   9.9815   1.6109   1.7758   4.1571   0.00    0.0
2019/01/19 02:55:00.000   47.480954050   19.056533471   191.2426   5  11   4.5093   3.2419  10.0058   1.6180   1.8348   4.1885   0.00    0.0
2019/01/19 02:55:30.000   47.480954831   19.056534059   191.6331   5  11   4.5203   3.2441  10.0291   1.6252   1.8921   4.2190   0.00    0.0
2019/01/19 02:56:00.000   47.480957692   19.056541660   190.6456   5  10   4.7524   3.9625  11.5815   2.4336  -3.0462   3.1310   0.00    0.0
2019/01/19 02:56:30.000   47.480957547   19.056541430   190.5609   5  10   4.7563   3.9579  11.6339   2.4252  -3.0255   3.1739   0.00    0.0
2019/01/19 02:57:00.000   47.480958661   19.056542081   190.0624   5  10   4.7601   3.9534  11.6852   2.4169  -3.0042   3.2158   0.00    0.0
2019/01/19 02:57:30.000   47.480958367   19.056542776   190.0770   5  10   4.7639   3.9488  11.7354   2.4088  -2.9821   3.2565   0.00    0.0
2019/01/19 02:58:00.000   47.480958266   19.056544519   189.8199   5  10   4.7677   3.9443  11.7845   2.4007  -2.9592   3.2962   0.00    0.0
2019/01/19 02:58:30.000   47.480958472   19.056546445   189.6822   5  10   4.7714   3.9398  11.8324   2.3927  -2.9356   3.3347   0.00    0.0
2019/01/19 02:59:00.000   47.480959312   19.056546402   189.4558   5  10   4.7751   3.9354  11.8789   2.3847  -2.9113   3.3721   0.00    0.0
2019/01/19 02:59:30.000   47.480960274   19.056547198   189.6703   5  10   4.7787   3.9309  11.9241   2.3769  -2.8861   3.4084   0.00    0.0
2019/01/19 03:00:00.000   47.480961907   19.056551092   189.4424   5  10   4.7822   3.9266  11.9679   2.3691  -2.8602   3.4434   0.00    0.0
2019/01/19 03:00:30.000   47.480961733   19.056552426   189.2521   5  10   4.7857   3.9222  12.0102   2.3614  -2.8334   3.4772   0.00    0.0
2019/01/19 03:01:00.000   47.480961023   19.056552023   189.5952   5  10   4.7891   3.9179  12.0509   2.3538  -2.8059   3.5098   0.00    0.0
2019/01/19 03:01:30.000   47.480960263   19.056549431   190.1630   5  10   4.7924   3.9137  12.0900   2.3463  -2.7775   3.5411   0.00    0.0
2019/01/19 03:02:00.000   47.480960014   19.056546338   190.6557   5  10   4.7956   3.9095  12.1274   2.3389  -2.7482   3.5711   0.00    0.0
2019/01/19 03:02:30.000   47.480959875   19.056545017   190.7972   5  10   4.7987   3.9053  12.1630   2.3315  -2.7182   3.5998   0.00    0.0
2019/01/19 03:03:00.000   47.480959698   19.056545409   190.5898   5  10   4.8017   3.9012  12.1968   2.3243  -2.6872   3.6271   0.00    0.0
2019/01/19 03:03:30.000   47.480958711   19.056545719   190.2038   5  10   4.8046   3.8971  12.2287   2.3170  -2.6554   3.6531   0.00    0.0
2019/01/19 03:04:00.000   47.480959280   19.056545197   189.7785   5  10   4.8073   3.8931  12.2587   2.3099  -2.6228   3.6777   0.00    0.0
2019/01/19 03:04:30.000   47.480959562   19.056545207   189.6534   5  10   4.8099   3.8891  12.2867   2.3028  -2.5892   3.7008   0.00    0.0
2019/01/19 03:05:00.000   47.480959060   19.056545254   189.6720   5  10   4.8124   3.8852  12.3126   2.2958  -2.5548   3.7225   0.00    0.0
2019/01/19 03:05:30.000   47.480958913   19.056544582   189.6685   5  10   4.8147   3.8814  12.3364   2.2888  -2.5195   3.7428   0.00    0.0
2019/01/19 03:06:00.000   47.480959399   19.056543220   190.2400   5  10   4.8168   3.8776  12.3581   2.2819  -2.4833   3.7615   0.00    0.0
2019/01/19 03:06:30.000   47.480961159   19.056542234   190.7913   5  10   4.8188   3.8739  12.3776   2.2750  -2.4462   3.7788   0.00    0.0
2019/01/19 03:07:00.000   47.480961784   19.056541904   190.6440   5  10   4.8206   3.8702  12.3949   2.2682  -2.4081   3.7945   0.00    0.0
2019/01/19 03:07:30.000   47.480961862   19.056543897   190.6838   5  10   4.8222   3.8667  12.4099   2.2614  -2.3692   3.8088   0.00    0.0
2019/01/19 03:08:00.000   47.480961240   19.056545630   190.8687   5  10   4.8237   3.8631  12.4226   2.2546  -2.3293   3.8214   0.00    0.0
2019/01/19 03:08:30.000   47.480960519   19.056546929   191.1401   5  10   4.8249   3.8597  12.4331   2.2478  -2.2885   3.8326   0.00    0.0
2019/01/19 03:09:00.000   47.480961246   19.056547194   191.1475   5  10   4.8260   3.8563  12.4411   2.2410  -2.2468   3.8421   0.00    0.0
2019/01/19 03:09:30.000   47.480961734   19.056544236   190.4035   5  10   4.8269   3.8530  12.4468   2.2342  -2.2041   3.8501   0.00    0.0
2019/01/19 03:10:00.000   47.480961431   19.056542867   190.1680   5  10   4.8275   3.8498  12.4502   2.2274  -2.1605   3.8565   0.00    0.0
2019/01/19 03:10:30.000   47.480961550   19.056543824   189.9720   5  10   4.8280   3.8466  12.4511   2.2206  -2.1159   3.8613   0.00    0.0
2019/01/19 03:11:00.000   47.480962006   19.056544134   189.9706   5  10   4.8283   3.8435  12.4497   2.2138  -2.0703   3.8645   0.00    0.0
2019/01/19 03:11:30.000   47.480962035   19.056543423   189.8158   5  10   4.8283   3.8405  12.4459   2.2069  -2.0238   3.8661   0.00    0.0
2019/01/19 03:12:00.000   47.480960905   19.056542758   189.1501   5  10   4.8282   3.8375  12.4398   2.2000  -1.9762   3.8662   0.00    0.0
2019/01/19 03:12:30.000   47.480958875   19.056542028   188.3922   5  10   4.8279   3.8347  12.4312   2.1930  -1.9275   3.8647   0.00    0.0
2019/01/19 03:13:00.000   47.480956766   19.056541668   188.1550   5  10   4.8274   3.8319  12.4203   2.1859  -1.8778   3.8615   0.00    0.0
2019/01/19 03:13:30.000   47.480956340   19.056543282   188.5657   5  10   4.8266   3.8292  12.4071   2.1788  -1.8270   3.8569   0.00    0.0
2019/01/19 03:14:00.000   47.480957085   19.056545323   188.7254   5  10   4.8257   3.8265  12.3916   2.1716  -1.7751   3.8506   0.00    0.0
2019/01/19 03:14:30.000   47.480958361   19.056546720   188.9108   5  10   4.8246   3.8239  12.3738   2.1643  -1.7219   3.8429   0.00    0.0
2019/01/19 03:15:00.000   47.480959159   19.056548149   189.3325   5  10   4.8232   3.8215  12.3537   2.1568  -1.6675   3.8336   0.00    0.0
2019/01/19 03:15:30.000   47.480958875   19.056548343   189.4860   5  10   4.8217   3.8190  12.3315   2.1493  -1.6118   3.8227   0.00    0.0
2019/01/19 03:16:00.000   47.480958077   19.056548088   189.3075   5  10   4.8201   3.8167  12.3071   2.1417  -1.5546   3.8104   0.00    0.0
2019/01/19 03:16:30.000   47.480958005   19.056548453   188.5006   5  10   4.8182   3.8144  12.2806   2.1339  -1.4959   3.7966   0.00    0.0
2019/01/19 03:17:00.000   47.480959094   19.056547281   187.4667   5  10   4.8161   3.8122  12.2519   2.1260  -1.4355   3.7814   0.00    0.0
2019/01/19 03:17:30.000   47.480959544   19.056546565   186.7114   5  10   4.8139   3.8101  12.2213   2.1179  -1.3733   3.7647   0.00    0.0
2019/01/19 03:18:00.000   47.480957407   19.056546379   186.3766   5  10   4.8116   3.8080  12.1887   2.1096  -1.3090   3.7466   0.00    0.0
2019/01/19 03:18:30.000   47.480955567   19.056546613   186.4682   5  10   4.8090   3.8061  12.1542   2.1013  -1.2425   3.7271   0.00    0.0
2019/01/19 03:19:00.000   47.480954544   19.056546679   186.6930   5  10   4.8064   3.8041  12.1179   2.0927  -1.1732   3.7063   0.00    0.0
2019/01/19 03:19:30.000   47.480956276   19.056547063   186.7015   5  10   4.8035   3.8023  12.0797   2.0839  -1.1008   3.6841   0.00    0.0
2019/01/19 03:20:00.000   47.480957452   19.056547030   186.8750   5  10   4.8006   3.8005  12.0398   2.0750  -1.0247   3.6606   0.00    0.0
2019/01/19 03:20:30.000   47.480957461   19.056546802   187.4391   5  10   4.7975   3.7988  11.9983   2.0659  -0.9440   3.6359   0.00    0.0
2019/01/19 03:21:00.000   47.480959043   19.056548844   188.8226   5  11   4.3475   3.5719   9.7527   1.2749  -3.1056  -0.9712   0.00    0.0
2019/01/19 03:21:30.000   47.480957160   19.056548353   188.8762   5  11   4.3507   3.5666   9.7451   1.2590  -3.0779  -0.9503   0.00    0.0
2019/01/19 03:22:00.000   47.480956153   19.056548268   188.7898   5  11   4.3540   3.5614   9.7366   1.2432  -3.0499  -0.9306   0.00    0.0
2019/01/19 03:22:30.000   47.480956344   19.056549388   188.6570   5  11   4.3572   3.5563   9.7272   1.2272  -3.0214  -0.9123   0.00    0.0
2019/01/19 03:23:00.000   47.480956582   19.056550362   188.1568   5  11   4.3604   3.5512   9.7168   1.2112  -2.9925  -0.8955   0.00    0.0
2019/01/19 03:23:30.000   47.480956301   19.056549334   187.5115   5  11   4.3637   3.5463   9.7056   1.1951  -2.9632  -0.8801   0.00    0.0
2019/01/19 03:24:00.000   47.480956364   19.056548434   187.3378   5  11   4.3669   3.5414   9.6934   1.1789  -2.9334  -0.8664   0.00    0.0
2019/01/19 03:24:30.000   47.480956616   19.056547483   187.5356   5  11   4.3702   3.5366   9.6804   1.1626  -2.9032  -0.8543   0.00    0.0
2019/01/19 03:25:00.000   47.480957112   19.056547612   187.6179   5  11   4.3734   3.5319   9.6665   1.1462  -2.8727  -0.8440   0.00    0.0
2019/01/19 03:25:30.000   47.480956691   19.056547848   187.9021   5  11   4.3767   3.5273   9.6517   1.1297  -2.8417  -0.8355   0.00    0.0
2019/01/19 03:26:00.000   47.480957901   19.056548471   187.8745   5  11   4.3800   3.5228   9.6361   1.1130  -2.8103  -0.8289   0.00    0.0
2019/01/19 03:26:30.000   47.480959274   19.056548156   187.4918   5  11   4.3833   3.5184   9.6197   1.0961  -2.7786  -0.8241   0.00    0.0
2019/01/19 03:27:00.000   47.480958364   19.056548629   187.5271   5  11   4.3865   3.5141   9.6024   1.0791  -2.7464  -0.8213   0.00    0.0
2019/01/19 03:27:30.000   47.480957041   19.056548207   187.8199   5  11   4.3898   3.5099   9.5844   1.0620  -2.7139  -0.8204   0.00    0.0
2019/01/19 03:28:00.000   47.480955858   19.056549911   188.1977   5  11   4.3931   3.5058   9.5655   1.0446  -2.6810  -0.8214   0.00    0.0
2019/01/19 03:28:30.000   47.480955542   19.056552588   188.3397   5  11   4.3964   3.5018   9.5459   1.0270  -2.6477  -0.8243   0.00    0.0
2019/01/19 03:29:00.000   47.480955882   19.056552896   188.3916   5  11   4.3997   3.4979   9.5256   1.0091  -2.6141  -0.8290   0.00    0.0
2019/01/19 03:29:30.000   47.480956582   19.056551118   188.2824   5  11   4.4029   3.4941   9.5045   0.9910  -2.5801  -0.8355   0.00    0.0
