% program   : GINA 1.0
% inp file  : C:\Users\lus2bp\Source\Repos\GINA\70_EGNOS_Project\files\PositionComparisonInputFiles\bute0190\bute0190.19o
% inp file  : C:\Users\lus2bp\Source\Repos\GINA\70_EGNOS_Project\files\PositionComparisonInputFiles\bute0190\brdc0190.19n
% obs start : 2019/01/19 00:00:00.0 GPST (week2036 518400.0s)
% obs end   : 2019/01/19 23:59:30.0 GPST (week2036 604770.0s)
% pos mode  : single
% elev mask : 0.0 deg
% ionos opt : ems
% tropo opt : Neill
% ephemeris : broadcasted
% (lat/lon/height=WGS84/ellipsoidal,Q=1:fix,2:float,3:sbas,4:dgps,5:single,6:ppp,ns=# of satellites)
%  GPST                  latitude(deg) longitude(deg)  height(m)   Q  ns   sdn(m)   sde(m)   sdu(m)  sdne(m)  sdeu(m)  sdun(m) age(s)  ratio
2019/01/19 00:00:00.000   47.480971133   19.056565915   181.7333   5  10   0.8761   1.0555   0.7564   0.4776  -0.5382  -0.3377   0.00    0.0
2019/01/19 00:00:30.000   47.480972660   19.056565561   181.6515   5  11   0.8314   1.0293   0.7474   0.5384  -0.5103  -0.3694   0.00    0.0
2019/01/19 00:01:00.000   47.480974247   19.056566328   181.8155   5  10   0.8756   1.0518   0.7560   0.4748  -0.5341  -0.3376   0.00    0.0
2019/01/19 00:01:30.000   47.480972919   19.056565607   181.8112   5  11   0.8307   1.0254   0.7473   0.5352  -0.5066  -0.3684   0.00    0.0
2019/01/19 00:02:00.000   47.480975091   19.056566636   181.8184   5  10   0.8750   1.0475   0.7554   0.4715  -0.5296  -0.3371   0.00    0.0
2019/01/19 00:02:30.000   47.480973398   19.056565975   182.3449   5  11   0.8298   1.0210   0.7470   0.5315  -0.5024  -0.3671   0.00    0.0
2019/01/19 00:03:00.000   47.480974579   19.056566176   182.5966   5  11   0.8293   1.0187   0.7468   0.5294  -0.5001  -0.3664   0.00    0.0
2019/01/19 00:03:30.000   47.480973988   19.056562302   182.2676   5  11   0.8287   1.0163   0.7465   0.5272  -0.4977  -0.3655   0.00    0.0
2019/01/19 00:04:00.000   47.480971720   19.056558582   182.2350   5  11   0.8280   1.0138   0.7462   0.5249  -0.4952  -0.3646   0.00    0.0
2019/01/19 00:04:30.000   47.480971619   19.056559979   182.3158   5  11   0.8273   1.0112   0.7458   0.5225  -0.4926  -0.3636   0.00    0.0
2019/01/19 00:05:00.000   47.480970243   19.056558072   182.0516   5  11   0.8266   1.0085   0.7454   0.5199  -0.4899  -0.3626   0.00    0.0
2019/01/19 00:05:30.000   47.480967938   19.056557822   182.0302   5  11   0.8258   1.0057   0.7450   0.5172  -0.4871  -0.3614   0.00    0.0
2019/01/19 00:06:00.000   47.480967269   19.056558702   181.9783   5  11   0.8250   1.0028   0.7445   0.5144  -0.4841  -0.3602   0.00    0.0
2019/01/19 00:06:30.000   47.481073328   19.056517973   204.3301   5  11   0.8242   0.9998   0.7439   0.5116  -0.4810  -0.3590   0.00    0.0
2019/01/19 00:07:00.000   47.481079165   19.056517682   205.3832   5  11   0.8233   0.9968   0.7434   0.5086  -0.4779  -0.3576   0.00    0.0
2019/01/19 00:07:30.000   47.481085169   19.056514779   206.7157   5  11   0.8223   0.9937   0.7428   0.5055  -0.4747  -0.3562   0.00    0.0
2019/01/19 00:08:00.000   47.481090782   19.056511739   207.9442   5  11   0.8213   0.9905   0.7421   0.5023  -0.4714  -0.3547   0.00    0.0
2019/01/19 00:08:30.000   47.481095353   19.056509894   209.2003   5  11   0.8202   0.9873   0.7414   0.4990  -0.4680  -0.3532   0.00    0.0
2019/01/19 00:09:00.000   47.481099533   19.056506905   210.2504   5  11   0.8192   0.9840   0.7407   0.4956  -0.4645  -0.3516   0.00    0.0
2019/01/19 00:09:30.000   47.481102884   19.056505539   211.3176   5  11   0.8180   0.9806   0.7400   0.4922  -0.4610  -0.3500   0.00    0.0
2019/01/19 00:10:00.000   47.481108237   19.056503998   212.5300   5  11   0.8169   0.9772   0.7392   0.4886  -0.4574  -0.3483   0.00    0.0
2019/01/19 00:10:30.000   47.481115619   19.056500602   213.9080   5  11   0.8157   0.9737   0.7384   0.4850  -0.4537  -0.3466   0.00    0.0
2019/01/19 00:11:00.000   47.481124164   19.056496088   215.3106   5  11   0.8144   0.9701   0.7375   0.4813  -0.4499  -0.3448   0.00    0.0
2019/01/19 00:11:30.000   47.481132735   19.056493051   216.8806   5  11   0.8132   0.9665   0.7367   0.4776  -0.4461  -0.3429   0.00    0.0
2019/01/19 00:12:00.000   47.481140966   19.056491449   218.5943   5  11   0.8119   0.9629   0.7358   0.4738  -0.4423  -0.3411   0.00    0.0
2019/01/19 00:12:30.000   47.481149307   19.056488184   220.1870   5  11   0.8105   0.9591   0.7348   0.4699  -0.4383  -0.3391   0.00    0.0
2019/01/19 00:13:00.000   47.481159334   19.056485022   222.0423   5  11   0.8092   0.9554   0.7339   0.4660  -0.4344  -0.3372   0.00    0.0
2019/01/19 00:13:30.000   47.481169433   19.056483933   224.5263   5  11   0.8078   0.9516   0.7329   0.4620  -0.4303  -0.3352   0.00    0.0
2019/01/19 00:14:00.000   47.481181428   19.056480399   227.5305   5  11   0.8064   0.9478   0.7319   0.4580  -0.4263  -0.3331   0.00    0.0
2019/01/19 00:14:30.000   47.481195316   19.056475098   230.8191   5  11   0.8050   0.9439   0.7309   0.4539  -0.4222  -0.3311   0.00    0.0
2019/01/19 00:15:00.000   47.481209482   19.056468726   234.1204   5  11   0.8035   0.9400   0.7299   0.4498  -0.4180  -0.3290   0.00    0.0
2019/01/19 00:15:30.000   47.480973279   19.056560504   182.8514   5  10   1.1214   1.3848   0.7614   1.2455  -0.6385  -0.4992   0.00    0.0
2019/01/19 00:16:00.000   47.480973223   19.056560079   182.8971   5  10   1.1220   1.3836   0.7603   1.2454  -0.6347  -0.4976   0.00    0.0
2019/01/19 00:16:30.000   47.480972922   19.056559746   182.5471   5  10   1.1225   1.3822   0.7592   1.2449  -0.6306  -0.4957   0.00    0.0
2019/01/19 00:17:00.000   47.480971601   19.056561939   181.9037   5  10   1.1229   1.3806   0.7580   1.2439  -0.6263  -0.4937   0.00    0.0
2019/01/19 00:17:30.000   47.480971037   19.056560594   181.3679   5  10   1.1231   1.3788   0.7568   1.2425  -0.6218  -0.4915   0.00    0.0
2019/01/19 00:18:00.000   47.480970889   19.056559800   181.0555   5  10   1.1231   1.3767   0.7556   1.2406  -0.6171  -0.4891   0.00    0.0
2019/01/19 00:18:30.000   47.480970322   19.056560600   181.0187   5  10   1.1231   1.3744   0.7542   1.2383  -0.6122  -0.4865   0.00    0.0
2019/01/19 00:19:00.000   47.480968944   19.056560647   181.0275   5  10   1.1228   1.3720   0.7529   1.2355  -0.6070  -0.4838   0.00    0.0
2019/01/19 00:19:30.000   47.480968155   19.056558868   181.0702   5  10   1.1224   1.3693   0.7515   1.2323  -0.6017  -0.4810   0.00    0.0
2019/01/19 00:20:00.000   47.480967857   19.056557229   180.9910   5  10   1.1219   1.3664   0.7500   1.2287  -0.5962  -0.4779   0.00    0.0
2019/01/19 00:20:30.000   47.481136027   19.056640573   219.8088   5  11   0.9201   1.0057   0.5363   0.6349  -0.1099  -0.1402   0.00    0.0
2019/01/19 00:21:00.000   47.481127904   19.056638138   217.9717   5  11   0.9221   1.0077   0.5367   0.6389  -0.1101  -0.1407   0.00    0.0
2019/01/19 00:21:30.000   47.481118566   19.056637596   216.1979   5  11   0.9240   1.0097   0.5370   0.6428  -0.1102  -0.1413   0.00    0.0
2019/01/19 00:22:00.000   47.481109986   19.056636075   214.5280   5  11   0.9259   1.0116   0.5373   0.6466  -0.1103  -0.1418   0.00    0.0
2019/01/19 00:22:30.000   47.481102647   19.056634229   212.7673   5  11   0.9277   1.0134   0.5377   0.6503  -0.1104  -0.1423   0.00    0.0
2019/01/19 00:23:00.000   47.481097216   19.056629591   211.1027   5  11   0.9294   1.0151   0.5380   0.6538  -0.1105  -0.1427   0.00    0.0
2019/01/19 00:23:30.000   47.481090674   19.056624723   209.4858   5  11   0.9311   1.0168   0.5383   0.6573  -0.1105  -0.1432   0.00    0.0
2019/01/19 00:24:00.000   47.481083836   19.056621133   207.9169   5  11   0.9328   1.0183   0.5386   0.6605  -0.1105  -0.1436   0.00    0.0
2019/01/19 00:24:30.000   47.481076877   19.056618096   206.1463   5  11   0.9344   1.0198   0.5389   0.6637  -0.1105  -0.1440   0.00    0.0
2019/01/19 00:25:00.000   47.481069314   19.056616313   204.3516   5  11   0.9359   1.0212   0.5392   0.6667  -0.1105  -0.1444   0.00    0.0
2019/01/19 00:25:30.000   47.481062140   19.056616016   202.9288   5  11   0.9373   1.0225   0.5396   0.6696  -0.1104  -0.1448   0.00    0.0
2019/01/19 00:26:00.000   47.481056722   19.056614675   202.0906   5  11   0.9387   1.0237   0.5399   0.6723  -0.1103  -0.1451   0.00    0.0
2019/01/19 00:26:30.000   47.481052502   19.056611979   201.5137   5  11   0.9401   1.0248   0.5402   0.6749  -0.1102  -0.1455   0.00    0.0
2019/01/19 00:27:00.000   47.480959206   19.056557072   179.5319   5  11   0.9413   1.0259   0.5404   0.6773  -0.1101  -0.1457   0.00    0.0
2019/01/19 00:27:30.000   47.480961575   19.056557778   179.7778   5  11   0.9425   1.0269   0.5407   0.6795  -0.1099  -0.1460   0.00    0.0
2019/01/19 00:28:00.000   47.480964221   19.056556691   179.9037   5  11   0.9436   1.0277   0.5410   0.6816  -0.1097  -0.1463   0.00    0.0
2019/01/19 00:28:30.000   47.480964793   19.056555603   179.6505   5  11   0.9446   1.0285   0.5413   0.6836  -0.1095  -0.1465   0.00    0.0
2019/01/19 00:29:00.000   47.480965561   19.056554473   179.5025   5  11   0.9456   1.0291   0.5416   0.6854  -0.1092  -0.1467   0.00    0.0
2019/01/19 00:29:30.000   47.480964985   19.056555143   179.0439   5  11   0.9466   1.0297   0.5419   0.6870  -0.1090  -0.1469   0.00    0.0
2019/01/19 00:30:00.000   47.480963985   19.056555088   178.6580   5  11   0.9474   1.0301   0.5421   0.6884  -0.1087  -0.1471   0.00    0.0
2019/01/19 00:30:30.000   47.480962745   19.056555446   178.4301   5  11   0.9482   1.0305   0.5424   0.6897  -0.1084  -0.1473   0.00    0.0
2019/01/19 00:31:00.000   47.480961280   19.056556490   178.3182   5  11   0.9489   1.0307   0.5427   0.6909  -0.1080  -0.1474   0.00    0.0
2019/01/19 00:31:30.000   47.480961628   19.056554238   178.9480   5  11   0.9495   1.0309   0.5429   0.6918  -0.1076  -0.1475   0.00    0.0
2019/01/19 00:32:00.000   47.480961481   19.056556014   179.4348   5  11   0.9500   1.0310   0.5432   0.6926  -0.1072  -0.1476   0.00    0.0
2019/01/19 00:32:30.000   47.480960482   19.056558755   179.4400   5  11   0.9505   1.0309   0.5434   0.6932  -0.1068  -0.1476   0.00    0.0
2019/01/19 00:33:00.000   47.480960139   19.056560604   179.3192   5  11   0.9509   1.0308   0.5437   0.6936  -0.1063  -0.1476   0.00    0.0
2019/01/19 00:33:30.000   47.480959454   19.056561666   179.2830   5  11   0.9512   1.0306   0.5439   0.6939  -0.1059  -0.1476   0.00    0.0
2019/01/19 00:34:00.000   47.480958878   19.056562088   179.1238   5  11   0.9515   1.0303   0.5442   0.6940  -0.1053  -0.1476   0.00    0.0
2019/01/19 00:34:30.000   47.480959287   19.056560567   179.1336   5  11   0.9517   1.0298   0.5444   0.6939  -0.1048  -0.1476   0.00    0.0
2019/01/19 00:35:00.000   47.480959566   19.056558616   179.1374   5  11   0.9518   1.0293   0.5446   0.6937  -0.1042  -0.1475   0.00    0.0
2019/01/19 00:35:30.000   47.480960706   19.056556213   179.1085   5  11   0.9518   1.0287   0.5448   0.6933  -0.1037  -0.1474   0.00    0.0
2019/01/19 00:36:00.000   47.480961504   19.056554605   179.1958   5  11   0.9518   1.0280   0.5451   0.6927  -0.1030  -0.1473   0.00    0.0
2019/01/19 00:36:30.000   47.480961526   19.056553625   179.2995   5  11   0.9516   1.0272   0.5453   0.6920  -0.1024  -0.1472   0.00    0.0
2019/01/19 00:37:00.000   47.480960127   19.056553093   179.1931   5  11   0.9514   1.0263   0.5455   0.6911  -0.1017  -0.1470   0.00    0.0
2019/01/19 00:37:30.000   47.480958979   19.056551956   178.9516   5  11   0.9512   1.0253   0.5457   0.6900  -0.1011  -0.1468   0.00    0.0
2019/01/19 00:38:00.000   47.480958014   19.056551958   178.5045   5  11   0.9508   1.0242   0.5459   0.6888  -0.1003  -0.1466   0.00    0.0
2019/01/19 00:38:30.000   47.480958142   19.056552696   178.3263   5  11   0.9504   1.0230   0.5461   0.6874  -0.0996  -0.1464   0.00    0.0
2019/01/19 00:39:00.000   47.480957579   19.056553454   178.4788   5  11   0.9499   1.0218   0.5463   0.6858  -0.0989  -0.1461   0.00    0.0
2019/01/19 00:39:30.000   47.480869603   19.056599823   190.2670   5  12   0.9207   1.0171   0.5235   0.7033  -0.1112  -0.1097   0.00    0.0
2019/01/19 00:40:00.000   47.480873610   19.056599783   190.6055   5  12   0.9203   1.0156   0.5235   0.7015  -0.1105  -0.1093   0.00    0.0
2019/01/19 00:40:30.000   47.480875724   19.056600596   190.7152   5  12   0.9198   1.0141   0.5235   0.6995  -0.1098  -0.1090   0.00    0.0
2019/01/19 00:41:00.000   47.480877972   19.056603384   190.5080   5  12   0.9192   1.0124   0.5234   0.6974  -0.1091  -0.1086   0.00    0.0
2019/01/19 00:41:30.000   47.480879226   19.056603908   190.1260   5  12   0.9185   1.0107   0.5234   0.6951  -0.1084  -0.1083   0.00    0.0
2019/01/19 00:42:00.000   47.480878415   19.056604499   189.5460   5  12   0.9178   1.0089   0.5233   0.6927  -0.1076  -0.1079   0.00    0.0
2019/01/19 00:42:30.000   47.480878023   19.056603489   189.1138   5  12   0.9170   1.0070   0.5233   0.6901  -0.1069  -0.1074   0.00    0.0
2019/01/19 00:43:00.000   47.480878501   19.056600989   189.0426   5  12   0.9162   1.0050   0.5232   0.6874  -0.1061  -0.1070   0.00    0.0
2019/01/19 00:43:30.000   47.480880625   19.056599793   189.1534   5  12   0.9153   1.0029   0.5232   0.6846  -0.1053  -0.1065   0.00    0.0
2019/01/19 00:44:00.000   47.480881829   19.056598088   189.3093   5  12   0.9143   1.0008   0.5231   0.6817  -0.1045  -0.1061   0.00    0.0
2019/01/19 00:44:30.000   47.480883033   19.056598020   189.3024   5  12   0.9133   0.9986   0.5230   0.6786  -0.1037  -0.1056   0.00    0.0
2019/01/19 00:45:00.000   47.480882762   19.056599705   189.1088   5  12   0.9122   0.9964   0.5229   0.6754  -0.1028  -0.1051   0.00    0.0
2019/01/19 00:45:30.000   47.480883142   19.056601978   188.9515   5  12   0.9110   0.9940   0.5229   0.6721  -0.1020  -0.1046   0.00    0.0
2019/01/19 00:46:00.000   47.480884409   19.056602207   188.8949   5  12   0.9098   0.9916   0.5228   0.6687  -0.1011  -0.1041   0.00    0.0
2019/01/19 00:46:30.000   47.480885087   19.056603425   188.7832   5  12   0.9086   0.9892   0.5227   0.6651  -0.1002  -0.1035   0.00    0.0
2019/01/19 00:47:00.000   47.480885656   19.056603098   188.9346   5  12   0.9072   0.9866   0.5226   0.6615  -0.0993  -0.1030   0.00    0.0
2019/01/19 00:47:30.000   47.480865887   19.056653863   192.1266   5  11   0.9128   0.9853   0.5831   0.6523  -0.0858  -0.1315   0.00    0.0
2019/01/19 00:48:00.000   47.480885080   19.056604175   188.9294   5  12   0.9044   0.9814   0.5224   0.6539  -0.0975  -0.1019   0.00    0.0
2019/01/19 00:48:30.000   47.480886416   19.056601875   188.9290   5  12   0.9029   0.9787   0.5223   0.6500  -0.0966  -0.1013   0.00    0.0
2019/01/19 00:49:00.000   47.480886980   19.056603444   188.8916   5  12   0.9014   0.9760   0.5222   0.6460  -0.0957  -0.1007   0.00    0.0
2019/01/19 00:49:30.000   47.480888528   19.056606123   188.7589   5  12   0.8998   0.9731   0.5221   0.6419  -0.0948  -0.1001   0.00    0.0
2019/01/19 00:50:00.000   47.480889385   19.056606514   188.4046   5  12   0.8982   0.9703   0.5219   0.6377  -0.0938  -0.0995   0.00    0.0
2019/01/19 00:50:30.000   47.480872848   19.056656072   191.6045   5  11   0.9044   0.9681   0.5851   0.6291  -0.0832  -0.1305   0.00    0.0
2019/01/19 00:51:00.000   47.480873099   19.056657040   191.6330   5  11   0.9029   0.9651   0.5854   0.6250  -0.0827  -0.1303   0.00    0.0
2019/01/19 00:51:30.000   47.480872820   19.056658465   191.7960   5  11   0.9013   0.9620   0.5857   0.6208  -0.0823  -0.1300   0.00    0.0
2019/01/19 00:52:00.000   47.481057035   19.056389501   233.8277   5  13   0.7270   0.6310   0.5214   0.2483  -0.0874  -0.0951   0.00    0.0
2019/01/19 00:52:30.000   47.481041041   19.056398904   231.0958   5  13   0.7273   0.6311   0.5212   0.2485  -0.0874  -0.0952   0.00    0.0
2019/01/19 00:53:00.000   47.481027064   19.056408553   228.8533   5  13   0.7276   0.6312   0.5211   0.2488  -0.0875  -0.0952   0.00    0.0
2019/01/19 00:53:30.000   47.480995576   19.056481347   231.7760   5  12   0.7403   0.6314   0.5868   0.2474  -0.0843  -0.1318   0.00    0.0
2019/01/19 00:54:00.000   47.480985470   19.056490192   230.0419   5  12   0.7407   0.6315   0.5870   0.2477  -0.0847  -0.1321   0.00    0.0
2019/01/19 00:54:30.000   47.480976544   19.056497344   228.1806   5  12   0.7411   0.6315   0.5873   0.2480  -0.0850  -0.1324   0.00    0.0
2019/01/19 00:55:00.000   47.480989342   19.056432542   221.5149   5  13   0.7286   0.6315   0.5205   0.2495  -0.0875  -0.0954   0.00    0.0
2019/01/19 00:55:30.000   47.480980499   19.056438168   220.9087   5  13   0.7288   0.6315   0.5204   0.2496  -0.0875  -0.0954   0.00    0.0
2019/01/19 00:56:00.000   47.480953488   19.056509095   225.6781   5  12   0.7420   0.6316   0.5880   0.2489  -0.0860  -0.1333   0.00    0.0
2019/01/19 00:56:30.000   47.480946126   19.056512642   225.0461   5  12   0.7423   0.6316   0.5882   0.2492  -0.0863  -0.1335   0.00    0.0
2019/01/19 00:57:00.000   47.480938582   19.056516554   223.9949   5  12   0.7425   0.6316   0.5884   0.2494  -0.0866  -0.1338   0.00    0.0
2019/01/19 00:57:30.000   47.480932332   19.056520846   222.8934   5  12   0.7428   0.6315   0.5886   0.2496  -0.0869  -0.1340   0.00    0.0
2019/01/19 00:58:00.000   47.480971698   19.056466499   213.8615   5  11   0.8006   0.6356   0.6679   0.2282  -0.0644  -0.2281   0.00    0.0
2019/01/19 00:58:30.000   47.480964856   19.056469340   213.1811   5  11   0.8007   0.6355   0.6686   0.2286  -0.0648  -0.2286   0.00    0.0
2019/01/19 00:59:00.000   47.480958467   19.056471882   212.6612   5  11   0.8007   0.6354   0.6693   0.2290  -0.0652  -0.2291   0.00    0.0
2019/01/19 00:59:30.000   47.480953043   19.056476012   212.2729   5  11   0.8008   0.6352   0.6701   0.2293  -0.0656  -0.2295   0.00    0.0
2019/01/19 01:00:00.000   47.480947614   19.056480117   212.1981   5  11   0.8008   0.6351   0.6708   0.2296  -0.0660  -0.2299   0.00    0.0
2019/01/19 01:00:30.000   47.480941703   19.056483720   212.2255   5  11   0.8008   0.6349   0.6715   0.2299  -0.0664  -0.2303   0.00    0.0
2019/01/19 01:01:00.000   47.480849117   19.056562254   198.1196   5  11   0.8007   0.6347   0.6722   0.2302  -0.0667  -0.2306   0.00    0.0
2019/01/19 01:01:30.000   47.480846039   19.056563132   198.4564   5  11   0.8006   0.6346   0.6728   0.2304  -0.0671  -0.2310   0.00    0.0
2019/01/19 01:02:00.000   47.480843380   19.056563952   199.2028   5  11   0.8005   0.6344   0.6735   0.2306  -0.0674  -0.2313   0.00    0.0
2019/01/19 01:02:30.000   47.480840910   19.056563858   200.1089   5  11   0.8004   0.6342   0.6741   0.2308  -0.0678  -0.2315   0.00    0.0
2019/01/19 01:03:00.000   47.480838350   19.056564880   201.1125   5  11   0.8003   0.6339   0.6748   0.2310  -0.0681  -0.2318   0.00    0.0
2019/01/19 01:03:30.000   47.480834462   19.056568617   202.0934   5  11   0.8001   0.6337   0.6754   0.2311  -0.0684  -0.2320   0.00    0.0
2019/01/19 01:04:00.000   47.480830956   19.056570514   203.1134   5  11   0.7999   0.6335   0.6760   0.2312  -0.0687  -0.2322   0.00    0.0
2019/01/19 01:04:30.000   47.480825801   19.056572556   204.1982   5  11   0.7997   0.6332   0.6766   0.2313  -0.0689  -0.2324   0.00    0.0
2019/01/19 01:05:00.000   47.480821062   19.056573216   205.0643   5  11   0.7994   0.6330   0.6771   0.2314  -0.0692  -0.2325   0.00    0.0
2019/01/19 01:05:30.000   47.480817230   19.056572271   205.8994   5  11   0.7992   0.6327   0.6777   0.2315  -0.0695  -0.2326   0.00    0.0
2019/01/19 01:06:00.000   47.480814299   19.056570266   206.8051   5  11   0.7989   0.6325   0.6783   0.2315  -0.0697  -0.2327   0.00    0.0
2019/01/19 01:06:30.000   47.480810131   19.056570034   207.7550   5  11   0.7985   0.6322   0.6788   0.2315  -0.0700  -0.2327   0.00    0.0
2019/01/19 01:07:00.000   47.480806323   19.056572173   208.7710   5  11   0.7982   0.6319   0.6793   0.2315  -0.0702  -0.2328   0.00    0.0
2019/01/19 01:07:30.000   47.480801739   19.056574465   209.7673   5  11   0.7978   0.6316   0.6798   0.2314  -0.0704  -0.2328   0.00    0.0
2019/01/19 01:08:00.000   47.480961116   19.056545753   180.2087   5  10   1.0149   0.6371   0.7433   0.1771  -0.0447  -0.4207   0.00    0.0
2019/01/19 01:08:30.000   47.480961636   19.056545761   179.7010   5  10   1.0154   0.6367   0.7448   0.1773  -0.0449  -0.4227   0.00    0.0
2019/01/19 01:09:00.000   47.480963587   19.056544961   179.4797   5  10   1.0158   0.6363   0.7463   0.1775  -0.0450  -0.4247   0.00    0.0
2019/01/19 01:09:30.000   47.480965017   19.056544708   179.2969   5  10   1.0161   0.6359   0.7478   0.1777  -0.0451  -0.4266   0.00    0.0
2019/01/19 01:10:00.000   47.480965645   19.056545134   179.2114   5  10   1.0165   0.6355   0.7493   0.1778  -0.0453  -0.4285   0.00    0.0
2019/01/19 01:10:30.000   47.480965685   19.056546785   179.1566   5  10   1.0167   0.6351   0.7508   0.1780  -0.0454  -0.4303   0.00    0.0
2019/01/19 01:11:00.000   47.480963628   19.056550665   179.2326   5  10   1.0170   0.6346   0.7522   0.1781  -0.0455  -0.4321   0.00    0.0
2019/01/19 01:11:30.000   47.480967403   19.056540702   177.9894   5  11   0.9148   0.6340   0.5606   0.1719  -0.0386  -0.2097   0.00    0.0
2019/01/19 01:12:00.000   47.480965919   19.056542034   178.3780   5  11   0.9153   0.6336   0.5616   0.1724  -0.0391  -0.2113   0.00    0.0
2019/01/19 01:12:30.000   47.480963872   19.056543605   178.4100   5  11   0.9157   0.6332   0.5627   0.1728  -0.0396  -0.2129   0.00    0.0
2019/01/19 01:13:00.000   47.480962570   19.056543609   178.6774   5  11   0.9162   0.6327   0.5637   0.1733  -0.0402  -0.2145   0.00    0.0
2019/01/19 01:13:30.000   47.480963675   19.056543630   178.8757   5  11   0.9166   0.6323   0.5648   0.1737  -0.0407  -0.2161   0.00    0.0
2019/01/19 01:14:00.000   47.480964934   19.056541947   179.0083   5  11   0.9170   0.6318   0.5658   0.1740  -0.0412  -0.2176   0.00    0.0
2019/01/19 01:14:30.000   47.480967344   19.056539574   178.9263   5  11   0.9174   0.6314   0.5669   0.1744  -0.0417  -0.2191   0.00    0.0
2019/01/19 01:15:00.000   47.480969510   19.056537898   178.7791   5  11   0.9177   0.6309   0.5679   0.1747  -0.0422  -0.2207   0.00    0.0
2019/01/19 01:15:30.000   47.480970023   19.056539006   178.8120   5  11   0.9181   0.6304   0.5690   0.1750  -0.0428  -0.2222   0.00    0.0
2019/01/19 01:16:00.000   47.480970010   19.056541009   178.8632   5  11   0.9183   0.6299   0.5700   0.1753  -0.0433  -0.2237   0.00    0.0
2019/01/19 01:16:30.000   47.480970608   19.056542866   178.8632   5  11   0.9186   0.6295   0.5711   0.1756  -0.0437  -0.2251   0.00    0.0
2019/01/19 01:17:00.000   47.480970347   19.056543657   178.9684   5  11   0.9188   0.6290   0.5721   0.1758  -0.0442  -0.2266   0.00    0.0
2019/01/19 01:17:30.000   47.480971396   19.056544898   178.9420   5  11   0.9190   0.6285   0.5732   0.1760  -0.0447  -0.2280   0.00    0.0
2019/01/19 01:18:00.000   47.480971437   19.056544472   178.9537   5  11   0.9192   0.6280   0.5742   0.1762  -0.0452  -0.2294   0.00    0.0
2019/01/19 01:18:30.000   47.480971982   19.056543860   178.8365   5  11   0.9194   0.6274   0.5753   0.1764  -0.0457  -0.2308   0.00    0.0
2019/01/19 01:19:00.000   47.480971725   19.056544343   178.5273   5  11   0.9195   0.6269   0.5763   0.1765  -0.0461  -0.2322   0.00    0.0
2019/01/19 01:19:30.000   47.480970985   19.056543731   178.4817   5  11   0.9196   0.6264   0.5774   0.1767  -0.0466  -0.2336   0.00    0.0
2019/01/19 01:20:00.000   47.480969980   19.056543361   178.7559   5  11   0.9196   0.6259   0.5784   0.1768  -0.0471  -0.2349   0.00    0.0
2019/01/19 01:20:30.000   47.480968260   19.056542839   178.9911   5  11   0.9196   0.6253   0.5795   0.1769  -0.0475  -0.2362   0.00    0.0
2019/01/19 01:21:00.000   47.480967576   19.056541914   179.2208   5  11   0.9196   0.6248   0.5805   0.1769  -0.0479  -0.2375   0.00    0.0
2019/01/19 01:21:30.000   47.480966979   19.056540357   179.4496   5  11   0.9196   0.6242   0.5816   0.1769  -0.0484  -0.2388   0.00    0.0
2019/01/19 01:22:00.000   47.480966873   19.056537712   179.2948   5  11   0.9195   0.6237   0.5826   0.1770  -0.0488  -0.2401   0.00    0.0
2019/01/19 01:22:30.000   47.480967472   19.056534205   179.1036   5  11   0.9194   0.6231   0.5836   0.1769  -0.0492  -0.2413   0.00    0.0
2019/01/19 01:23:00.000   47.480967362   19.056533342   179.0888   5  11   0.9193   0.6226   0.5847   0.1769  -0.0496  -0.2425   0.00    0.0
2019/01/19 01:23:30.000   47.480967208   19.056532646   179.1795   5  11   0.9191   0.6220   0.5857   0.1768  -0.0500  -0.2437   0.00    0.0
2019/01/19 01:24:00.000   47.480967499   19.056534166   179.1998   5  11   0.9189   0.6214   0.5867   0.1768  -0.0504  -0.2449   0.00    0.0
2019/01/19 01:24:30.000   47.480968782   19.056536216   179.1221   5  11   0.9187   0.6208   0.5878   0.1767  -0.0508  -0.2460   0.00    0.0
2019/01/19 01:25:00.000   47.480969684   19.056538672   178.9576   5  11   0.9185   0.6202   0.5888   0.1765  -0.0512  -0.2472   0.00    0.0
2019/01/19 01:25:30.000   47.480971499   19.056540040   178.4596   5  11   0.9182   0.6196   0.5898   0.1764  -0.0516  -0.2483   0.00    0.0
2019/01/19 01:26:00.000   47.481083142   19.056459865   199.0072   5  12   0.8862   0.5246   0.5906   0.0977  -0.0475  -0.2461   0.00    0.0
2019/01/19 01:26:30.000   47.481078119   19.056462134   197.2791   5  12   0.8865   0.5246   0.5917   0.0985  -0.0482  -0.2474   0.00    0.0
2019/01/19 01:27:00.000   47.481070226   19.056466751   196.0314   5  12   0.8867   0.5246   0.5927   0.0993  -0.0488  -0.2486   0.00    0.0
2019/01/19 01:27:30.000   47.481063860   19.056471404   194.9954   5  12   0.8869   0.5247   0.5937   0.1002  -0.0494  -0.2498   0.00    0.0
2019/01/19 01:28:00.000   47.481058374   19.056476069   194.1178   5  12   0.8870   0.5247   0.5947   0.1010  -0.0500  -0.2510   0.00    0.0
2019/01/19 01:28:30.000   47.481052806   19.056480809   193.5084   5  12   0.8871   0.5247   0.5958   0.1017  -0.0506  -0.2522   0.00    0.0
2019/01/19 01:29:00.000   47.481048638   19.056484745   192.8255   5  12   0.8872   0.5248   0.5968   0.1025  -0.0512  -0.2533   0.00    0.0
2019/01/19 01:29:30.000   47.481045659   19.056486708   191.9982   5  12   0.8873   0.5248   0.5978   0.1033  -0.0518  -0.2544   0.00    0.0
2019/01/19 01:30:00.000   47.481042430   19.056489454   191.2944   5  12   0.8873   0.5248   0.5987   0.1040  -0.0524  -0.2555   0.00    0.0
2019/01/19 01:30:30.000   47.481039685   19.056493330   190.4850   5  12   0.8873   0.5249   0.5997   0.1048  -0.0530  -0.2566   0.00    0.0
2019/01/19 01:31:00.000   47.481037167   19.056494794   189.5630   5  12   0.8872   0.5249   0.6007   0.1055  -0.0536  -0.2576   0.00    0.0
2019/01/19 01:31:30.000   47.481033582   19.056495699   188.8549   5  12   0.8872   0.5249   0.6017   0.1062  -0.0542  -0.2586   0.00    0.0
2019/01/19 01:32:00.000   47.481031213   19.056496754   188.2506   5  12   0.8871   0.5250   0.6027   0.1068  -0.0547  -0.2595   0.00    0.0
2019/01/19 01:32:30.000   47.481030108   19.056497996   187.7593   5  12   0.8869   0.5250   0.6036   0.1075  -0.0553  -0.2605   0.00    0.0
2019/01/19 01:33:00.000   47.481027404   19.056500138   187.4493   5  12   0.8867   0.5250   0.6046   0.1082  -0.0559  -0.2614   0.00    0.0
2019/01/19 01:33:30.000   47.481024179   19.056501377   186.9173   5  12   0.8865   0.5251   0.6055   0.1088  -0.0564  -0.2623   0.00    0.0
2019/01/19 01:34:00.000   47.481021784   19.056501397   186.4190   5  12   0.8863   0.5251   0.6065   0.1094  -0.0570  -0.2631   0.00    0.0
2019/01/19 01:34:30.000   47.480968977   19.056536771   177.8800   5  12   0.8860   0.5252   0.6074   0.1100  -0.0575  -0.2639   0.00    0.0
2019/01/19 01:35:00.000   47.480968421   19.056535228   178.0480   5  12   0.8856   0.5252   0.6083   0.1106  -0.0581  -0.2647   0.00    0.0
2019/01/19 01:35:30.000   47.480968808   19.056534248   177.9489   5  12   0.8853   0.5252   0.6092   0.1112  -0.0586  -0.2655   0.00    0.0
2019/01/19 01:36:00.000   47.480969039   19.056535648   177.8628   5  12   0.8849   0.5252   0.6101   0.1117  -0.0591  -0.2662   0.00    0.0
2019/01/19 01:36:30.000   47.480968056   19.056537124   178.0052   5  12   0.8844   0.5253   0.6110   0.1122  -0.0596  -0.2669   0.00    0.0
2019/01/19 01:37:00.000   47.480967162   19.056539190   178.1929   5  12   0.8840   0.5253   0.6119   0.1127  -0.0601  -0.2675   0.00    0.0
2019/01/19 01:37:30.000   47.480967183   19.056540189   178.2567   5  12   0.8835   0.5253   0.6128   0.1132  -0.0606  -0.2681   0.00    0.0
2019/01/19 01:38:00.000   47.480966907   19.056539671   178.2125   5  12   0.8829   0.5253   0.6137   0.1137  -0.0611  -0.2687   0.00    0.0
2019/01/19 01:38:30.000   47.480966637   19.056538483   177.9960   5  12   0.8824   0.5254   0.6145   0.1142  -0.0616  -0.2693   0.00    0.0
2019/01/19 01:39:00.000   47.480967286   19.056537910   177.8846   5  12   0.8817   0.5254   0.6154   0.1146  -0.0621  -0.2698   0.00    0.0
2019/01/19 01:39:30.000   47.480964139   19.056554120   179.6743   5  13   0.8483   0.5224   0.5140   0.1016  -0.0435  -0.1893   0.00    0.0
2019/01/19 01:40:00.000   47.480965382   19.056549005   179.0641   5  13   0.8479   0.5224   0.5147   0.1022  -0.0441  -0.1901   0.00    0.0
2019/01/19 01:40:30.000   47.480964644   19.056547281   178.9044   5  13   0.8475   0.5225   0.5155   0.1027  -0.0446  -0.1908   0.00    0.0
2019/01/19 01:41:00.000   47.480963183   19.056545996   178.7347   5  13   0.8470   0.5226   0.5162   0.1033  -0.0452  -0.1915   0.00    0.0
2019/01/19 01:41:30.000   47.480962592   19.056545024   178.7562   5  13   0.8465   0.5226   0.5170   0.1038  -0.0458  -0.1922   0.00    0.0
2019/01/19 01:42:00.000   47.480961794   19.056543924   178.7371   5  13   0.8460   0.5227   0.5177   0.1043  -0.0464  -0.1929   0.00    0.0
2019/01/19 01:42:30.000   47.480962434   19.056543032   178.7467   5  13   0.8454   0.5228   0.5185   0.1048  -0.0470  -0.1935   0.00    0.0
2019/01/19 01:43:00.000   47.480963040   19.056543299   178.8045   5  13   0.8449   0.5228   0.5192   0.1052  -0.0476  -0.1941   0.00    0.0
2019/01/19 01:43:30.000   47.480963956   19.056543305   178.7205   5  13   0.8442   0.5229   0.5200   0.1057  -0.0481  -0.1947   0.00    0.0
2019/01/19 01:44:00.000   47.480963487   19.056546171   178.6460   5  13   0.8436   0.5229   0.5207   0.1061  -0.0487  -0.1953   0.00    0.0
2019/01/19 01:44:30.000   47.480964165   19.056547347   178.4774   5  13   0.8429   0.5230   0.5214   0.1065  -0.0493  -0.1959   0.00    0.0
2019/01/19 01:45:00.000   47.480964503   19.056547333   178.3240   5  13   0.8422   0.5230   0.5222   0.1069  -0.0498  -0.1964   0.00    0.0
2019/01/19 01:45:30.000   47.480964157   19.056547632   178.0895   5  13   0.8415   0.5231   0.5229   0.1073  -0.0504  -0.1969   0.00    0.0
2019/01/19 01:46:00.000   47.481026469   19.056557687   185.3278   5  13   0.8407   0.5231   0.5236   0.1076  -0.0509  -0.1974   0.00    0.0
2019/01/19 01:46:30.000   47.481029513   19.056557243   185.8229   5  13   0.8399   0.5231   0.5244   0.1079  -0.0514  -0.1979   0.00    0.0
2019/01/19 01:47:00.000   47.481031418   19.056558613   186.4454   5  13   0.8391   0.5232   0.5251   0.1083  -0.0520  -0.1984   0.00    0.0
2019/01/19 01:47:30.000   47.481033706   19.056558850   187.0237   5  13   0.8382   0.5232   0.5258   0.1086  -0.0525  -0.1988   0.00    0.0
2019/01/19 01:48:00.000   47.481036811   19.056558677   187.5637   5  13   0.8373   0.5232   0.5265   0.1088  -0.0530  -0.1992   0.00    0.0
2019/01/19 01:48:30.000   47.481040455   19.056559273   188.0736   5  13   0.8364   0.5233   0.5272   0.1091  -0.0535  -0.1996   0.00    0.0
2019/01/19 01:49:00.000   47.481087057   19.056633224   199.3363   5  14   0.8289   0.4915   0.4962   0.0905  -0.0216  -0.1811   0.00    0.0
2019/01/19 01:49:30.000   47.481085879   19.056627279   198.8543   5  14   0.8281   0.4916   0.4969   0.0911  -0.0222  -0.1817   0.00    0.0
2019/01/19 01:50:00.000   47.481086693   19.056620818   198.5076   5  14   0.8273   0.4918   0.4975   0.0916  -0.0227  -0.1823   0.00    0.0
2019/01/19 01:50:30.000   47.481088228   19.056615511   198.2569   5  14   0.8264   0.4920   0.4982   0.0921  -0.0232  -0.1828   0.00    0.0
2019/01/19 01:51:00.000   47.481090162   19.056610398   198.1822   5  14   0.8255   0.4921   0.4988   0.0926  -0.0237  -0.1833   0.00    0.0
2019/01/19 01:51:30.000   47.481092824   19.056605994   198.3408   5  14   0.8246   0.4923   0.4995   0.0930  -0.0242  -0.1838   0.00    0.0
2019/01/19 01:52:00.000   47.481094782   19.056602792   198.4757   5  14   0.8236   0.4925   0.5002   0.0934  -0.0247  -0.1843   0.00    0.0
2019/01/19 01:52:30.000   47.481097504   19.056600483   198.7239   5  14   0.8226   0.4926   0.5008   0.0939  -0.0252  -0.1848   0.00    0.0
2019/01/19 01:53:00.000   47.481100750   19.056598648   199.1503   5  14   0.8216   0.4928   0.5015   0.0943  -0.0257  -0.1852   0.00    0.0
2019/01/19 01:53:30.000   47.481105273   19.056595600   199.9134   5  14   0.8206   0.4929   0.5021   0.0947  -0.0262  -0.1857   0.00    0.0
2019/01/19 01:54:00.000   47.481112031   19.056591051   200.6954   5  14   0.8195   0.4931   0.5028   0.0950  -0.0267  -0.1861   0.00    0.0
2019/01/19 01:54:30.000   47.481005669   19.056591297   185.6736   5  13   0.8270   0.5609   0.5073   0.1272  -0.0440  -0.1940   0.00    0.0
2019/01/19 01:55:00.000   47.480900029   19.056613896   199.3900   5  14   0.7467   0.5509   0.4736   0.1674  -0.0652  -0.1295   0.00    0.0
2019/01/19 01:55:30.000   47.480838962   19.056557857   207.1906   5  14   0.7470   0.5518   0.4744   0.1685  -0.0662  -0.1306   0.00    0.0
2019/01/19 01:56:00.000   47.480791238   19.056506785   198.6178   5  14   0.7473   0.5527   0.4753   0.1696  -0.0672  -0.1317   0.00    0.0
2019/01/19 01:56:30.000   47.480792269   19.056506263   198.3468   5  14   0.7475   0.5536   0.4761   0.1706  -0.0682  -0.1328   0.00    0.0
2019/01/19 01:57:00.000   47.480794510   19.056505760   198.2836   5  14   0.7477   0.5544   0.4770   0.1716  -0.0693  -0.1339   0.00    0.0
2019/01/19 01:57:30.000   47.480796957   19.056504156   198.3844   5  14   0.7479   0.5553   0.4779   0.1726  -0.0703  -0.1350   0.00    0.0
2019/01/19 01:58:00.000   47.480799403   19.056502493   198.6653   5  14   0.7481   0.5562   0.4788   0.1736  -0.0713  -0.1361   0.00    0.0
2019/01/19 01:58:30.000   47.480802177   19.056499840   199.0561   5  14   0.7482   0.5570   0.4797   0.1746  -0.0723  -0.1371   0.00    0.0
2019/01/19 01:59:00.000   47.480804837   19.056498972   199.1693   5  14   0.7483   0.5579   0.4806   0.1755  -0.0733  -0.1382   0.00    0.0
2019/01/19 01:59:30.000   47.480805583   19.056498481   199.3420   5  14   0.7484   0.5587   0.4815   0.1765  -0.0743  -0.1393   0.00    0.0
2019/01/19 02:00:00.000   47.480806182   19.056497885   199.5336   5  14   0.7485   0.5596   0.4824   0.1774  -0.0753  -0.1403   0.00    0.0
2019/01/19 02:00:30.000   47.480804763   19.056496178   199.6901   5  14   0.7486   0.5604   0.4833   0.1783  -0.0763  -0.1413   0.00    0.0
2019/01/19 02:01:00.000   47.480803638   19.056493574   199.8284   5  14   0.7486   0.5613   0.4842   0.1792  -0.0773  -0.1424   0.00    0.0
2019/01/19 02:01:30.000   47.480801483   19.056490047   199.9875   5  14   0.7486   0.5621   0.4851   0.1801  -0.0783  -0.1434   0.00    0.0
2019/01/19 02:02:00.000   47.480861523   19.056465159   191.9119   5  14   0.7486   0.5629   0.4860   0.1809  -0.0793  -0.1444   0.00    0.0
2019/01/19 02:02:30.000   47.480856904   19.056461907   192.5690   5  14   0.7485   0.5637   0.4870   0.1817  -0.0803  -0.1454   0.00    0.0
2019/01/19 02:03:00.000   47.480851990   19.056456813   193.3468   5  14   0.7485   0.5646   0.4879   0.1825  -0.0813  -0.1464   0.00    0.0
2019/01/19 02:03:30.000   47.480846862   19.056451021   194.2466   5  14   0.7484   0.5654   0.4888   0.1833  -0.0823  -0.1474   0.00    0.0
2019/01/19 02:04:00.000   47.480841602   19.056445498   195.3899   5  14   0.7482   0.5662   0.4898   0.1841  -0.0833  -0.1483   0.00    0.0
2019/01/19 02:04:30.000   47.480833999   19.056442814   196.6926   5  14   0.7481   0.5670   0.4907   0.1848  -0.0843  -0.1493   0.00    0.0
2019/01/19 02:05:00.000   47.480827366   19.056440363   198.1640   5  14   0.7479   0.5678   0.4916   0.1856  -0.0853  -0.1502   0.00    0.0
2019/01/19 02:05:30.000   47.480956714   19.056539499   177.5914   5  13   0.8823   0.5730   0.4943   0.1530  -0.0833  -0.1707   0.00    0.0
2019/01/19 02:06:00.000   47.480957549   19.056540477   177.7917   5  13   0.8828   0.5737   0.4954   0.1540  -0.0842  -0.1724   0.00    0.0
2019/01/19 02:06:30.000   47.480958640   19.056539881   177.6862   5  13   0.8833   0.5743   0.4965   0.1549  -0.0851  -0.1741   0.00    0.0
2019/01/19 02:07:00.000   47.480959367   19.056537540   177.3863   5  13   0.8837   0.5750   0.4976   0.1559  -0.0860  -0.1758   0.00    0.0
2019/01/19 02:07:30.000   47.480959041   19.056537496   176.9802   5  13   0.8842   0.5756   0.4987   0.1568  -0.0869  -0.1775   0.00    0.0
2019/01/19 02:08:00.000   47.480957777   19.056540506   176.8565   5  13   0.8846   0.5763   0.4998   0.1577  -0.0878  -0.1792   0.00    0.0
2019/01/19 02:08:30.000   47.480955752   19.056543460   176.9503   5  13   0.8849   0.5769   0.5009   0.1586  -0.0887  -0.1809   0.00    0.0
2019/01/19 02:09:00.000   47.480954481   19.056543985   177.2159   5  13   0.8853   0.5776   0.5020   0.1595  -0.0896  -0.1826   0.00    0.0
2019/01/19 02:09:30.000   47.480953065   19.056542440   177.4000   5  13   0.8856   0.5782   0.5031   0.1603  -0.0905  -0.1842   0.00    0.0
2019/01/19 02:10:00.000   47.480952533   19.056537979   177.3410   5  13   0.8858   0.5788   0.5042   0.1611  -0.0914  -0.1858   0.00    0.0
2019/01/19 02:10:30.000   47.480951917   19.056534150   177.3208   5  13   0.8861   0.5795   0.5053   0.1619  -0.0923  -0.1875   0.00    0.0
2019/01/19 02:11:00.000   47.480951829   19.056534229   177.2308   5  13   0.8863   0.5801   0.5064   0.1627  -0.0932  -0.1891   0.00    0.0
2019/01/19 02:11:30.000   47.480951326   19.056535405   177.2244   5  13   0.8865   0.5807   0.5076   0.1634  -0.0941  -0.1907   0.00    0.0
2019/01/19 02:12:00.000   47.480951150   19.056536926   177.3706   5  13   0.8866   0.5813   0.5087   0.1641  -0.0949  -0.1923   0.00    0.0
2019/01/19 02:12:30.000   47.480950988   19.056537027   177.6072   5  13   0.8867   0.5818   0.5098   0.1648  -0.0958  -0.1938   0.00    0.0
2019/01/19 02:13:00.000   47.480951876   19.056535124   177.6394   5  13   0.8868   0.5824   0.5110   0.1655  -0.0967  -0.1954   0.00    0.0
2019/01/19 02:13:30.000   47.480953153   19.056533563   177.4273   5  13   0.8868   0.5830   0.5121   0.1661  -0.0975  -0.1969   0.00    0.0
2019/01/19 02:14:00.000   47.480953618   19.056532668   177.2542   5  13   0.8868   0.5835   0.5133   0.1667  -0.0984  -0.1984   0.00    0.0
2019/01/19 02:14:30.000   47.480953507   19.056532970   177.0766   5  13   0.8868   0.5841   0.5144   0.1673  -0.0992  -0.1999   0.00    0.0
2019/01/19 02:15:00.000   47.480952488   19.056533534   177.0655   5  13   0.8868   0.5846   0.5155   0.1678  -0.1000  -0.2014   0.00    0.0
2019/01/19 02:15:30.000   47.480952601   19.056534062   176.9383   5  13   0.8867   0.5852   0.5167   0.1683  -0.1009  -0.2029   0.00    0.0
2019/01/19 02:16:00.000   47.480953222   19.056532103   176.7702   5  13   0.8865   0.5857   0.5178   0.1688  -0.1017  -0.2043   0.00    0.0
2019/01/19 02:16:30.000   47.480954830   19.056531269   176.5074   5  13   0.8864   0.5862   0.5190   0.1692  -0.1025  -0.2057   0.00    0.0
2019/01/19 02:17:00.000   47.480954196   19.056531593   176.6002   5  13   0.8862   0.5867   0.5201   0.1696  -0.1033  -0.2071   0.00    0.0
2019/01/19 02:17:30.000   47.480953135   19.056531757   176.8162   5  13   0.8859   0.5872   0.5213   0.1700  -0.1041  -0.2085   0.00    0.0
2019/01/19 02:18:00.000   47.480952352   19.056531388   176.7523   5  13   0.8857   0.5876   0.5224   0.1704  -0.1049  -0.2099   0.00    0.0
2019/01/19 02:18:30.000   47.480951726   19.056531662   176.6494   5  13   0.8854   0.5881   0.5236   0.1707  -0.1056  -0.2112   0.00    0.0
2019/01/19 02:19:00.000   47.480952079   19.056531176   176.5192   5  13   0.8850   0.5886   0.5247   0.1710  -0.1064  -0.2125   0.00    0.0
2019/01/19 02:19:30.000   47.480952211   19.056532874   176.6060   5  13   0.8847   0.5890   0.5259   0.1712  -0.1071  -0.2138   0.00    0.0
2019/01/19 02:20:00.000   47.480953013   19.056533738   176.6785   5  13   0.8843   0.5894   0.5270   0.1715  -0.1079  -0.2151   0.00    0.0
2019/01/19 02:20:30.000   47.480955618   19.056533056   176.6117   5  13   0.8838   0.5898   0.5282   0.1716  -0.1086  -0.2164   0.00    0.0
2019/01/19 02:21:00.000   47.480957797   19.056531792   176.8601   5  13   0.8833   0.5902   0.5293   0.1718  -0.1093  -0.2176   0.00    0.0
2019/01/19 02:21:30.000   47.480960872   19.056532249   176.6448   5  13   0.8828   0.5906   0.5305   0.1719  -0.1100  -0.2188   0.00    0.0
2019/01/19 02:22:00.000   47.480962487   19.056533697   176.7309   5  13   0.8823   0.5910   0.5316   0.1720  -0.1107  -0.2200   0.00    0.0
2019/01/19 02:22:30.000   47.480961013   19.056534856   177.2958   5  13   0.8817   0.5914   0.5327   0.1720  -0.1114  -0.2211   0.00    0.0
2019/01/19 02:23:00.000   47.480958313   19.056536866   177.9720   5  13   0.8811   0.5917   0.5339   0.1721  -0.1121  -0.2223   0.00    0.0
2019/01/19 02:23:30.000   47.480938482   19.056438091   192.9641   5  13   0.8804   0.5921   0.5350   0.1721  -0.1127  -0.2233   0.00    0.0
2019/01/19 02:24:00.000   47.480938796   19.056433401   193.4005   5  13   0.8798   0.5924   0.5361   0.1720  -0.1134  -0.2244   0.00    0.0
2019/01/19 02:24:30.000   47.480941260   19.056428614   193.3778   5  13   0.8791   0.5927   0.5372   0.1719  -0.1140  -0.2255   0.00    0.0
2019/01/19 02:25:00.000   47.480942030   19.056423320   193.4797   5  13   0.8783   0.5930   0.5384   0.1718  -0.1146  -0.2265   0.00    0.0
2019/01/19 02:25:30.000   47.480943224   19.056418924   193.5530   5  13   0.8775   0.5933   0.5395   0.1716  -0.1152  -0.2275   0.00    0.0
2019/01/19 02:26:00.000   47.480942953   19.056413789   193.9444   5  13   0.8767   0.5935   0.5406   0.1715  -0.1158  -0.2285   0.00    0.0
2019/01/19 02:26:30.000   47.480939425   19.056409237   195.0132   5  13   0.8759   0.5938   0.5417   0.1712  -0.1164  -0.2294   0.00    0.0
2019/01/19 02:27:00.000   47.480936015   19.056404030   196.2273   5  13   0.8750   0.5940   0.5428   0.1710  -0.1169  -0.2303   0.00    0.0
2019/01/19 02:27:30.000   47.480932854   19.056399657   197.6368   5  13   0.8741   0.5943   0.5439   0.1707  -0.1174  -0.2312   0.00    0.0
2019/01/19 02:28:00.000   47.480931130   19.056395610   199.0342   5  13   0.8731   0.5945   0.5450   0.1703  -0.1180  -0.2321   0.00    0.0
2019/01/19 02:28:30.000   47.480931502   19.056389900   200.0930   5  13   0.8722   0.5947   0.5461   0.1700  -0.1185  -0.2329   0.00    0.0
2019/01/19 02:29:00.000   47.480933306   19.056382899   200.8101   5  13   0.8712   0.5948   0.5471   0.1696  -0.1190  -0.2338   0.00    0.0
2019/01/19 02:29:30.000   47.480934732   19.056374225   201.6729   5  13   0.8701   0.5950   0.5482   0.1691  -0.1194  -0.2345   0.00    0.0
2019/01/19 02:30:00.000   47.480933068   19.056366464   203.1016   5  13   0.8691   0.5952   0.5493   0.1687  -0.1199  -0.2353   0.00    0.0
2019/01/19 02:30:30.000   47.480929672   19.056359568   204.8776   5  13   0.8680   0.5953   0.5504   0.1682  -0.1203  -0.2360   0.00    0.0
2019/01/19 02:31:00.000   47.480927239   19.056352762   206.9213   5  13   0.8668   0.5954   0.5514   0.1676  -0.1208  -0.2367   0.00    0.0
2019/01/19 02:31:30.000   47.480925462   19.056345404   209.0521   5  13   0.8657   0.5955   0.5525   0.1671  -0.1212  -0.2374   0.00    0.0
2019/01/19 02:32:00.000   47.480924249   19.056335241   211.1636   5  13   0.8645   0.5956   0.5535   0.1665  -0.1215  -0.2381   0.00    0.0
2019/01/19 02:32:30.000   47.480959183   19.056537352   176.9531   5  12   1.0579   0.6281   0.5551   0.2877  -0.1172  -0.2243   0.00    0.0
2019/01/19 02:33:00.000   47.480959266   19.056536488   176.4683   5  12   1.0568   0.6286   0.5561   0.2878  -0.1178  -0.2259   0.00    0.0
2019/01/19 02:33:30.000   47.480958591   19.056536727   176.1990   5  12   1.0557   0.6290   0.5571   0.2878  -0.1184  -0.2273   0.00    0.0
2019/01/19 02:34:00.000   47.480956962   19.056537441   176.0397   5  12   1.0544   0.6295   0.5580   0.2877  -0.1190  -0.2288   0.00    0.0
2019/01/19 02:34:30.000   47.480955875   19.056537640   176.2084   5  12   1.0532   0.6299   0.5590   0.2876  -0.1196  -0.2302   0.00    0.0
2019/01/19 02:35:00.000   47.480955805   19.056536928   176.0714   5  12   1.0518   0.6302   0.5599   0.2874  -0.1201  -0.2315   0.00    0.0
2019/01/19 02:35:30.000   47.481030959   19.056547327   194.2395   5  12   1.0504   0.6306   0.5609   0.2871  -0.1207  -0.2329   0.00    0.0
2019/01/19 02:36:00.000   47.481035430   19.056547193   195.1373   5  12   1.0490   0.6309   0.5619   0.2868  -0.1212  -0.2342   0.00    0.0
2019/01/19 02:36:30.000   47.481039024   19.056547767   196.2872   5  12   1.0475   0.6312   0.5628   0.2864  -0.1217  -0.2354   0.00    0.0
2019/01/19 02:37:00.000   47.481042846   19.056548574   197.2895   5  12   1.0459   0.6315   0.5638   0.2860  -0.1221  -0.2366   0.00    0.0
2019/01/19 02:37:30.000   47.481044787   19.056549576   198.5959   5  12   1.0443   0.6317   0.5647   0.2855  -0.1226  -0.2378   0.00    0.0
2019/01/19 02:38:00.000   47.481045958   19.056550872   199.9252   5  12   1.0427   0.6320   0.5656   0.2849  -0.1230  -0.2389   0.00    0.0
2019/01/19 02:38:30.000   47.481047339   19.056553142   201.1116   5  12   1.0410   0.6322   0.5666   0.2843  -0.1234  -0.2400   0.00    0.0
2019/01/19 02:39:00.000   47.481049730   19.056554491   201.9109   5  12   1.0392   0.6324   0.5675   0.2836  -0.1238  -0.2410   0.00    0.0
2019/01/19 02:39:30.000   47.481056172   19.056556021   203.1937   5  12   1.0374   0.6325   0.5684   0.2828  -0.1242  -0.2421   0.00    0.0
2019/01/19 02:40:00.000   47.481064367   19.056556023   204.9597   5  12   1.0355   0.6327   0.5693   0.2820  -0.1245  -0.2430   0.00    0.0
2019/01/19 02:40:30.000   47.481072579   19.056556044   207.3306   5  12   1.0336   0.6328   0.5703   0.2811  -0.1248  -0.2440   0.00    0.0
2019/01/19 02:41:00.000   47.480993865   19.056446241   232.8475   5  13   0.8180   0.6321   0.5697   0.2600  -0.1238  -0.2193   0.00    0.0
2019/01/19 02:41:30.000   47.481004967   19.056454010   234.5908   5  13   0.8175   0.6323   0.5705   0.2599  -0.1241  -0.2198   0.00    0.0
2019/01/19 02:42:00.000   47.481014632   19.056460300   236.0313   5  13   0.8170   0.6324   0.5714   0.2598  -0.1244  -0.2203   0.00    0.0
2019/01/19 02:42:30.000   47.481026802   19.056467357   237.8836   5  13   0.8164   0.6325   0.5722   0.2596  -0.1247  -0.2208   0.00    0.0
2019/01/19 02:43:00.000   47.481042365   19.056474301   240.0467   5  13   0.8158   0.6326   0.5731   0.2594  -0.1249  -0.2212   0.00    0.0
2019/01/19 02:43:30.000   47.481129786   19.056568317   223.4853   5  12   1.0213   0.6331   0.5756   0.2747  -0.1263  -0.2488   0.00    0.0
2019/01/19 02:44:00.000   47.480894527   19.056433726   205.5609   5  12   0.9512   0.9552   0.6692   0.6105  -0.3707  -0.3904   0.00    0.0
2019/01/19 02:44:30.000   47.480953006   19.056533521   175.0478   5  11   1.1943   0.9741   0.6819   0.7361  -0.3953  -0.4774   0.00    0.0
2019/01/19 02:45:00.000   47.481062074   19.056597929   209.4336   5  12   1.0470   0.7201   0.5358   0.3604  -0.1180  -0.2365   0.00    0.0
2019/01/19 02:45:30.000   47.481055985   19.056594105   207.8147   5  12   1.0473   0.7228   0.5372   0.3639  -0.1199  -0.2394   0.00    0.0
2019/01/19 02:46:00.000   47.481051212   19.056591824   206.4415   5  12   1.0476   0.7256   0.5386   0.3674  -0.1219  -0.2422   0.00    0.0
2019/01/19 02:46:30.000   47.481048146   19.056590500   205.3124   5  12   1.0479   0.7283   0.5401   0.3708  -0.1238  -0.2451   0.00    0.0
2019/01/19 02:47:00.000   47.480979500   19.056498324   224.8923   5  13   0.8397   0.7288   0.5389   0.3377  -0.1227  -0.2144   0.00    0.0
2019/01/19 02:47:30.000   47.480977917   19.056499807   223.9258   5  13   0.8409   0.7315   0.5402   0.3410  -0.1245  -0.2163   0.00    0.0
2019/01/19 02:48:00.000   47.480974363   19.056500410   223.3365   5  13   0.8421   0.7342   0.5416   0.3443  -0.1264  -0.2183   0.00    0.0
2019/01/19 02:48:30.000   47.480972348   19.056501052   222.8560   5  13   0.8433   0.7370   0.5429   0.3477  -0.1283  -0.2202   0.00    0.0
2019/01/19 02:49:00.000   47.480973357   19.056503793   221.7475   5  13   0.8444   0.7397   0.5443   0.3510  -0.1302  -0.2221   0.00    0.0
2019/01/19 02:49:30.000   47.480969965   19.056544018   180.4778   5  12   1.0491   0.7447   0.5490   0.3908  -0.1357  -0.2620   0.00    0.0
2019/01/19 02:50:00.000   47.480972901   19.056543361   180.5320   5  12   1.0492   0.7474   0.5506   0.3940  -0.1377  -0.2647   0.00    0.0
2019/01/19 02:50:30.000   47.480904942   19.056455396   201.9612   5  13   0.8476   0.7478   0.5483   0.3608  -0.1359  -0.2279   0.00    0.0
2019/01/19 02:51:00.000   47.480906442   19.056455401   201.8790   5  13   0.8487   0.7505   0.5497   0.3640  -0.1379  -0.2298   0.00    0.0
2019/01/19 02:51:30.000   47.480907507   19.056455874   201.7656   5  13   0.8497   0.7532   0.5511   0.3672  -0.1398  -0.2318   0.00    0.0
2019/01/19 02:52:00.000   47.480907534   19.056456964   201.5454   5  13   0.8507   0.7559   0.5525   0.3703  -0.1417  -0.2337   0.00    0.0
2019/01/19 02:52:30.000   47.480906398   19.056458452   201.3228   5  13   0.8517   0.7585   0.5539   0.3735  -0.1437  -0.2356   0.00    0.0
2019/01/19 02:53:00.000   47.480904740   19.056460616   201.0015   5  13   0.8526   0.7611   0.5553   0.3766  -0.1456  -0.2375   0.00    0.0
2019/01/19 02:53:30.000   47.480904738   19.056459849   200.5686   5  13   0.8535   0.7638   0.5566   0.3796  -0.1475  -0.2394   0.00    0.0
2019/01/19 02:54:00.000   47.480904145   19.056459604   200.2352   5  13   0.8544   0.7664   0.5580   0.3827  -0.1495  -0.2413   0.00    0.0
2019/01/19 02:54:30.000   47.480903984   19.056459452   199.9167   5  13   0.8553   0.7690   0.5594   0.3857  -0.1514  -0.2432   0.00    0.0
2019/01/19 02:55:00.000   47.480903513   19.056460084   199.5524   5  13   0.8561   0.7715   0.5608   0.3886  -0.1533  -0.2451   0.00    0.0
2019/01/19 02:55:30.000   47.480903713   19.056461501   199.4436   5  13   0.8569   0.7741   0.5622   0.3915  -0.1553  -0.2469   0.00    0.0
2019/01/19 02:56:00.000   47.480902745   19.056462800   199.0710   5  13   0.8576   0.7766   0.5636   0.3944  -0.1572  -0.2488   0.00    0.0
2019/01/19 02:56:30.000   47.480901823   19.056463147   198.4987   5  13   0.8583   0.7791   0.5650   0.3972  -0.1591  -0.2506   0.00    0.0
2019/01/19 02:57:00.000   47.480900891   19.056462480   197.6530   5  13   0.8590   0.7816   0.5665   0.3999  -0.1610  -0.2524   0.00    0.0
2019/01/19 02:57:30.000   47.480899576   19.056463080   197.4050   5  13   0.8597   0.7840   0.5679   0.4026  -0.1629  -0.2542   0.00    0.0
2019/01/19 02:58:00.000   47.480899125   19.056464697   197.3562   5  13   0.8603   0.7864   0.5693   0.4053  -0.1648  -0.2560   0.00    0.0
2019/01/19 02:58:30.000   47.480898668   19.056466358   197.2659   5  13   0.8609   0.7888   0.5707   0.4079  -0.1667  -0.2577   0.00    0.0
2019/01/19 02:59:00.000   47.480899593   19.056466720   197.1557   5  13   0.8614   0.7912   0.5721   0.4104  -0.1686  -0.2595   0.00    0.0
2019/01/19 02:59:30.000   47.480900491   19.056468390   197.0973   5  13   0.8619   0.7935   0.5734   0.4129  -0.1704  -0.2612   0.00    0.0
2019/01/19 03:00:00.000   47.480900767   19.056470692   196.8897   5  13   0.8623   0.7958   0.5748   0.4153  -0.1723  -0.2629   0.00    0.0
2019/01/19 03:00:30.000   47.480901075   19.056472913   196.7495   5  13   0.8628   0.7981   0.5762   0.4177  -0.1741  -0.2646   0.00    0.0
2019/01/19 03:01:00.000   47.480902014   19.056475438   196.7828   5  13   0.8631   0.8003   0.5776   0.4200  -0.1759  -0.2662   0.00    0.0
2019/01/19 03:01:30.000   47.480903078   19.056476210   197.0407   5  13   0.8634   0.8025   0.5790   0.4222  -0.1777  -0.2678   0.00    0.0
2019/01/19 03:02:00.000   47.480904453   19.056475954   197.3681   5  13   0.8637   0.8047   0.5804   0.4243  -0.1795  -0.2694   0.00    0.0
2019/01/19 03:02:30.000   47.480905401   19.056476288   197.6813   5  13   0.8640   0.8068   0.5817   0.4264  -0.1813  -0.2710   0.00    0.0
2019/01/19 03:03:00.000   47.480905776   19.056476907   197.9280   5  13   0.8642   0.8089   0.5831   0.4284  -0.1830  -0.2725   0.00    0.0
2019/01/19 03:03:30.000   47.480905612   19.056477901   198.0547   5  13   0.8643   0.8109   0.5844   0.4303  -0.1847  -0.2740   0.00    0.0
2019/01/19 03:04:00.000   47.480905982   19.056477056   198.0286   5  13   0.8644   0.8129   0.5858   0.4322  -0.1864  -0.2755   0.00    0.0
2019/01/19 03:04:30.000   47.480905697   19.056476876   197.8119   5  13   0.8644   0.8148   0.5871   0.4339  -0.1881  -0.2769   0.00    0.0
2019/01/19 03:05:00.000   47.480905017   19.056477142   197.6438   5  13   0.8644   0.8167   0.5884   0.4356  -0.1897  -0.2784   0.00    0.0
2019/01/19 03:05:30.000   47.480904161   19.056476603   197.5498   5  13   0.8644   0.8186   0.5898   0.4372  -0.1913  -0.2797   0.00    0.0
2019/01/19 03:06:00.000   47.480904885   19.056476290   197.8962   5  13   0.8643   0.8204   0.5911   0.4387  -0.1929  -0.2811   0.00    0.0
2019/01/19 03:06:30.000   47.480906765   19.056476073   198.2886   5  13   0.8641   0.8222   0.5924   0.4401  -0.1944  -0.2824   0.00    0.0
2019/01/19 03:07:00.000   47.480908443   19.056476805   198.4882   5  13   0.8639   0.8239   0.5936   0.4415  -0.1959  -0.2836   0.00    0.0
2019/01/19 03:07:30.000   47.480908680   19.056480104   198.4087   5  13   0.8637   0.8255   0.5949   0.4427  -0.1974  -0.2848   0.00    0.0
2019/01/19 03:08:00.000   47.480907595   19.056482123   198.3830   5  13   0.8634   0.8271   0.5962   0.4439  -0.1988  -0.2860   0.00    0.0
2019/01/19 03:08:30.000   47.480898642   19.056432157   205.3043   5  12   0.9614   0.8390   0.5997   0.5006  -0.1934  -0.2651   0.00    0.0
2019/01/19 03:09:00.000   47.480898907   19.056432483   205.3119   5  12   0.9623   0.8411   0.6008   0.5034  -0.1948  -0.2667   0.00    0.0
2019/01/19 03:09:30.000   47.480900166   19.056430016   205.3374   5  12   0.9632   0.8430   0.6018   0.5061  -0.1961  -0.2683   0.00    0.0
2019/01/19 03:10:00.000   47.480900028   19.056429098   205.3778   5  12   0.9641   0.8450   0.6029   0.5087  -0.1975  -0.2698   0.00    0.0
2019/01/19 03:10:30.000   47.480900033   19.056430357   205.2798   5  12   0.9649   0.8468   0.6040   0.5113  -0.1988  -0.2713   0.00    0.0
2019/01/19 03:11:00.000   47.480900749   19.056431585   205.2505   5  12   0.9656   0.8487   0.6050   0.5137  -0.2001  -0.2728   0.00    0.0
2019/01/19 03:11:30.000   47.480901710   19.056432173   205.4725   5  12   0.9663   0.8504   0.6061   0.5160  -0.2013  -0.2742   0.00    0.0
2019/01/19 03:12:00.000   47.480901880   19.056432927   205.3971   5  12   0.9669   0.8522   0.6071   0.5183  -0.2025  -0.2756   0.00    0.0
2019/01/19 03:12:30.000   47.480901538   19.056433952   205.2865   5  12   0.9674   0.8538   0.6082   0.5204  -0.2037  -0.2769   0.00    0.0
2019/01/19 03:13:00.000   47.480900501   19.056435173   205.2967   5  12   0.9679   0.8554   0.6092   0.5224  -0.2048  -0.2782   0.00    0.0
2019/01/19 03:13:30.000   47.480900036   19.056437754   205.3364   5  12   0.9683   0.8570   0.6102   0.5243  -0.2059  -0.2795   0.00    0.0
2019/01/19 03:14:00.000   47.480899763   19.056439241   205.6446   5  12   0.9687   0.8585   0.6111   0.5261  -0.2070  -0.2807   0.00    0.0
2019/01/19 03:14:30.000   47.480899523   19.056439868   205.7013   5  12   0.9690   0.8599   0.6121   0.5278  -0.2080  -0.2818   0.00    0.0
2019/01/19 03:15:00.000   47.480898850   19.056440832   205.6572   5  12   0.9692   0.8613   0.6131   0.5294  -0.2090  -0.2829   0.00    0.0
2019/01/19 03:15:30.000   47.480897824   19.056441165   205.5417   5  12   0.9694   0.8626   0.6140   0.5308  -0.2099  -0.2840   0.00    0.0
2019/01/19 03:16:00.000   47.480897279   19.056441825   205.4893   5  12   0.9695   0.8639   0.6149   0.5321  -0.2108  -0.2850   0.00    0.0
2019/01/19 03:16:30.000   47.480897282   19.056442643   205.1373   5  12   0.9695   0.8651   0.6158   0.5333  -0.2116  -0.2859   0.00    0.0
2019/01/19 03:17:00.000   47.480898185   19.056441451   204.8578   5  12   0.9694   0.8662   0.6167   0.5344  -0.2124  -0.2868   0.00    0.0
2019/01/19 03:17:30.000   47.480898853   19.056441328   204.7045   5  12   0.9693   0.8673   0.6176   0.5354  -0.2131  -0.2877   0.00    0.0
2019/01/19 03:18:00.000   47.480898538   19.056443694   204.5971   5  12   0.9691   0.8683   0.6185   0.5362  -0.2138  -0.2885   0.00    0.0
2019/01/19 03:18:30.000   47.480897959   19.056446007   204.7441   5  12   0.9689   0.8692   0.6193   0.5369  -0.2145  -0.2892   0.00    0.0
2019/01/19 03:19:00.000   47.480897471   19.056447425   205.0237   5  12   0.9685   0.8701   0.6201   0.5375  -0.2151  -0.2899   0.00    0.0
2019/01/19 03:19:30.000   47.480898806   19.056447919   205.3552   5  12   0.9681   0.8709   0.6209   0.5380  -0.2156  -0.2906   0.00    0.0
2019/01/19 03:20:00.000   47.480899036   19.056447584   205.7647   5  12   0.9677   0.8717   0.6217   0.5383  -0.2161  -0.2911   0.00    0.0
2019/01/19 03:20:30.000   47.480898574   19.056447819   206.1919   5  12   0.9671   0.8723   0.6225   0.5385  -0.2166  -0.2917   0.00    0.0
2019/01/19 03:21:00.000   47.480897656   19.056448523   206.2076   5  12   0.9665   0.8730   0.6232   0.5385  -0.2169  -0.2921   0.00    0.0
2019/01/19 03:21:30.000   47.480896302   19.056449488   206.2065   5  12   0.9659   0.8735   0.6240   0.5385  -0.2173  -0.2925   0.00    0.0
2019/01/19 03:22:00.000   47.480893802   19.056448483   206.7848   5  12   0.9651   0.8740   0.6247   0.5383  -0.2176  -0.2929   0.00    0.0
2019/01/19 03:22:30.000   47.480894448   19.056450985   206.6049   5  12   0.9643   0.8744   0.6254   0.5380  -0.2178  -0.2932   0.00    0.0
2019/01/19 03:23:00.000   47.480893654   19.056451712   206.5744   5  12   0.9634   0.8747   0.6261   0.5375  -0.2180  -0.2934   0.00    0.0
2019/01/19 03:23:30.000   47.480892689   19.056450903   206.2599   5  12   0.9625   0.8750   0.6267   0.5370  -0.2181  -0.2936   0.00    0.0
2019/01/19 03:24:00.000   47.480892240   19.056450430   206.3463   5  12   0.9614   0.8752   0.6273   0.5363  -0.2182  -0.2937   0.00    0.0
2019/01/19 03:24:30.000   47.480892103   19.056449998   206.7567   5  12   0.9604   0.8753   0.6280   0.5354  -0.2182  -0.2938   0.00    0.0
2019/01/19 03:25:00.000   47.480891617   19.056450036   207.2473   5  12   0.9592   0.8754   0.6286   0.5345  -0.2181  -0.2938   0.00    0.0
2019/01/19 03:25:30.000   47.480890852   19.056450991   207.6966   5  12   0.9580   0.8753   0.6291   0.5334  -0.2180  -0.2937   0.00    0.0
2019/01/19 03:26:00.000   47.480891167   19.056451784   208.0142   5  12   0.9567   0.8753   0.6297   0.5322  -0.2179  -0.2936   0.00    0.0
2019/01/19 03:26:30.000   47.480891648   19.056451600   207.9690   5  12   0.9553   0.8751   0.6302   0.5309  -0.2177  -0.2934   0.00    0.0
2019/01/19 03:27:00.000   47.480890251   19.056452649   208.1901   5  12   0.9539   0.8749   0.6307   0.5295  -0.2174  -0.2932   0.00    0.0
2019/01/19 03:27:30.000   47.480889124   19.056453515   208.4229   5  12   0.9525   0.8747   0.6312   0.5279  -0.2171  -0.2929   0.00    0.0
2019/01/19 03:28:00.000   47.480887621   19.056456086   208.9007   5  12   0.9509   0.8743   0.6317   0.5262  -0.2167  -0.2926   0.00    0.0
2019/01/19 03:28:30.000   47.480886322   19.056459023   209.3543   5  12   0.9493   0.8739   0.6321   0.5245  -0.2163  -0.2922   0.00    0.0
2019/01/19 03:29:00.000   47.480885836   19.056459726   209.6568   5  12   0.9477   0.8735   0.6326   0.5226  -0.2158  -0.2918   0.00    0.0
2019/01/19 03:29:30.000   47.480885469   19.056458067   209.8721   5  12   0.9459   0.8729   0.6330   0.5206  -0.2153  -0.2913   0.00    0.0
