% program   : GINA 1.0 gpstk's raw solution
% inp file  : C:\Users\lus2bp\Source\Repos\GINA\70_EGNOS_Project\files\PositionComparisonInputFiles\bute0190\bute0190.19o
% inp file  : C:\Users\lus2bp\Source\Repos\GINA\70_EGNOS_Project\files\PositionComparisonInputFiles\bute0190\brdc0190.19n
% obs start : 2019/01/19 00:00:00.0 GPST (week2036 518400.0s)
% obs end   : 2019/01/19 23:59:30.0 GPST (week2036 604770.0s)
% pos mode  : single
% elev mask : 10.0 deg
% ionos opt : Zero
% tropo opt : Zero
% ephemeris : broadcasted
% (lat/lon/height=WGS84/ellipsoidal,Q=1:fix,2:float,3:sbas,4:dgps,5:single,6:ppp,ns=# of satellites)
%  GPST                  latitude(deg) longitude(deg)  height(m)   Q  ns   sdn(m)   sde(m)   sdu(m)  sdne(m)  sdeu(m)  sdun(m) age(s)  ratio
2019/01/19 00:00:00.000   47.480981100   19.056551240   202.6750   5  10   0.7051   0.5178   0.2736   0.2684   0.2684   0.4972   0.00    0.0
2019/01/19 00:00:30.000   47.480964355   19.056564121   194.9565   5   8   0.9667   0.9196   0.4589   0.8463   0.8463   0.9345   0.00    0.0
2019/01/19 00:01:00.000   47.480966166   19.056564860   195.1375   5   8   0.9694   0.9276   0.4627   0.8611   0.8611   0.9398   0.00    0.0
2019/01/19 00:01:30.000   47.480966424   19.056566738   195.0772   5   8   0.9722   0.9355   0.4664   0.8758   0.8758   0.9451   0.00    0.0
2019/01/19 00:02:00.000   47.480966993   19.056565742   195.1269   5   8   0.9749   0.9434   0.4701   0.8906   0.8906   0.9505   0.00    0.0
2019/01/19 00:02:30.000   47.480967948   19.056564583   195.7797   5   8   0.9777   0.9512   0.4739   0.9054   0.9054   0.9560   0.00    0.0
2019/01/19 00:03:00.000   47.480968145   19.056563237   195.8492   5   8   0.9806   0.9589   0.4776   0.9202   0.9202   0.9615   0.00    0.0
2019/01/19 00:03:30.000   47.480968812   19.056558883   195.5055   5   8   0.9835   0.9666   0.4812   0.9349   0.9349   0.9672   0.00    0.0
2019/01/19 00:04:00.000   47.480968703   19.056556050   195.2982   5   8   0.9863   0.9742   0.4849   0.9496   0.9496   0.9729   0.00    0.0
2019/01/19 00:04:30.000   47.480968146   19.056556730   195.2071   5   8   0.9893   0.9816   0.4886   0.9642   0.9642   0.9787   0.00    0.0
2019/01/19 00:05:00.000   47.480966577   19.056555843   195.1342   5   8   0.9922   0.9890   0.4922   0.9788   0.9788   0.9845   0.00    0.0
2019/01/19 00:05:30.000   47.480964532   19.056558173   195.2964   5   8   0.9952   0.9963   0.4959   0.9933   0.9933   0.9904   0.00    0.0
2019/01/19 00:06:00.000   47.480963520   19.056560522   195.5928   5   8   0.9981   1.0035   0.4995   1.0076   1.0076   0.9963   0.00    0.0
2019/01/19 00:06:30.000   47.480963147   19.056561080   195.6169   5   8   1.0011   1.0105   0.5030   1.0219   1.0219   1.0022   0.00    0.0
2019/01/19 00:07:00.000   47.480963844   19.056561393   195.3605   5   8   1.0041   1.0175   0.5066   1.0360   1.0360   1.0082   0.00    0.0
2019/01/19 00:07:30.000   47.480965181   19.056558860   195.2962   5   8   1.0071   1.0243   0.5101   1.0499   1.0499   1.0142   0.00    0.0
2019/01/19 00:08:00.000   47.480965804   19.056556477   195.2509   5   8   1.0100   1.0310   0.5136   1.0637   1.0637   1.0202   0.00    0.0
2019/01/19 00:08:30.000   47.480965305   19.056556953   195.2929   5   8   1.0130   1.0376   0.5171   1.0773   1.0773   1.0262   0.00    0.0
2019/01/19 00:09:00.000   47.480964787   19.056556865   195.3121   5   8   1.0160   1.0440   0.5205   1.0906   1.0906   1.0322   0.00    0.0
2019/01/19 00:09:30.000   47.480964403   19.056557373   195.5676   5   8   1.0189   1.0502   0.5240   1.1038   1.1038   1.0382   0.00    0.0
2019/01/19 00:10:00.000   47.480964061   19.056558678   195.8496   5   8   1.0218   1.0563   0.5273   1.1166   1.1166   1.0442   0.00    0.0
2019/01/19 00:10:30.000   47.480965160   19.056558172   195.9939   5   8   1.0247   1.0623   0.5307   1.1292   1.1292   1.0501   0.00    0.0
2019/01/19 00:11:00.000   47.480966209   19.056556392   195.6098   5   8   1.0276   1.0681   0.5340   1.1415   1.1415   1.0560   0.00    0.0
2019/01/19 00:11:30.000   47.480966387   19.056556769   195.1017   5   8   1.0305   1.0737   0.5373   1.1536   1.1536   1.0619   0.00    0.0
2019/01/19 00:12:00.000   47.480966476   19.056558590   194.9579   5   8   1.0333   1.0791   0.5405   1.1652   1.1652   1.0677   0.00    0.0
2019/01/19 00:12:30.000   47.480966366   19.056559187   194.7147   5   8   1.0361   1.0843   0.5437   1.1766   1.1766   1.0734   0.00    0.0
2019/01/19 00:13:00.000   47.480966512   19.056560730   194.4890   5   8   1.0388   1.0894   0.5468   1.1876   1.1876   1.0791   0.00    0.0
2019/01/19 00:13:30.000   47.480965770   19.056564649   194.6502   5   8   1.0415   1.0942   0.5499   1.1982   1.1982   1.0847   0.00    0.0
2019/01/19 00:14:00.000   47.480965984   19.056565964   194.7519   5   8   1.0442   1.0989   0.5530   1.2084   1.2084   1.0903   0.00    0.0
2019/01/19 00:14:30.000   47.480966965   19.056566241   194.7584   5   8   1.0467   1.1033   0.5560   1.2182   1.2182   1.0957   0.00    0.0
2019/01/19 00:15:00.000   47.480967357   19.056565761   194.6110   5   8   1.0493   1.1076   0.5590   1.2276   1.2276   1.1010   0.00    0.0
2019/01/19 00:15:30.000   47.480966808   19.056563657   194.2988   5   8   1.0517   1.1117   0.5619   1.2366   1.2366   1.1061   0.00    0.0
2019/01/19 00:16:00.000   47.480967043   19.056561851   194.1015   5   8   1.0541   1.1155   0.5648   1.2452   1.2452   1.1112   0.00    0.0
2019/01/19 00:16:30.000   47.480967291   19.056560175   193.3373   5   8   1.0565   1.1192   0.5676   1.2532   1.2532   1.1161   0.00    0.0
2019/01/19 00:17:00.000   47.480965721   19.056561861   192.8222   5   8   1.0587   1.1225   0.5704   1.2609   1.2609   1.1209   0.00    0.0
2019/01/19 00:17:30.000   47.480964580   19.056561481   192.7168   5   8   1.0609   1.1257   0.5731   1.2680   1.2680   1.1256   0.00    0.0
2019/01/19 00:18:00.000   47.480964067   19.056561553   192.6976   5   8   1.0631   1.1287   0.5758   1.2746   1.2746   1.1301   0.00    0.0
2019/01/19 00:18:30.000   47.480963428   19.056562719   192.7323   5   8   1.0651   1.1314   0.5784   1.2808   1.2808   1.1345   0.00    0.0
2019/01/19 00:19:00.000   47.480961924   19.056562762   192.8241   5   8   1.0671   1.1339   0.5810   1.2865   1.2865   1.1387   0.00    0.0
2019/01/19 00:19:30.000   47.480961265   19.056560807   192.7640   5   8   1.0690   1.1362   0.5836   1.2916   1.2916   1.1428   0.00    0.0
2019/01/19 00:20:00.000   47.480961092   19.056559911   192.6385   5   8   1.0708   1.1382   0.5860   1.2963   1.2963   1.1467   0.00    0.0
2019/01/19 00:20:30.000   47.480961342   19.056559197   192.4657   5   8   1.0726   1.1400   0.5885   1.3004   1.3004   1.1504   0.00    0.0
2019/01/19 00:21:00.000   47.480960875   19.056559392   192.4391   5   8   1.0742   1.1416   0.5909   1.3041   1.3041   1.1540   0.00    0.0
2019/01/19 00:21:30.000   47.480959235   19.056561495   192.7981   5   8   1.0758   1.1430   0.5932   1.3072   1.3072   1.1573   0.00    0.0
2019/01/19 00:22:00.000   47.480958192   19.056562696   193.0769   5   8   1.0773   1.1441   0.5955   1.3098   1.3098   1.1605   0.00    0.0
2019/01/19 00:22:30.000   47.480957742   19.056564395   193.0903   5   8   1.0787   1.1451   0.5977   1.3119   1.3119   1.1635   0.00    0.0
2019/01/19 00:23:00.000   47.480958662   19.056562625   192.8154   5   8   1.0800   1.1458   0.5999   1.3136   1.3136   1.1663   0.00    0.0
2019/01/19 00:23:30.000   47.480959269   19.056560413   192.4479   5   8   1.0812   1.1463   0.6021   1.3147   1.3147   1.1689   0.00    0.0
2019/01/19 00:24:00.000   47.480959433   19.056559735   192.3270   5   8   1.0823   1.1465   0.6042   1.3153   1.3153   1.1714   0.00    0.0
2019/01/19 00:24:30.000   47.480958829   19.056560111   192.2060   5   8   1.0833   1.1466   0.6062   1.3154   1.3154   1.1736   0.00    0.0
2019/01/19 00:25:00.000   47.480957687   19.056563132   192.3249   5   8   1.0843   1.1464   0.6082   1.3150   1.3150   1.1757   0.00    0.0
2019/01/19 00:25:30.000   47.480957120   19.056565978   192.5229   5   8   1.0852   1.1460   0.6102   1.3142   1.3142   1.1776   0.00    0.0
2019/01/19 00:26:00.000   47.480956313   19.056566322   192.4468   5   8   1.0859   1.1455   0.6121   1.3129   1.3129   1.1793   0.00    0.0
2019/01/19 00:26:30.000   47.480956075   19.056563585   192.0511   5   8   1.0866   1.1447   0.6140   1.3111   1.3111   1.1807   0.00    0.0
2019/01/19 00:27:00.000   47.480955623   19.056560645   191.8523   5   8   1.0872   1.1438   0.6158   1.3089   1.3089   1.1820   0.00    0.0
2019/01/19 00:27:30.000   47.480955491   19.056559845   191.9139   5   8   1.0877   1.1426   0.6176   1.3063   1.3063   1.1832   0.00    0.0
2019/01/19 00:28:00.000   47.480956515   19.056557960   191.8327   5   8   1.0882   1.1413   0.6194   1.3032   1.3032   1.1841   0.00    0.0
2019/01/19 00:28:30.000   47.480957032   19.056557117   191.6730   5   8   1.0885   1.1397   0.6211   1.2997   1.2997   1.1849   0.00    0.0
2019/01/19 00:29:00.000   47.480957917   19.056555625   191.3014   5   8   1.0888   1.1380   0.6228   1.2959   1.2959   1.1855   0.00    0.0
2019/01/19 00:29:30.000   47.480959159   19.056556341   191.1320   5   8   1.0890   1.1362   0.6245   1.2916   1.2916   1.1859   0.00    0.0
2019/01/19 00:30:00.000   47.480959995   19.056557376   190.9630   5   8   1.0891   1.1341   0.6261   1.2870   1.2870   1.1862   0.00    0.0
2019/01/19 00:30:30.000   47.480958968   19.056559561   190.9040   5   8   1.0892   1.1319   0.6277   1.2820   1.2820   1.1863   0.00    0.0
2019/01/19 00:31:00.000   47.480956960   19.056562107   191.0687   5   8   1.0892   1.1296   0.6293   1.2767   1.2767   1.1863   0.00    0.0
2019/01/19 00:31:30.000   47.480957674   19.056557989   190.8885   5   8   1.0891   1.1271   0.6308   1.2710   1.2710   1.1860   0.00    0.0
2019/01/19 00:32:00.000   47.480955871   19.056557841   190.7533   5   8   1.0889   1.1244   0.6324   1.2650   1.2650   1.1857   0.00    0.0
2019/01/19 00:32:30.000   47.480952844   19.056559822   190.5039   5   8   1.0887   1.1217   0.6339   1.2588   1.2588   1.1852   0.00    0.0
2019/01/19 00:33:00.000   47.480950481   19.056561762   190.3958   5   8   1.0884   1.1187   0.6353   1.2522   1.2522   1.1845   0.00    0.0
2019/01/19 00:33:30.000   47.480949681   19.056563565   190.5408   5   8   1.0880   1.1157   0.6368   1.2454   1.2454   1.1837   0.00    0.0
2019/01/19 00:34:00.000   47.480949897   19.056564508   190.6623   5   8   1.0876   1.1125   0.6382   1.2383   1.2383   1.1828   0.00    0.0
2019/01/19 00:34:30.000   47.480951353   19.056562198   190.4750   5   8   1.0871   1.1092   0.6396   1.2310   1.2310   1.1818   0.00    0.0
2019/01/19 00:35:00.000   47.480951691   19.056561467   190.6437   5   8   1.0866   1.1058   0.6410   1.2234   1.2234   1.1807   0.00    0.0
2019/01/19 00:35:30.000   47.480951344   19.056560535   190.5690   5   8   1.0860   1.1023   0.6424   1.2157   1.2157   1.1794   0.00    0.0
2019/01/19 00:36:00.000   47.480950871   19.056559045   190.2868   5   8   1.0854   1.0987   0.6438   1.2077   1.2077   1.1780   0.00    0.0
2019/01/19 00:36:30.000   47.480950647   19.056557406   190.0543   5   8   1.0847   1.0950   0.6452   1.1996   1.1996   1.1765   0.00    0.0
2019/01/19 00:37:00.000   47.480950237   19.056556492   189.9799   5   8   1.0839   1.0912   0.6465   1.1913   1.1913   1.1749   0.00    0.0
2019/01/19 00:37:30.000   47.480950005   19.056555985   189.9985   5   8   1.0832   1.0873   0.6478   1.1828   1.1828   1.1733   0.00    0.0
2019/01/19 00:38:00.000   47.480949775   19.056558651   190.1677   5   8   1.0824   1.0833   0.6492   1.1741   1.1741   1.1715   0.00    0.0
2019/01/19 00:38:30.000   47.480950947   19.056560232   190.2847   5   8   1.0815   1.0792   0.6505   1.1654   1.1654   1.1697   0.00    0.0
2019/01/19 00:39:00.000   47.480951081   19.056560304   190.3296   5   8   1.0806   1.0751   0.6518   1.1565   1.1565   1.1677   0.00    0.0
2019/01/19 00:39:30.000   47.480950120   19.056559489   190.2259   5   8   1.0797   1.0709   0.6531   1.1475   1.1475   1.1657   0.00    0.0
2019/01/19 00:40:00.000   47.480950748   19.056556908   189.9951   5   8   1.0787   1.0667   0.6544   1.1384   1.1384   1.1636   0.00    0.0
2019/01/19 00:40:30.000   47.480950734   19.056557457   190.0615   5   8   1.0777   1.0624   0.6557   1.1292   1.1292   1.1615   0.00    0.0
2019/01/19 00:41:00.000   47.480950462   19.056561044   190.1158   5   8   1.0767   1.0580   0.6570   1.1200   1.1200   1.1593   0.00    0.0
2019/01/19 00:41:30.000   47.480950936   19.056561382   189.6693   5   8   1.0756   1.0536   0.6583   1.1107   1.1107   1.1570   0.00    0.0
2019/01/19 00:42:00.000   47.480948923   19.056562744   189.5223   5   8   1.0746   1.0491   0.6596   1.1013   1.1013   1.1547   0.00    0.0
2019/01/19 00:42:30.000   47.480947343   19.056563131   189.6105   5   8   1.0735   1.0446   0.6609   1.0918   1.0918   1.1524   0.00    0.0
2019/01/19 00:43:00.000   47.480947987   19.056561780   189.7690   5   8   1.0724   1.0401   0.6622   1.0824   1.0824   1.1500   0.00    0.0
2019/01/19 00:43:30.000   47.480951781   19.056561821   190.2294   5   8   1.0712   1.0355   0.6635   1.0729   1.0729   1.1475   0.00    0.0
2019/01/19 00:44:00.000   47.480954665   19.056559645   190.1870   5   8   1.0700   1.0309   0.6648   1.0633   1.0633   1.1450   0.00    0.0
2019/01/19 00:44:30.000   47.480956009   19.056556842   189.8530   5   8   1.0689   1.0263   0.6661   1.0538   1.0538   1.1425   0.00    0.0
2019/01/19 00:45:00.000   47.480954878   19.056558327   189.7175   5   8   1.0677   1.0216   0.6674   1.0442   1.0442   1.1399   0.00    0.0
2019/01/19 00:45:30.000   47.480954067   19.056560232   189.7368   5   8   1.0665   1.0169   0.6687   1.0347   1.0347   1.1373   0.00    0.0
2019/01/19 00:46:00.000   47.480954369   19.056560771   189.9364   5   8   1.0652   1.0122   0.6700   1.0251   1.0251   1.1347   0.00    0.0
2019/01/19 00:46:30.000   47.480954081   19.056561450   190.0293   5   8   1.0640   1.0075   0.6713   1.0156   1.0156   1.1321   0.00    0.0
2019/01/19 00:47:00.000   47.480955003   19.056568646   191.7179   5   9   0.9396   0.7895   0.4058   0.6236   0.6236   0.8828   0.00    0.0
2019/01/19 00:47:30.000   47.480954214   19.056568022   191.6731   5   9   0.9398   0.7888   0.4087   0.6226   0.6226   0.8832   0.00    0.0
2019/01/19 00:48:00.000   47.480953997   19.056566913   191.5209   5   9   0.9400   0.7881   0.4116   0.6214   0.6214   0.8835   0.00    0.0
2019/01/19 00:48:30.000   47.480955004   19.056564629   191.4421   5   9   0.9401   0.7873   0.4145   0.6202   0.6202   0.8838   0.00    0.0
2019/01/19 00:49:00.000   47.480955577   19.056564627   191.2714   5   9   0.9403   0.7864   0.4174   0.6188   0.6188   0.8841   0.00    0.0
2019/01/19 00:49:30.000   47.480955724   19.056566027   191.2836   5   9   0.9404   0.7855   0.4202   0.6174   0.6174   0.8844   0.00    0.0
2019/01/19 00:50:00.000   47.480954323   19.056566680   191.1688   5   9   0.9405   0.7845   0.4231   0.6158   0.6158   0.8846   0.00    0.0
2019/01/19 00:50:30.000   47.480953398   19.056567808   191.2390   5   9   0.9406   0.7835   0.4260   0.6142   0.6142   0.8847   0.00    0.0
2019/01/19 00:51:00.000   47.480953426   19.056567774   191.1363   5   9   0.9407   0.7824   0.4289   0.6126   0.6126   0.8848   0.00    0.0
2019/01/19 00:51:30.000   47.480952949   19.056568361   191.1592   5   9   0.9407   0.7813   0.4317   0.6108   0.6108   0.8849   0.00    0.0
2019/01/19 00:52:00.000   47.480951007   19.056569190   190.9523   5   9   0.9407   0.7801   0.4346   0.6089   0.6089   0.8850   0.00    0.0
2019/01/19 00:52:30.000   47.480949807   19.056568305   190.7435   5   9   0.9408   0.7789   0.4374   0.6070   0.6070   0.8850   0.00    0.0
2019/01/19 00:53:00.000   47.480949035   19.056567066   190.5237   5   9   0.9407   0.7776   0.4403   0.6050   0.6050   0.8850   0.00    0.0
2019/01/19 00:53:30.000   47.480949979   19.056565999   190.2311   5   9   0.9407   0.7763   0.4431   0.6030   0.6030   0.8849   0.00    0.0
2019/01/19 00:54:00.000   47.480951115   19.056566274   190.0052   5   9   0.9406   0.7749   0.4459   0.6008   0.6008   0.8848   0.00    0.0
2019/01/19 00:54:30.000   47.480951571   19.056567198   189.8847   5   9   0.9406   0.7735   0.4486   0.5986   0.5986   0.8847   0.00    0.0
2019/01/19 00:55:00.000   47.480950640   19.056566800   189.8327   5   9   0.9405   0.7720   0.4514   0.5964   0.5964   0.8845   0.00    0.0
2019/01/19 00:55:30.000   47.480949811   19.056564974   189.5936   5   9   0.9404   0.7705   0.4542   0.5941   0.5941   0.8843   0.00    0.0
2019/01/19 00:56:00.000   47.480949339   19.056564557   189.5984   5   9   0.9402   0.7690   0.4569   0.5917   0.5917   0.8840   0.00    0.0
2019/01/19 00:56:30.000   47.480947962   19.056563411   189.7519   5   9   0.9401   0.7674   0.4596   0.5893   0.5893   0.8837   0.00    0.0
2019/01/19 00:57:00.000   47.480947672   19.056562288   189.5917   5   9   0.9399   0.7658   0.4623   0.5868   0.5868   0.8834   0.00    0.0
2019/01/19 00:57:30.000   47.480948434   19.056562037   189.2135   5   9   0.9397   0.7642   0.4650   0.5843   0.5843   0.8831   0.00    0.0
2019/01/19 00:58:00.000   47.480948916   19.056561074   188.8583   5   9   0.9395   0.7625   0.4677   0.5817   0.5817   0.8827   0.00    0.0
2019/01/19 00:58:30.000   47.480948516   19.056559761   188.3646   5   9   0.9393   0.7608   0.4704   0.5791   0.5791   0.8823   0.00    0.0
2019/01/19 00:59:00.000   47.480948138   19.056558150   188.0854   5   9   0.9391   0.7590   0.4730   0.5765   0.5765   0.8818   0.00    0.0
2019/01/19 00:59:30.000   47.480949938   19.056557960   187.7440   5   9   0.9388   0.7573   0.4756   0.5738   0.5738   0.8814   0.00    0.0
2019/01/19 01:00:00.000   47.480951202   19.056557180   188.0255   5   9   0.9386   0.7555   0.4782   0.5710   0.5710   0.8809   0.00    0.0
2019/01/19 01:00:30.000   47.480952937   19.056555405   188.3944   5   9   0.9383   0.7536   0.4808   0.5683   0.5683   0.8803   0.00    0.0
2019/01/19 01:01:00.000   47.480955225   19.056553724   188.3451   5   9   0.9380   0.7518   0.4834   0.5655   0.5655   0.8798   0.00    0.0
2019/01/19 01:01:30.000   47.480956208   19.056552001   188.3128   5   9   0.9377   0.7499   0.4859   0.5626   0.5626   0.8792   0.00    0.0
2019/01/19 01:02:00.000   47.480956153   19.056551623   188.3773   5   9   0.9373   0.7480   0.4885   0.5597   0.5597   0.8786   0.00    0.0
2019/01/19 01:02:30.000   47.480955318   19.056551192   188.4258   5   9   0.9370   0.7460   0.4910   0.5569   0.5569   0.8779   0.00    0.0
2019/01/19 01:03:00.000   47.480954833   19.056551443   188.6492   5   9   0.9366   0.7441   0.4934   0.5539   0.5539   0.8773   0.00    0.0
2019/01/19 01:03:30.000   47.480954025   19.056553541   188.9838   5   9   0.9363   0.7421   0.4959   0.5510   0.5510   0.8766   0.00    0.0
2019/01/19 01:04:00.000   47.480954644   19.056553396   189.2674   5   9   0.9359   0.7401   0.4983   0.5480   0.5480   0.8758   0.00    0.0
2019/01/19 01:04:30.000   47.480954497   19.056552834   189.6247   5   9   0.9355   0.7381   0.5008   0.5450   0.5450   0.8751   0.00    0.0
2019/01/19 01:05:00.000   47.480953281   19.056551825   189.6779   5   9   0.9350   0.7360   0.5031   0.5420   0.5420   0.8743   0.00    0.0
2019/01/19 01:05:30.000   47.480953483   19.056549185   189.5599   5   9   0.9346   0.7340   0.5055   0.5390   0.5390   0.8735   0.00    0.0
2019/01/19 01:06:00.000   47.480954601   19.056545573   189.4401   5   9   0.9342   0.7319   0.5079   0.5360   0.5360   0.8726   0.00    0.0
2019/01/19 01:06:30.000   47.480955131   19.056543287   189.3687   5   9   0.9337   0.7298   0.5102   0.5329   0.5329   0.8718   0.00    0.0
2019/01/19 01:07:00.000   47.480956237   19.056543027   189.4291   5   9   0.9332   0.7277   0.5125   0.5298   0.5298   0.8709   0.00    0.0
2019/01/19 01:07:30.000   47.480956339   19.056542699   189.5981   5   9   0.9327   0.7256   0.5147   0.5268   0.5268   0.8700   0.00    0.0
2019/01/19 01:08:00.000   47.480957269   19.056542930   189.4801   5   9   0.9322   0.7235   0.5170   0.5237   0.5237   0.8690   0.00    0.0
2019/01/19 01:08:30.000   47.480958605   19.056541952   189.1141   5   9   0.9317   0.7213   0.5192   0.5206   0.5206   0.8680   0.00    0.0
2019/01/19 01:09:00.000   47.480960842   19.056540680   188.9468   5   9   0.9311   0.7192   0.5214   0.5175   0.5175   0.8670   0.00    0.0
2019/01/19 01:09:30.000   47.480962234   19.056540276   188.7665   5   9   0.9306   0.7170   0.5235   0.5144   0.5144   0.8660   0.00    0.0
2019/01/19 01:10:00.000   47.480962595   19.056540779   188.6493   5   9   0.9300   0.7148   0.5257   0.5112   0.5112   0.8650   0.00    0.0
2019/01/19 01:10:30.000   47.480962463   19.056542423   188.5812   5   9   0.9295   0.7126   0.5278   0.5081   0.5081   0.8639   0.00    0.0
2019/01/19 01:11:00.000   47.480960908   19.056545640   188.7520   5   9   0.9289   0.7104   0.5299   0.5050   0.5050   0.8628   0.00    0.0
2019/01/19 01:11:30.000   47.480958993   19.056546189   188.7818   5   9   0.9283   0.7082   0.5319   0.5019   0.5019   0.8617   0.00    0.0
2019/01/19 01:12:00.000   47.480958373   19.056544736   188.5760   5   9   0.9276   0.7060   0.5340   0.4987   0.4987   0.8605   0.00    0.0
2019/01/19 01:12:30.000   47.480957483   19.056543587   188.2117   5   9   0.9270   0.7038   0.5360   0.4956   0.4956   0.8593   0.00    0.0
2019/01/19 01:13:00.000   47.480956647   19.056542244   188.2692   5   9   0.9263   0.7016   0.5380   0.4925   0.4925   0.8581   0.00    0.0
2019/01/19 01:13:30.000   47.480957369   19.056542344   188.3752   5   9   0.9257   0.6993   0.5399   0.4893   0.4893   0.8569   0.00    0.0
2019/01/19 01:14:00.000   47.480957983   19.056541742   188.6785   5   9   0.9250   0.6971   0.5418   0.4862   0.4862   0.8556   0.00    0.0
2019/01/19 01:14:30.000   47.480960257   19.056540014   188.8645   5   9   0.9243   0.6948   0.5437   0.4831   0.4831   0.8544   0.00    0.0
2019/01/19 01:15:00.000   47.480962063   19.056539446   189.0461   5   9   0.9236   0.6926   0.5456   0.4799   0.4799   0.8531   0.00    0.0
2019/01/19 01:15:30.000   47.480962677   19.056540626   189.2412   5   9   0.9229   0.6903   0.5474   0.4768   0.4768   0.8517   0.00    0.0
2019/01/19 01:16:00.000   47.480963040   19.056542192   189.3974   5   9   0.9222   0.6881   0.5492   0.4737   0.4737   0.8504   0.00    0.0
2019/01/19 01:16:30.000   47.480964519   19.056542705   189.4152   5   9   0.9214   0.6858   0.5510   0.4706   0.4706   0.8490   0.00    0.0
2019/01/19 01:17:00.000   47.480965220   19.056542138   189.5747   5   9   0.9207   0.6835   0.5528   0.4675   0.4675   0.8476   0.00    0.0
2019/01/19 01:17:30.000   47.480966777   19.056542634   189.6027   5   9   0.9199   0.6813   0.5545   0.4644   0.4644   0.8462   0.00    0.0
2019/01/19 01:18:00.000   47.480967021   19.056541953   189.6984   5   9   0.9191   0.6790   0.5562   0.4613   0.4613   0.8447   0.00    0.0
2019/01/19 01:18:30.000   47.480967466   19.056541733   189.7549   5   9   0.9183   0.6767   0.5578   0.4582   0.4582   0.8432   0.00    0.0
2019/01/19 01:19:00.000   47.480967804   19.056541860   189.6859   5   9   0.9175   0.6744   0.5595   0.4551   0.4551   0.8417   0.00    0.0
2019/01/19 01:19:30.000   47.480968724   19.056538852   189.6558   5   9   0.9166   0.6721   0.5611   0.4520   0.4520   0.8402   0.00    0.0
2019/01/19 01:20:00.000   47.480973845   19.056531394   190.4227   5  10   0.9135   0.6459   0.5757   0.4174   0.4174   0.8345   0.00    0.0
2019/01/19 01:20:30.000   47.480972293   19.056529971   190.4862   5  10   0.9130   0.6456   0.5763   0.4170   0.4170   0.8335   0.00    0.0
2019/01/19 01:21:00.000   47.480971385   19.056528998   190.6630   5  10   0.9124   0.6453   0.5770   0.4166   0.4166   0.8324   0.00    0.0
2019/01/19 01:21:30.000   47.480970346   19.056527874   190.9082   5  10   0.9118   0.6449   0.5776   0.4161   0.4161   0.8313   0.00    0.0
2019/01/19 01:22:00.000   47.480969194   19.056526966   190.9416   5  10   0.9111   0.6445   0.5781   0.4156   0.4156   0.8301   0.00    0.0
2019/01/19 01:22:30.000   47.480968290   19.056526191   191.0679   5  10   0.9104   0.6440   0.5786   0.4150   0.4150   0.8288   0.00    0.0
2019/01/19 01:23:00.000   47.480967946   19.056525417   191.0473   5  10   0.9096   0.6435   0.5791   0.4143   0.4143   0.8274   0.00    0.0
2019/01/19 01:23:30.000   47.480967946   19.056524015   191.0428   5  10   0.9089   0.6429   0.5795   0.4136   0.4136   0.8260   0.00    0.0
2019/01/19 01:24:00.000   47.480967716   19.056526289   191.1549   5  10   0.9080   0.6423   0.5799   0.4128   0.4128   0.8245   0.00    0.0
2019/01/19 01:24:30.000   47.480968524   19.056529024   191.1675   5  10   0.9072   0.6417   0.5803   0.4120   0.4120   0.8230   0.00    0.0
2019/01/19 01:25:00.000   47.480968939   19.056532219   191.1067   5  10   0.9063   0.6410   0.5806   0.4111   0.4111   0.8213   0.00    0.0
2019/01/19 01:25:30.000   47.480970201   19.056534499   190.7400   5  10   0.9053   0.6403   0.5808   0.4102   0.4102   0.8196   0.00    0.0
2019/01/19 01:26:00.000   47.480970612   19.056535098   190.4032   5  10   0.9044   0.6395   0.5811   0.4092   0.4092   0.8179   0.00    0.0
2019/01/19 01:26:30.000   47.480986890   19.056536886   187.7653   5   9   1.4210   0.8428   0.8283   0.7107   0.7107   2.0193   0.00    0.0
2019/01/19 01:27:00.000   47.480986287   19.056537788   187.8397   5   9   1.4224   0.8433   0.8318   0.7115   0.7115   2.0234   0.00    0.0
2019/01/19 01:27:30.000   47.480985762   19.056538968   187.9544   5   9   1.4238   0.8437   0.8353   0.7122   0.7122   2.0272   0.00    0.0
2019/01/19 01:28:00.000   47.480987548   19.056540048   187.9511   5   9   1.4250   0.8441   0.8386   0.7128   0.7128   2.0308   0.00    0.0
2019/01/19 01:28:30.000   47.480962508   19.056532374   185.1972   5   8   1.4269   0.8309   0.8399   0.6907   0.6907   2.0360   0.00    0.0
2019/01/19 01:29:00.000   47.480962590   19.056532501   185.2943   5   8   1.4278   0.8330   0.8434   0.6942   0.6942   2.0386   0.00    0.0
2019/01/19 01:29:30.000   47.480962931   19.056531713   185.2091   5   8   1.4286   0.8351   0.8468   0.6976   0.6976   2.0410   0.00    0.0
2019/01/19 01:30:00.000   47.480963582   19.056531383   185.0167   5   8   1.4294   0.8371   0.8502   0.7010   0.7010   2.0432   0.00    0.0
2019/01/19 01:30:30.000   47.480962812   19.056532897   184.9318   5   8   1.4301   0.8390   0.8536   0.7042   0.7042   2.0452   0.00    0.0
2019/01/19 01:31:00.000   47.480949855   19.056544091   187.7744   5   9   1.1595   0.6156   0.4780   0.3792   0.3792   1.3444   0.00    0.0
2019/01/19 01:31:30.000   47.480949305   19.056542091   187.6561   5   9   1.1594   0.6176   0.4808   0.3816   0.3816   1.3443   0.00    0.0
2019/01/19 01:32:00.000   47.480950455   19.056540829   187.5020   5   9   1.1593   0.6196   0.4835   0.3841   0.3841   1.3440   0.00    0.0
2019/01/19 01:32:30.000   47.480951688   19.056540121   187.3759   5   9   1.1592   0.6215   0.4862   0.3865   0.3865   1.3438   0.00    0.0
2019/01/19 01:33:00.000   47.480951080   19.056540282   187.4503   5   9   1.1591   0.6234   0.4889   0.3889   0.3889   1.3435   0.00    0.0
2019/01/19 01:33:30.000   47.480950847   19.056539822   187.1714   5   9   1.1590   0.6253   0.4915   0.3912   0.3912   1.3432   0.00    0.0
2019/01/19 01:34:00.000   47.480950090   19.056538221   186.8188   5   9   1.1588   0.6272   0.4942   0.3935   0.3935   1.3428   0.00    0.0
2019/01/19 01:34:30.000   47.480950262   19.056535974   186.5605   5   9   1.1586   0.6290   0.4968   0.3958   0.3958   1.3424   0.00    0.0
2019/01/19 01:35:00.000   47.480950821   19.056534923   186.2859   5   9   1.1584   0.6308   0.4994   0.3981   0.3981   1.3419   0.00    0.0
2019/01/19 01:35:30.000   47.480953079   19.056534077   185.8671   5   9   1.1582   0.6326   0.5020   0.4003   0.4003   1.3414   0.00    0.0
2019/01/19 01:36:00.000   47.480953799   19.056534964   185.6943   5   9   1.1579   0.6343   0.5046   0.4025   0.4025   1.3408   0.00    0.0
2019/01/19 01:36:30.000   47.480953434   19.056535412   185.9267   5   9   1.1577   0.6360   0.5071   0.4047   0.4047   1.3403   0.00    0.0
2019/01/19 01:37:00.000   47.480952179   19.056537206   186.0425   5   9   1.1574   0.6377   0.5097   0.4068   0.4068   1.3396   0.00    0.0
2019/01/19 01:37:30.000   47.480951088   19.056537964   186.0395   5   9   1.1571   0.6393   0.5122   0.4089   0.4089   1.3389   0.00    0.0
2019/01/19 01:38:00.000   47.480950517   19.056537639   185.8213   5   9   1.1568   0.6409   0.5147   0.4110   0.4110   1.3382   0.00    0.0
2019/01/19 01:38:30.000   47.480950723   19.056536640   185.5427   5   9   1.1565   0.6425   0.5171   0.4130   0.4130   1.3374   0.00    0.0
2019/01/19 01:39:00.000   47.480951022   19.056535641   185.4654   5   9   1.1561   0.6440   0.5196   0.4150   0.4150   1.3366   0.00    0.0
2019/01/19 01:39:30.000   47.480951753   19.056534860   185.3243   5   9   1.1557   0.6455   0.5220   0.4169   0.4169   1.3357   0.00    0.0
2019/01/19 01:40:00.000   47.480952588   19.056534515   185.3199   5   9   1.1553   0.6470   0.5244   0.4188   0.4188   1.3347   0.00    0.0
2019/01/19 01:40:30.000   47.480952175   19.056533738   185.2274   5   9   1.1549   0.6484   0.5268   0.4206   0.4206   1.3337   0.00    0.0
2019/01/19 01:41:00.000   47.480951124   19.056533234   185.1039   5   9   1.1544   0.6498   0.5291   0.4224   0.4224   1.3327   0.00    0.0
2019/01/19 01:41:30.000   47.480949219   19.056533366   185.3236   5   9   1.1539   0.6511   0.5315   0.4242   0.4242   1.3316   0.00    0.0
2019/01/19 01:42:00.000   47.480947405   19.056532960   185.4977   5   9   1.1534   0.6524   0.5338   0.4259   0.4259   1.3304   0.00    0.0
2019/01/19 01:42:30.000   47.480947867   19.056532411   185.3727   5   9   1.1529   0.6537   0.5361   0.4275   0.4275   1.3292   0.00    0.0
2019/01/19 01:43:00.000   47.480948698   19.056531671   185.1949   5   9   1.1524   0.6550   0.5384   0.4292   0.4292   1.3280   0.00    0.0
2019/01/19 01:43:30.000   47.480949893   19.056530678   184.8973   5   9   1.1518   0.6562   0.5406   0.4307   0.4307   1.3267   0.00    0.0
2019/01/19 01:44:00.000   47.480950306   19.056532115   184.8176   5   9   1.1512   0.6573   0.5429   0.4322   0.4322   1.3253   0.00    0.0
2019/01/19 01:44:30.000   47.480950062   19.056533571   184.8150   5   9   1.1506   0.6584   0.5451   0.4337   0.4337   1.3238   0.00    0.0
2019/01/19 01:45:00.000   47.480950189   19.056533073   184.7740   5   9   1.1499   0.6595   0.5473   0.4351   0.4351   1.3224   0.00    0.0
2019/01/19 01:45:30.000   47.480950925   19.056531884   184.7294   5   9   1.1493   0.6605   0.5494   0.4365   0.4365   1.3208   0.00    0.0
2019/01/19 01:46:00.000   47.480952990   19.056529293   184.4790   5   9   1.1486   0.6615   0.5516   0.4378   0.4378   1.3192   0.00    0.0
2019/01/19 01:46:30.000   47.480953497   19.056527204   184.2337   5   9   1.1478   0.6625   0.5537   0.4391   0.4391   1.3176   0.00    0.0
2019/01/19 01:47:00.000   47.480953478   19.056526646   184.3727   5   9   1.1471   0.6634   0.5558   0.4403   0.4403   1.3158   0.00    0.0
2019/01/19 01:47:30.000   47.480953823   19.056525885   184.3752   5   9   1.1463   0.6642   0.5579   0.4414   0.4414   1.3141   0.00    0.0
2019/01/19 01:48:00.000   47.480954259   19.056525428   184.4114   5   9   1.1455   0.6651   0.5599   0.4425   0.4425   1.3122   0.00    0.0
2019/01/19 01:48:30.000   47.480953699   19.056525331   184.3963   5   9   1.1447   0.6658   0.5619   0.4435   0.4435   1.3104   0.00    0.0
2019/01/19 01:49:00.000   47.480953812   19.056525824   184.1761   5   9   1.1439   0.6666   0.5639   0.4445   0.4445   1.3084   0.00    0.0
2019/01/19 01:49:30.000   47.480953858   19.056525613   184.0023   5   9   1.1430   0.6673   0.5659   0.4454   0.4454   1.3064   0.00    0.0
2019/01/19 01:50:00.000   47.480955570   19.056523900   183.8031   5   9   1.1421   0.6679   0.5679   0.4463   0.4463   1.3043   0.00    0.0
2019/01/19 01:50:30.000   47.480957069   19.056524370   183.7817   5   9   1.1411   0.6685   0.5698   0.4471   0.4471   1.3022   0.00    0.0
2019/01/19 01:51:00.000   47.480957266   19.056524222   183.7949   5   9   1.1402   0.6691   0.5717   0.4479   0.4479   1.3000   0.00    0.0
2019/01/19 01:51:30.000   47.480958324   19.056522337   183.6974   5   9   1.1392   0.6696   0.5736   0.4486   0.4486   1.2978   0.00    0.0
2019/01/19 01:52:00.000   47.480957614   19.056522057   183.7974   5   9   1.1382   0.6701   0.5755   0.4492   0.4492   1.2955   0.00    0.0
2019/01/19 01:52:30.000   47.480957744   19.056522460   183.9037   5   9   1.1372   0.6705   0.5773   0.4498   0.4498   1.2932   0.00    0.0
2019/01/19 01:53:00.000   47.480966940   19.056519583   185.2252   5  10   1.1361   0.6688   0.5795   0.4475   0.4475   1.2908   0.00    0.0
2019/01/19 01:53:30.000   47.480966645   19.056519691   185.1639   5  10   1.1350   0.6701   0.5812   0.4492   0.4492   1.2883   0.00    0.0
2019/01/19 01:54:00.000   47.480968068   19.056518558   185.1020   5  10   1.1339   0.6713   0.5828   0.4509   0.4509   1.2858   0.00    0.0
2019/01/19 01:54:30.000   47.480969162   19.056518276   185.0675   5  10   1.1328   0.6725   0.5843   0.4525   0.4525   1.2832   0.00    0.0
2019/01/19 01:55:00.000   47.480970127   19.056516698   184.9414   5  10   1.1316   0.6736   0.5859   0.4540   0.4540   1.2806   0.00    0.0
2019/01/19 01:55:30.000   47.480969481   19.056516137   184.8708   5  10   1.1304   0.6747   0.5874   0.4555   0.4555   1.2779   0.00    0.0
2019/01/19 01:56:00.000   47.480968117   19.056515705   184.8420   5  10   1.1292   0.6758   0.5889   0.4569   0.4569   1.2751   0.00    0.0
2019/01/19 01:56:30.000   47.480966098   19.056515639   184.8677   5  10   1.1279   0.6767   0.5904   0.4582   0.4582   1.2722   0.00    0.0
2019/01/19 01:57:00.000   47.480964752   19.056516016   185.0862   5  10   1.1266   0.6777   0.5918   0.4595   0.4595   1.2693   0.00    0.0
2019/01/19 01:57:30.000   47.480964728   19.056515411   185.2179   5  10   1.1253   0.6786   0.5932   0.4607   0.4607   1.2663   0.00    0.0
2019/01/19 01:58:00.000   47.480964520   19.056515506   185.6464   5  10   1.1239   0.6794   0.5946   0.4618   0.4618   1.2632   0.00    0.0
2019/01/19 01:58:30.000   47.480964976   19.056513754   185.9049   5  10   1.1225   0.6802   0.5959   0.4629   0.4629   1.2601   0.00    0.0
2019/01/19 01:59:00.000   47.480964738   19.056513608   186.0485   5  10   1.1211   0.6809   0.5973   0.4638   0.4638   1.2569   0.00    0.0
2019/01/19 01:59:30.000   47.480954392   19.056538245   190.2326   5  11   1.0508   0.5885   0.4567   0.3466   0.3466   1.1042   0.00    0.0
2019/01/19 02:00:00.000   47.480954519   19.056538306   190.0683   5  11   1.0493   0.5894   0.4580   0.3476   0.3476   1.1011   0.00    0.0
2019/01/19 02:00:30.000   47.480954404   19.056539885   189.8744   5  11   1.0478   0.5902   0.4592   0.3486   0.3486   1.0979   0.00    0.0
2019/01/19 02:01:00.000   47.480953331   19.056539850   189.8591   5  11   1.0463   0.5910   0.4604   0.3495   0.3495   1.0948   0.00    0.0
2019/01/19 02:01:30.000   47.480952358   19.056538952   189.8140   5  11   1.0448   0.5917   0.4616   0.3504   0.3504   1.0915   0.00    0.0
2019/01/19 02:02:00.000   47.480965317   19.056559485   186.5563   5  10   1.3409   0.7791   0.3660   0.6073   0.6073   1.7979   0.00    0.0
2019/01/19 02:02:30.000   47.480965001   19.056559011   186.4906   5  10   1.3385   0.7811   0.3693   0.6104   0.6104   1.7917   0.00    0.0
2019/01/19 02:03:00.000   47.480965750   19.056557283   186.2149   5  10   1.3362   0.7830   0.3725   0.6133   0.6133   1.7853   0.00    0.0
2019/01/19 02:03:30.000   47.480967234   19.056554759   185.8711   5  10   1.3338   0.7848   0.3757   0.6162   0.6162   1.7789   0.00    0.0
2019/01/19 02:04:00.000   47.480968587   19.056552920   185.6449   5  10   1.3313   0.7866   0.3789   0.6190   0.6190   1.7724   0.00    0.0
2019/01/19 02:04:30.000   47.480968005   19.056554271   185.6611   5  10   1.3289   0.7883   0.3820   0.6218   0.6218   1.7659   0.00    0.0
2019/01/19 02:05:00.000   47.480967193   19.056555244   185.9594   5  10   1.3264   0.7900   0.3850   0.6244   0.6244   1.7593   0.00    0.0
2019/01/19 02:05:30.000   47.480966956   19.056555200   186.2349   5  10   1.3238   0.7916   0.3880   0.6269   0.6269   1.7525   0.00    0.0
2019/01/19 02:06:00.000   47.480967574   19.056555142   186.3539   5  10   1.3213   0.7931   0.3909   0.6293   0.6293   1.7458   0.00    0.0
2019/01/19 02:06:30.000   47.480969790   19.056554137   185.8128   5  10   1.3187   0.7946   0.3938   0.6317   0.6317   1.7389   0.00    0.0
2019/01/19 02:07:00.000   47.480971299   19.056551271   185.0613   5  10   1.3160   0.7960   0.3967   0.6339   0.6339   1.7320   0.00    0.0
2019/01/19 02:07:30.000   47.480970075   19.056550274   184.7049   5  10   1.3134   0.7973   0.3995   0.6360   0.6360   1.7250   0.00    0.0
2019/01/19 02:08:00.000   47.480966898   19.056553268   185.1430   5  10   1.3107   0.7986   0.4022   0.6380   0.6380   1.7179   0.00    0.0
2019/01/19 02:08:30.000   47.480964607   19.056557761   185.7810   5  10   1.3080   0.7998   0.4049   0.6400   0.6400   1.7108   0.00    0.0
2019/01/19 02:09:00.000   47.480963438   19.056560243   186.3788   5  10   1.3052   0.8009   0.4076   0.6418   0.6418   1.7036   0.00    0.0
2019/01/19 02:09:30.000   47.480963614   19.056560298   186.5133   5  10   1.3025   0.8020   0.4102   0.6435   0.6435   1.6964   0.00    0.0
2019/01/19 02:10:00.000   47.480966495   19.056557352   185.9798   5  10   1.2996   0.8030   0.4128   0.6451   0.6451   1.6891   0.00    0.0
2019/01/19 02:10:30.000   47.480968658   19.056554252   185.4592   5  10   1.2968   0.8039   0.4153   0.6466   0.6466   1.6817   0.00    0.0
2019/01/19 02:11:00.000   47.480968243   19.056554074   185.4727   5  10   1.2939   0.8048   0.4178   0.6480   0.6480   1.6742   0.00    0.0
2019/01/19 02:11:30.000   47.480966678   19.056554504   185.6013   5  10   1.2910   0.8056   0.4202   0.6493   0.6493   1.6667   0.00    0.0
2019/01/19 02:12:00.000   47.480964858   19.056556028   186.1027   5  10   1.2881   0.8063   0.4226   0.6504   0.6504   1.6591   0.00    0.0
2019/01/19 02:12:30.000   47.480964900   19.056556853   186.2856   5  10   1.2851   0.8070   0.4249   0.6515   0.6515   1.6515   0.00    0.0
2019/01/19 02:13:00.000   47.480966573   19.056555989   186.2034   5  10   1.2821   0.8076   0.4272   0.6525   0.6525   1.6438   0.00    0.0
2019/01/19 02:13:30.000   47.480971019   19.056558148   186.2672   5  11   1.2790   0.8104   0.4317   0.6570   0.6570   1.6359   0.00    0.0
2019/01/19 02:14:00.000   47.480973645   19.056556922   185.7522   5  11   1.2760   0.8109   0.4340   0.6578   0.6578   1.6281   0.00    0.0
2019/01/19 02:14:30.000   47.480973961   19.056556864   185.5044   5  11   1.2729   0.8113   0.4362   0.6585   0.6585   1.6202   0.00    0.0
2019/01/19 02:15:00.000   47.480972889   19.056557339   185.4809   5  11   1.2697   0.8116   0.4383   0.6590   0.6590   1.6122   0.00    0.0
2019/01/19 02:15:30.000   47.480972605   19.056557345   185.4460   5  11   1.2666   0.8119   0.4405   0.6595   0.6595   1.6043   0.00    0.0
2019/01/19 02:16:00.000   47.480973750   19.056555103   185.2207   5  11   1.2634   0.8122   0.4426   0.6599   0.6599   1.5962   0.00    0.0
2019/01/19 02:16:30.000   47.480974374   19.056553702   185.1699   5  11   1.2602   0.8123   0.4446   0.6601   0.6601   1.5881   0.00    0.0
2019/01/19 02:17:00.000   47.480974506   19.056553911   185.1767   5  11   1.2570   0.8124   0.4467   0.6603   0.6603   1.5800   0.00    0.0
2019/01/19 02:17:30.000   47.480974099   19.056553969   185.3341   5  11   1.2537   0.8124   0.4487   0.6603   0.6603   1.5718   0.00    0.0
2019/01/19 02:18:00.000   47.480966008   19.056551612   184.2341   5  10   1.2506   0.8064   0.4495   0.6506   0.6506   1.5640   0.00    0.0
2019/01/19 02:18:30.000   47.480965407   19.056551369   183.8654   5  10   1.2471   0.8092   0.4519   0.6550   0.6550   1.5554   0.00    0.0
2019/01/19 02:19:00.000   47.480965841   19.056550791   183.3680   5  10   1.2437   0.8119   0.4544   0.6594   0.6594   1.5469   0.00    0.0
2019/01/19 02:19:30.000   47.480965035   19.056552088   183.1474   5  10   1.2404   0.8146   0.4568   0.6639   0.6639   1.5386   0.00    0.0
2019/01/19 02:20:00.000   47.480964345   19.056551982   183.0942   5  10   1.2371   0.8174   0.4592   0.6685   0.6685   1.5305   0.00    0.0
2019/01/19 02:20:30.000   47.480964484   19.056549924   183.1844   5  10   1.2339   0.8203   0.4617   0.6731   0.6731   1.5225   0.00    0.0
2019/01/19 02:21:00.000   47.480965189   19.056547253   183.3835   5  10   1.2308   0.8231   0.4641   0.6777   0.6777   1.5148   0.00    0.0
2019/01/19 02:21:30.000   47.480965013   19.056547568   183.5715   5  10   1.2277   0.8260   0.4666   0.6825   0.6825   1.5071   0.00    0.0
2019/01/19 02:22:00.000   47.480965256   19.056548726   183.8851   5  10   1.2246   0.8289   0.4691   0.6873   0.6873   1.4997   0.00    0.0
2019/01/19 02:22:30.000   47.480964802   19.056549419   184.3691   5  10   1.2216   0.8318   0.4716   0.6921   0.6921   1.4924   0.00    0.0
2019/01/19 02:23:00.000   47.480964323   19.056550632   184.8516   5  10   1.2187   0.8348   0.4741   0.6971   0.6971   1.4852   0.00    0.0
2019/01/19 02:23:30.000   47.480964959   19.056550329   185.0927   5  10   1.2158   0.8377   0.4766   0.7021   0.7021   1.4782   0.00    0.0
2019/01/19 02:24:00.000   47.480965326   19.056548959   184.9275   5  10   1.2130   0.8407   0.4792   0.7071   0.7071   1.4714   0.00    0.0
2019/01/19 02:24:30.000   47.480965119   19.056548071   184.6380   5  10   1.2103   0.8438   0.4817   0.7123   0.7123   1.4647   0.00    0.0
2019/01/19 02:25:00.000   47.480964355   19.056547141   184.1826   5  10   1.2075   0.8469   0.4843   0.7175   0.7175   1.4582   0.00    0.0
2019/01/19 02:25:30.000   47.480963422   19.056547121   183.8651   5  10   1.2049   0.8500   0.4869   0.7227   0.7227   1.4518   0.00    0.0
2019/01/19 02:26:00.000   47.480962968   19.056546663   183.4247   5  10   1.2023   0.8531   0.4895   0.7281   0.7281   1.4455   0.00    0.0
2019/01/19 02:26:30.000   47.480962445   19.056546501   183.2183   5  10   1.1998   0.8563   0.4921   0.7334   0.7334   1.4394   0.00    0.0
2019/01/19 02:27:00.000   47.480961939   19.056545506   183.0488   5  10   1.1973   0.8594   0.4947   0.7389   0.7389   1.4334   0.00    0.0
2019/01/19 02:27:30.000   47.480961363   19.056544970   183.3279   5  10   1.1948   0.8626   0.4974   0.7444   0.7444   1.4276   0.00    0.0
2019/01/19 02:28:00.000   47.480960861   19.056545478   183.6322   5  10   1.1924   0.8659   0.5001   0.7500   0.7500   1.4219   0.00    0.0
2019/01/19 02:28:30.000   47.480960714   19.056545193   183.7504   5  10   1.1901   0.8691   0.5028   0.7557   0.7557   1.4163   0.00    0.0
2019/01/19 02:29:00.000   47.480949138   19.056544147   185.5326   5  11   0.9369   0.7617   0.2753   0.5804   0.5804   0.8777   0.00    0.0
2019/01/19 02:29:30.000   47.480949810   19.056541728   184.6899   5  11   0.9371   0.7654   0.2795   0.5860   0.5860   0.8781   0.00    0.0
2019/01/19 02:30:00.000   47.480948404   19.056540782   184.5368   5  11   0.9373   0.7690   0.2836   0.5917   0.5917   0.8785   0.00    0.0
2019/01/19 02:30:30.000   47.480946073   19.056541481   184.7655   5  11   0.9375   0.7727   0.2878   0.5973   0.5973   0.8789   0.00    0.0
2019/01/19 02:31:00.000   47.480944956   19.056542763   185.2188   5  11   0.9377   0.7764   0.2919   0.6031   0.6031   0.8793   0.00    0.0
2019/01/19 02:31:30.000   47.480944929   19.056544154   185.7284   5  11   0.9380   0.7801   0.2960   0.6088   0.6088   0.8798   0.00    0.0
2019/01/19 02:32:00.000   47.480945709   19.056543911   186.0344   5  11   0.9382   0.7838   0.3000   0.6146   0.6146   0.8802   0.00    0.0
2019/01/19 02:32:30.000   47.480947564   19.056542064   185.6692   5  11   0.9384   0.7875   0.3040   0.6204   0.6204   0.8805   0.00    0.0
2019/01/19 02:33:00.000   47.480948060   19.056541139   185.1856   5  11   0.9386   0.7912   0.3081   0.6262   0.6262   0.8809   0.00    0.0
2019/01/19 02:33:30.000   47.480947386   19.056541249   184.8259   5  11   0.9388   0.7949   0.3121   0.6321   0.6321   0.8813   0.00    0.0
2019/01/19 02:34:00.000   47.480946196   19.056541900   184.6840   5  11   0.9390   0.7985   0.3161   0.6379   0.6379   0.8817   0.00    0.0
2019/01/19 02:34:30.000   47.480945669   19.056542051   184.9046   5  11   0.9392   0.8022   0.3200   0.6438   0.6438   0.8821   0.00    0.0
2019/01/19 02:35:00.000   47.480946228   19.056541300   184.8427   5  11   0.9394   0.8059   0.3240   0.6498   0.6498   0.8825   0.00    0.0
2019/01/19 02:35:30.000   47.480947497   19.056540019   184.7411   5  11   0.9396   0.8096   0.3279   0.6557   0.6557   0.8828   0.00    0.0
2019/01/19 02:36:00.000   47.480949132   19.056539229   184.6974   5  11   0.9398   0.8132   0.3318   0.6616   0.6616   0.8832   0.00    0.0
2019/01/19 02:36:30.000   47.480949743   19.056539101   184.8639   5  11   0.9400   0.8169   0.3357   0.6676   0.6676   0.8835   0.00    0.0
2019/01/19 02:37:00.000   47.480950225   19.056539125   184.7878   5  11   0.9401   0.8205   0.3396   0.6735   0.6735   0.8839   0.00    0.0
2019/01/19 02:37:30.000   47.480948551   19.056539276   184.9401   5  11   0.9403   0.8241   0.3434   0.6795   0.6795   0.8842   0.00    0.0
2019/01/19 02:38:00.000   47.480945352   19.056539568   184.9150   5  11   0.9405   0.8277   0.3473   0.6854   0.6854   0.8845   0.00    0.0
2019/01/19 02:38:30.000   47.480942562   19.056540837   184.7903   5  11   0.9406   0.8313   0.3511   0.6914   0.6914   0.8848   0.00    0.0
2019/01/19 02:39:00.000   47.480941757   19.056541315   184.5261   5  11   0.9408   0.8349   0.3549   0.6973   0.6973   0.8850   0.00    0.0
2019/01/19 02:39:30.000   47.480943237   19.056541644   184.2789   5  11   0.9409   0.8384   0.3587   0.7033   0.7033   0.8853   0.00    0.0
2019/01/19 02:40:00.000   47.480944934   19.056540145   184.1001   5  11   0.9410   0.8420   0.3624   0.7092   0.7092   0.8855   0.00    0.0
2019/01/19 02:40:30.000   47.480945548   19.056538427   184.2210   5  11   0.9411   0.8454   0.3662   0.7151   0.7151   0.8857   0.00    0.0
2019/01/19 02:41:00.000   47.480945121   19.056536999   184.5766   5  11   0.9412   0.8489   0.3699   0.7210   0.7210   0.8859   0.00    0.0
2019/01/19 02:41:30.000   47.480944181   19.056537152   184.8816   5  11   0.9413   0.8523   0.3736   0.7268   0.7268   0.8860   0.00    0.0
2019/01/19 02:42:00.000   47.480943695   19.056537122   184.9086   5  11   0.9413   0.8557   0.3772   0.7326   0.7326   0.8861   0.00    0.0
2019/01/19 02:42:30.000   47.480943314   19.056537755   184.5094   5  11   0.9414   0.8591   0.3809   0.7384   0.7384   0.8862   0.00    0.0
2019/01/19 02:43:00.000   47.480944164   19.056537355   184.0577   5  11   0.9414   0.8624   0.3845   0.7441   0.7441   0.8863   0.00    0.0
2019/01/19 02:43:30.000   47.480946171   19.056536912   183.5813   5  11   0.9414   0.8657   0.3881   0.7497   0.7497   0.8863   0.00    0.0
2019/01/19 02:44:00.000   47.480946865   19.056536530   183.5826   5  11   0.9414   0.8689   0.3916   0.7553   0.7553   0.8862   0.00    0.0
2019/01/19 02:44:30.000   47.480945805   19.056535232   183.6264   5  11   0.9414   0.8721   0.3952   0.7609   0.7609   0.8861   0.00    0.0
2019/01/19 02:45:00.000   47.480943415   19.056532451   183.5241   5  11   0.9413   0.8753   0.3987   0.7664   0.7664   0.8860   0.00    0.0
2019/01/19 02:45:30.000   47.480941858   19.056530844   183.3277   5  11   0.9412   0.8783   0.4022   0.7717   0.7717   0.8859   0.00    0.0
2019/01/19 02:46:00.000   47.480941450   19.056530698   183.3269   5  11   0.9411   0.8813   0.4056   0.7770   0.7770   0.8857   0.00    0.0
2019/01/19 02:46:30.000   47.480942604   19.056531440   183.5271   5  11   0.9410   0.8843   0.4090   0.7823   0.7823   0.8854   0.00    0.0
2019/01/19 02:47:00.000   47.480943336   19.056530727   183.6322   5  11   0.9408   0.8872   0.4124   0.7874   0.7874   0.8851   0.00    0.0
2019/01/19 02:47:30.000   47.480942970   19.056530758   183.9009   5  11   0.9406   0.8900   0.4157   0.7924   0.7924   0.8847   0.00    0.0
2019/01/19 02:48:00.000   47.480941517   19.056531563   183.8937   5  11   0.9404   0.8927   0.4191   0.7973   0.7973   0.8843   0.00    0.0
2019/01/19 02:48:30.000   47.480941626   19.056532438   183.9863   5  11   0.9401   0.8954   0.4223   0.8020   0.8020   0.8838   0.00    0.0
2019/01/19 02:49:00.000   47.480943315   19.056533448   183.9505   5  11   0.9398   0.8980   0.4256   0.8067   0.8067   0.8833   0.00    0.0
2019/01/19 02:49:30.000   47.480945461   19.056532949   183.7693   5  11   0.9395   0.9005   0.4288   0.8112   0.8112   0.8827   0.00    0.0
2019/01/19 02:50:00.000   47.480947697   19.056531587   183.6327   5  11   0.9391   0.9029   0.4319   0.8156   0.8156   0.8820   0.00    0.0
2019/01/19 02:50:30.000   47.480947699   19.056530560   183.9114   5  11   0.9387   0.9052   0.4350   0.8198   0.8198   0.8812   0.00    0.0
2019/01/19 02:51:00.000   47.480947542   19.056527720   184.0442   5  11   0.9383   0.9075   0.4381   0.8238   0.8238   0.8804   0.00    0.0
2019/01/19 02:51:30.000   47.480948024   19.056526181   184.3480   5  11   0.9378   0.9096   0.4411   0.8277   0.8277   0.8795   0.00    0.0
2019/01/19 02:52:00.000   47.480947993   19.056525782   184.5326   5  11   0.9373   0.9116   0.4440   0.8314   0.8314   0.8785   0.00    0.0
2019/01/19 02:52:30.000   47.480947224   19.056526291   184.6080   5  11   0.9367   0.9136   0.4469   0.8349   0.8349   0.8774   0.00    0.0
2019/01/19 02:53:00.000   47.480945897   19.056527216   184.8310   5  11   0.9361   0.9154   0.4498   0.8383   0.8383   0.8763   0.00    0.0
2019/01/19 02:53:30.000   47.480945321   19.056524743   184.5352   5  11   0.9355   0.9171   0.4526   0.8414   0.8414   0.8751   0.00    0.0
2019/01/19 02:54:00.000   47.480944486   19.056522981   184.4770   5  11   0.9347   0.9187   0.4553   0.8443   0.8443   0.8738   0.00    0.0
2019/01/19 02:54:30.000   47.480945039   19.056522210   184.4211   5  11   0.9340   0.9201   0.4580   0.8470   0.8470   0.8724   0.00    0.0
2019/01/19 02:55:00.000   47.480945686   19.056522346   184.6198   5  11   0.9332   0.9215   0.4607   0.8495   0.8495   0.8709   0.00    0.0
2019/01/19 02:55:30.000   47.480946420   19.056522780   185.0250   5  11   0.9323   0.9227   0.4632   0.8517   0.8517   0.8693   0.00    0.0
2019/01/19 02:56:00.000   47.480946101   19.056522997   185.4506   5  11   0.9314   0.9238   0.4658   0.8537   0.8537   0.8676   0.00    0.0
2019/01/19 02:56:30.000   47.480946034   19.056522694   185.3743   5  11   0.9305   0.9247   0.4682   0.8555   0.8555   0.8658   0.00    0.0
2019/01/19 02:57:00.000   47.480946800   19.056522094   185.0950   5  11   0.9295   0.9255   0.4706   0.8570   0.8570   0.8639   0.00    0.0
2019/01/19 02:57:30.000   47.480946303   19.056522075   185.2646   5  11   0.9284   0.9262   0.4729   0.8583   0.8583   0.8620   0.00    0.0
2019/01/19 02:58:00.000   47.480945827   19.056522560   185.2634   5  11   0.9273   0.9268   0.4751   0.8593   0.8593   0.8599   0.00    0.0
2019/01/19 02:58:30.000   47.480945689   19.056523282   185.3825   5  11   0.9261   0.9272   0.4773   0.8600   0.8600   0.8577   0.00    0.0
2019/01/19 02:59:00.000   47.480946220   19.056522111   185.4101   5  11   0.9249   0.9274   0.4794   0.8605   0.8605   0.8554   0.00    0.0
2019/01/19 02:59:30.000   47.480947135   19.056522463   185.7512   5  11   0.9236   0.9275   0.4815   0.8606   0.8606   0.8531   0.00    0.0
2019/01/19 03:00:00.000   47.480947743   19.056523726   185.9584   5  11   0.9223   0.9274   0.4834   0.8605   0.8605   0.8506   0.00    0.0
2019/01/19 03:00:30.000   47.480947406   19.056524162   186.0237   5  11   0.9209   0.9272   0.4853   0.8601   0.8601   0.8480   0.00    0.0
2019/01/19 03:01:00.000   47.480947076   19.056524342   186.3147   5  11   0.9194   0.9269   0.4871   0.8595   0.8595   0.8453   0.00    0.0
2019/01/19 03:01:30.000   47.480946818   19.056522767   186.7487   5  11   0.9179   0.9263   0.4888   0.8585   0.8585   0.8425   0.00    0.0
2019/01/19 03:02:00.000   47.480946875   19.056520182   187.2234   5  11   0.9163   0.9257   0.4905   0.8572   0.8572   0.8396   0.00    0.0
2019/01/19 03:02:30.000   47.480946761   19.056518460   187.5339   5  11   0.9147   0.9248   0.4921   0.8557   0.8557   0.8367   0.00    0.0
2019/01/19 03:03:00.000   47.480946213   19.056517132   187.7771   5  11   0.9130   0.9238   0.4936   0.8538   0.8538   0.8336   0.00    0.0
2019/01/19 03:03:30.000   47.480945051   19.056516146   187.7409   5  11   0.9113   0.9226   0.4950   0.8517   0.8517   0.8304   0.00    0.0
2019/01/19 03:04:00.000   47.480945376   19.056514054   187.7355   5  11   0.9095   0.9213   0.4964   0.8492   0.8492   0.8272   0.00    0.0
2019/01/19 03:04:30.000   47.480945601   19.056512994   187.9201   5  11   0.9076   0.9198   0.4976   0.8465   0.8465   0.8238   0.00    0.0
2019/01/19 03:05:00.000   47.480945004   19.056512007   188.2800   5  11   0.9057   0.9182   0.4988   0.8435   0.8435   0.8204   0.00    0.0
2019/01/19 03:05:30.000   47.480944962   19.056510861   188.4864   5  11   0.9038   0.9164   0.4999   0.8402   0.8402   0.8169   0.00    0.0
2019/01/19 03:06:00.000   47.480945594   19.056509181   189.2415   5  11   0.9018   0.9144   0.5010   0.8365   0.8365   0.8132   0.00    0.0
2019/01/19 03:06:30.000   47.480947509   19.056507709   189.9920   5  11   0.8997   0.9123   0.5019   0.8327   0.8327   0.8095   0.00    0.0
2019/01/19 03:07:00.000   47.480948052   19.056506241   190.2347   5  11   0.8977   0.9100   0.5028   0.8285   0.8285   0.8058   0.00    0.0
2019/01/19 03:07:30.000   47.480968424   19.056524677   196.0189   5  12   0.8431   0.7173   0.3891   0.5148   0.5148   0.7108   0.00    0.0
2019/01/19 03:08:00.000   47.480966521   19.056524867   196.1197   5  12   0.8417   0.7164   0.3907   0.5135   0.5135   0.7084   0.00    0.0
2019/01/19 03:08:30.000   47.480970696   19.056540198   193.2338   5  11   1.1760   0.9614   0.2885   0.9248   0.9248   1.3830   0.00    0.0
2019/01/19 03:09:00.000   47.480970669   19.056539859   192.9917   5  11   1.1757   0.9627   0.2933   0.9274   0.9274   1.3822   0.00    0.0
2019/01/19 03:09:30.000   47.480972116   19.056537402   192.6077   5  11   1.1753   0.9639   0.2981   0.9297   0.9297   1.3813   0.00    0.0
2019/01/19 03:10:00.000   47.480971791   19.056535907   192.3856   5  11   1.1748   0.9650   0.3027   0.9319   0.9319   1.3803   0.00    0.0
2019/01/19 03:10:30.000   47.480971558   19.056536483   192.0559   5  11   1.1743   0.9660   0.3073   0.9338   0.9338   1.3791   0.00    0.0
2019/01/19 03:11:00.000   47.480971647   19.056536439   191.9479   5  11   1.1738   0.9669   0.3118   0.9355   0.9355   1.3778   0.00    0.0
2019/01/19 03:11:30.000   47.480972171   19.056536007   192.0343   5  11   1.1732   0.9677   0.3162   0.9371   0.9371   1.3763   0.00    0.0
2019/01/19 03:12:00.000   47.480972080   19.056535966   191.7722   5  11   1.1725   0.9684   0.3205   0.9384   0.9384   1.3747   0.00    0.0
2019/01/19 03:12:30.000   47.480971411   19.056536075   191.5111   5  11   1.1717   0.9690   0.3247   0.9395   0.9395   1.3729   0.00    0.0
2019/01/19 03:13:00.000   47.480969784   19.056535990   191.4782   5  11   1.1709   0.9694   0.3289   0.9404   0.9404   1.3711   0.00    0.0
2019/01/19 03:13:30.000   47.480968465   19.056536880   191.5828   5  11   1.1701   0.9698   0.3330   0.9410   0.9410   1.3690   0.00    0.0
2019/01/19 03:14:00.000   47.480968568   19.056538354   191.5189   5  11   1.1691   0.9700   0.3370   0.9415   0.9415   1.3668   0.00    0.0
2019/01/19 03:14:30.000   47.480968555   19.056538726   191.2689   5  11   1.1681   0.9701   0.3409   0.9417   0.9417   1.3645   0.00    0.0
2019/01/19 03:15:00.000   47.480967653   19.056538785   191.0966   5  11   1.1671   0.9701   0.3448   0.9417   0.9417   1.3621   0.00    0.0
2019/01/19 03:15:30.000   47.480966313   19.056538074   190.8953   5  11   1.1660   0.9700   0.3485   0.9414   0.9414   1.3594   0.00    0.0
2019/01/19 03:16:00.000   47.480965493   19.056537721   190.7539   5  11   1.1648   0.9698   0.3522   0.9410   0.9410   1.3567   0.00    0.0
2019/01/19 03:16:30.000   47.480965810   19.056538275   190.1098   5  11   1.1635   0.9694   0.3559   0.9403   0.9403   1.3538   0.00    0.0
2019/01/19 03:17:00.000   47.480967603   19.056537529   189.3388   5  11   1.1622   0.9689   0.3594   0.9393   0.9393   1.3508   0.00    0.0
2019/01/19 03:17:30.000   47.480968749   19.056537273   188.8559   5  11   1.1609   0.9683   0.3629   0.9382   0.9382   1.3476   0.00    0.0
2019/01/19 03:18:00.000   47.480967611   19.056537816   188.9041   5  11   1.1594   0.9676   0.3664   0.9368   0.9368   1.3443   0.00    0.0
2019/01/19 03:18:30.000   47.480966275   19.056538383   189.1934   5  11   1.1580   0.9668   0.3697   0.9352   0.9352   1.3409   0.00    0.0
2019/01/19 03:19:00.000   47.480965395   19.056538506   189.4919   5  11   1.1564   0.9658   0.3730   0.9334   0.9334   1.3373   0.00    0.0
2019/01/19 03:19:30.000   47.480967276   19.056538840   189.5132   5  11   1.1548   0.9648   0.3763   0.9313   0.9313   1.3336   0.00    0.0
2019/01/19 03:20:00.000   47.480968174   19.056538452   189.5798   5  11   1.1531   0.9636   0.3794   0.9291   0.9291   1.3297   0.00    0.0
2019/01/19 03:20:30.000   47.480967598   19.056537654   189.9586   5  11   1.1514   0.9623   0.3825   0.9266   0.9266   1.3258   0.00    0.0
2019/01/19 03:21:00.000   47.480965982   19.056536621   190.1457   5  11   1.1497   0.9609   0.3855   0.9238   0.9238   1.3217   0.00    0.0
2019/01/19 03:21:30.000   47.480964137   19.056536087   190.2519   5  11   1.1478   0.9594   0.3885   0.9209   0.9209   1.3175   0.00    0.0
2019/01/19 03:22:00.000   47.480963210   19.056535949   190.2078   5  11   1.1460   0.9577   0.3914   0.9178   0.9178   1.3132   0.00    0.0
2019/01/19 03:22:30.000   47.480963464   19.056537024   190.1203   5  11   1.1440   0.9560   0.3942   0.9144   0.9144   1.3088   0.00    0.0
2019/01/19 03:23:00.000   47.480963750   19.056537960   189.6687   5  11   1.1420   0.9541   0.3970   0.9109   0.9109   1.3042   0.00    0.0
2019/01/19 03:23:30.000   47.480963499   19.056536906   189.0758   5  11   1.1400   0.9522   0.3997   0.9071   0.9071   1.2996   0.00    0.0
2019/01/19 03:24:00.000   47.480963609   19.056535978   188.9500   5  11   1.1379   0.9501   0.4024   0.9031   0.9031   1.2948   0.00    0.0
2019/01/19 03:24:30.000   47.480963962   19.056534984   189.1835   5  11   1.1358   0.9479   0.4050   0.8990   0.8990   1.2900   0.00    0.0
2019/01/19 03:25:00.000   47.480964572   19.056535065   189.2968   5  11   1.1336   0.9456   0.4075   0.8946   0.8946   1.2850   0.00    0.0
2019/01/19 03:25:30.000   47.480964197   19.056535281   189.6272   5  11   1.1314   0.9432   0.4100   0.8901   0.8901   1.2800   0.00    0.0
2019/01/19 03:26:00.000   47.480965465   19.056535883   189.6422   5  11   1.1291   0.9407   0.4124   0.8854   0.8854   1.2749   0.00    0.0
2019/01/19 03:26:30.000   47.480966957   19.056535523   189.2873   5  11   1.1268   0.9381   0.4148   0.8805   0.8805   1.2696   0.00    0.0
2019/01/19 03:27:00.000   47.480966167   19.056535952   189.3489   5  11   1.1244   0.9354   0.4171   0.8754   0.8754   1.2643   0.00    0.0
2019/01/19 03:27:30.000   47.480964954   19.056535491   189.6693   5  11   1.1220   0.9326   0.4193   0.8702   0.8702   1.2590   0.00    0.0
2019/01/19 03:28:00.000   47.480963835   19.056537177   190.0839   5  11   1.1196   0.9297   0.4215   0.8648   0.8648   1.2535   0.00    0.0
2019/01/19 03:28:30.000   47.480963586   19.056539835   190.2602   5  11   1.1172   0.9267   0.4237   0.8593   0.8593   1.2480   0.00    0.0
2019/01/19 03:29:00.000   47.480964035   19.056540108   190.3364   5  11   1.1147   0.9236   0.4258   0.8536   0.8536   1.2425   0.00    0.0
2019/01/19 03:29:30.000   47.480964911   19.056538262   190.2352   5  11   1.1121   0.9205   0.4278   0.8478   0.8478   1.2368   0.00    0.0
