% program   : RTKPOST ver.2.4.3 b31
% inp file  : C:\Users\lus2bp\Source\Repos\GINA\70_EGNOS_Project\files\PositionComparisonInputFiles\bute0190\bute0190.19o
% inp file  : C:\Users\lus2bp\Source\Repos\GINA\70_EGNOS_Project\files\PositionComparisonInputFiles\bute0190\brdc0190.19n
% inp file  : C:\Users\lus2bp\Source\Repos\GINA\70_EGNOS_Project\files\PositionComparisonInputFiles\bute0190\y2019_d019_136.ems
% obs start : 2019/01/19 00:00:00.0 GPST (week2036 518400.0s)
% obs end   : 2019/01/19 23:59:30.0 GPST (week2036 604770.0s)
% pos mode  : single
% elev mask : 10.0 deg
% ionos opt : sbas
% tropo opt : saastamoinen
% ephemeris : broadcast
%
% (lat/lon/height=WGS84/ellipsoidal,Q=1:fix,2:float,3:sbas,4:dgps,5:single,6:ppp,ns=# of satellites)
%  GPST                  latitude(deg) longitude(deg)  height(m)   Q  ns   sdn(m)   sde(m)   sdu(m)  sdne(m)  sdeu(m)  sdun(m) age(s)  ratio
2019/01/19 00:00:00.000   47.480945230   19.056536527   178.2755   5   8   2.3071   1.6269   4.3501   0.6716   0.6967   2.1376   0.00    0.0
2019/01/19 00:00:30.000   47.480946928   19.056536357   178.3631   5   8   2.3084   1.6266   4.3733   0.6606   0.6977   2.1510   0.00    0.0
2019/01/19 00:01:00.000   47.480948684   19.056537245   178.5684   5   8   2.3097   1.6263   4.3963   0.6495   0.6986   2.1640   0.00    0.0
2019/01/19 00:01:30.000   47.480948891   19.056539228   178.5291   5   8   2.3108   1.6261   4.4191   0.6381   0.6994   2.1768   0.00    0.0
2019/01/19 00:02:00.000   47.480949417   19.056538271   178.5998   5   8   2.3119   1.6260   4.4418   0.6265   0.7002   2.1892   0.00    0.0
2019/01/19 00:02:30.000   47.480950338   19.056537102   179.2857   5   8   2.3128   1.6259   4.4642   0.6147   0.7009   2.2012   0.00    0.0
2019/01/19 00:03:00.000   47.480949132   19.056525275   182.0905   5   6   3.5653   4.2048   6.4898   3.1844  -3.2897   1.1074   0.00    0.0
2019/01/19 00:03:30.000   47.480950206   19.056523924   181.2879   5   6   3.5390   4.1881   6.5343   3.1526  -3.3183   1.1048   0.00    0.0
2019/01/19 00:04:00.000   47.480948768   19.056520888   180.6878   5   6   3.5131   4.1721   6.5810   3.1214  -3.3478   1.0982   0.00    0.0
2019/01/19 00:04:30.000   47.480947395   19.056520358   180.5957   5   6   3.4875   4.1569   6.6279   3.0907  -3.3777   1.0893   0.00    0.0
2019/01/19 00:05:00.000   47.480946441   19.056521760   180.2766   5   6   3.4622   4.1424   6.6749   3.0604  -3.4082   1.0782   0.00    0.0
2019/01/19 00:05:30.000   47.480944499   19.056524223   180.4802   5   6   3.4372   4.1286   6.7220   3.0308  -3.4391   1.0646   0.00    0.0
2019/01/19 00:06:00.000   47.480942071   19.056523643   180.9025   5   6   3.4125   4.1156   6.7692   3.0016  -3.4704   1.0486   0.00    0.0
2019/01/19 00:06:30.000   47.480944857   19.056530972   180.6593   5   7   2.3300   2.4504   6.7159   0.8616  -2.9027   1.9824   0.00    0.0
2019/01/19 00:07:00.000   47.480945613   19.056531122   180.4999   5   7   2.3287   2.4452   6.7522   0.8409  -2.9064   2.0024   0.00    0.0
2019/01/19 00:07:30.000   47.480947031   19.056528595   180.5060   5   7   2.3273   2.4399   6.7876   0.8202  -2.9096   2.0212   0.00    0.0
2019/01/19 00:08:00.000   47.480947721   19.056525951   180.5897   5   7   2.3259   2.4347   6.8219   0.7997  -2.9124   2.0390   0.00    0.0
2019/01/19 00:08:30.000   47.480947135   19.056524113   181.1776   5   7   2.3244   2.4294   6.8552   0.7793  -2.9147   2.0556   0.00    0.0
2019/01/19 00:09:00.000   47.480946593   19.056522196   181.6530   5   7   2.3228   2.4240   6.8874   0.7590  -2.9165   2.0711   0.00    0.0
2019/01/19 00:09:30.000   47.480946833   19.056532119   179.9025   5   8   2.3116   1.6180   4.7096   0.4096   0.7727   2.3269   0.00    0.0
2019/01/19 00:10:00.000   47.480946611   19.056533494   180.2419   5   8   2.3105   1.6190   4.7263   0.3915   0.7721   2.3320   0.00    0.0
2019/01/19 00:10:30.000   47.480947846   19.056533029   180.4423   5   8   2.3091   1.6201   4.7424   0.3725   0.7715   2.3365   0.00    0.0
2019/01/19 00:11:00.000   47.480949032   19.056531357   180.1156   5   8   2.3076   1.6212   4.7580   0.3525   0.7709   2.3404   0.00    0.0
2019/01/19 00:11:30.000   47.480949353   19.056531815   179.6720   5   8   2.3059   1.6223   4.7729   0.3313   0.7704   2.3437   0.00    0.0
2019/01/19 00:12:00.000   47.480949588   19.056533738   179.5963   5   8   2.3041   1.6235   4.7871   0.3087   0.7699   2.3465   0.00    0.0
2019/01/19 00:12:30.000   47.480949341   19.056534237   179.3328   5   8   2.3020   1.6247   4.8007   0.2842   0.7696   2.3487   0.00    0.0
2019/01/19 00:13:00.000   47.480949612   19.056535535   179.1306   5   8   2.2998   1.6260   4.8136   0.2575   0.7692   2.3503   0.00    0.0
2019/01/19 00:13:30.000   47.480949063   19.056539407   179.3625   5   8   2.2973   1.6273   4.8258   0.2276   0.7689   2.3512   0.00    0.0
2019/01/19 00:14:00.000   47.480949460   19.056540809   179.5350   5   8   2.2947   1.6287   4.8373   0.1932   0.7687   2.3516   0.00    0.0
2019/01/19 00:14:30.000   47.480950631   19.056541173   179.6145   5   8   2.2919   1.6301   4.8481   0.1512   0.7685   2.3513   0.00    0.0
2019/01/19 00:15:00.000   47.480951225   19.056540778   179.5404   5   8   2.2889   1.6316   4.8581   0.0918   0.7685   2.3504   0.00    0.0
2019/01/19 00:15:30.000   47.480950896   19.056539069   179.2387   5   8   2.2857   1.6331   4.8673  -0.0774   0.7686   2.3489   0.00    0.0
2019/01/19 00:16:00.000   47.480951340   19.056537368   179.1198   5   8   2.2823   1.6347   4.8758  -0.1428   0.7688   2.3468   0.00    0.0
2019/01/19 00:16:30.000   47.480951801   19.056535762   178.4384   5   8   2.2788   1.6363   4.8836  -0.1865   0.7690   2.3440   0.00    0.0
2019/01/19 00:17:00.000   47.480950468   19.056537402   178.0081   5   8   2.2750   1.6379   4.8905  -0.2217   0.7694   2.3405   0.00    0.0
2019/01/19 00:17:30.000   47.480949567   19.056537036   177.9849   5   8   2.2711   1.6396   4.8967  -0.2519   0.7699   2.3365   0.00    0.0
2019/01/19 00:18:00.000   47.480949293   19.056537159   178.0482   5   8   2.2670   1.6414   4.9021  -0.2789   0.7706   2.3318   0.00    0.0
2019/01/19 00:18:30.000   47.480948895   19.056538387   178.1664   5   8   2.2628   1.6432   4.9067  -0.3034   0.7714   2.3264   0.00    0.0
2019/01/19 00:19:00.000   47.480948522   19.056539008   178.1347   5   7   2.2651   2.3033   7.2042   0.4207  -2.8110   2.1114   0.00    0.0
2019/01/19 00:19:30.000   47.480947861   19.056537880   178.0158   5   7   2.2609   2.2965   7.2010   0.4092  -2.7978   2.0992   0.00    0.0
2019/01/19 00:20:00.000   47.480947853   19.056535856   178.2603   5   7   2.2566   2.2897   7.1960   0.3984  -2.7837   2.0855   0.00    0.0
2019/01/19 00:20:30.000   47.480948342   19.056534939   178.2304   5   7   2.2521   2.2828   7.1892   0.3883  -2.7689   2.0705   0.00    0.0
2019/01/19 00:21:00.000   47.480948142   19.056535164   178.2881   5   7   2.2476   2.2759   7.1806   0.3789  -2.7534   2.0542   0.00    0.0
2019/01/19 00:21:30.000   47.480946699   19.056536354   178.9635   5   7   2.2430   2.2689   7.1702   0.3701  -2.7371   2.0366   0.00    0.0
2019/01/19 00:22:00.000   47.480946006   19.056538324   179.1352   5   8   2.2285   1.6569   4.9167  -0.4371   0.7816   2.2713   0.00    0.0
2019/01/19 00:22:30.000   47.480945579   19.056539825   179.1633   5   8   2.2231   1.6591   4.9149  -0.4528   0.7837   2.2609   0.00    0.0
2019/01/19 00:23:00.000   47.480946746   19.056538088   178.9926   5   8   2.2175   1.6613   4.9125  -0.4680   0.7860   2.2500   0.00    0.0
2019/01/19 00:23:30.000   47.480947604   19.056535931   178.7242   5   8   2.2119   1.6635   4.9093  -0.4826   0.7886   2.2384   0.00    0.0
2019/01/19 00:24:00.000   47.480948029   19.056535330   178.6936   5   8   2.2061   1.6658   4.9053  -0.4968   0.7913   2.2263   0.00    0.0
2019/01/19 00:24:30.000   47.480947702   19.056535792   178.6587   5   8   2.2002   1.6681   4.9007  -0.5106   0.7942   2.2137   0.00    0.0
2019/01/19 00:25:00.000   47.480946844   19.056538829   178.8731   5   8   2.1943   1.6705   4.8953  -0.5240   0.7973   2.2004   0.00    0.0
2019/01/19 00:25:30.000   47.480946527   19.056541534   179.2068   5   8   2.1883   1.6729   4.8892  -0.5370   0.8005   2.1867   0.00    0.0
2019/01/19 00:26:00.000   47.480945465   19.056540437   179.3926   5   8   2.1822   1.6754   4.8824  -0.5497   0.8040   2.1723   0.00    0.0
2019/01/19 00:26:30.000   47.480945450   19.056537809   179.0801   5   8   2.1760   1.6779   4.8750  -0.5621   0.8077   2.1575   0.00    0.0
2019/01/19 00:27:00.000   47.480945243   19.056534935   178.9679   5   8   2.1698   1.6805   4.8670  -0.5742   0.8115   2.1421   0.00    0.0
2019/01/19 00:27:30.000   47.480945376   19.056534116   179.1278   5   8   2.1635   1.6831   4.8583  -0.5860   0.8156   2.1263   0.00    0.0
2019/01/19 00:28:00.000   47.480946668   19.056532252   179.1374   5   8   2.1572   1.6857   4.8490  -0.5976   0.8198   2.1099   0.00    0.0
2019/01/19 00:28:30.000   47.480947577   19.056531451   179.0960   5   8   2.1509   1.6884   4.8391  -0.6090   0.8242   2.0931   0.00    0.0
2019/01/19 00:29:00.000   47.480948582   19.056529298   179.0111   5   8   2.1446   1.6911   4.8286  -0.6201   0.8288   2.0758   0.00    0.0
2019/01/19 00:29:30.000   47.480950041   19.056530102   178.9308   5   8   2.1382   1.6939   4.8176  -0.6310   0.8335   2.0581   0.00    0.0
2019/01/19 00:30:00.000   47.480951072   19.056531210   178.8498   5   8   2.1319   1.6967   4.8061  -0.6418   0.8384   2.0399   0.00    0.0
2019/01/19 00:30:30.000   47.480950245   19.056533381   178.8861   5   8   2.1255   1.6996   4.7941  -0.6523   0.8435   2.0212   0.00    0.0
2019/01/19 00:31:00.000   47.480948452   19.056535912   179.1427   5   8   2.1192   1.7025   4.7816  -0.6627   0.8488   2.0022   0.00    0.0
2019/01/19 00:31:30.000   47.480949385   19.056531901   179.0379   5   8   2.1129   1.7054   4.7686  -0.6730   0.8542   1.9828   0.00    0.0
2019/01/19 00:32:00.000   47.480947838   19.056531775   178.9846   5   8   2.1066   1.7084   4.7552  -0.6831   0.8597   1.9629   0.00    0.0
2019/01/19 00:32:30.000   47.480944905   19.056533355   178.7903   5   8   2.1003   1.7114   4.7414  -0.6930   0.8655   1.9427   0.00    0.0
2019/01/19 00:33:00.000   47.480942755   19.056535272   178.7687   5   8   2.0941   1.7145   4.7272  -0.7028   0.8713   1.9221   0.00    0.0
2019/01/19 00:33:30.000   47.480942144   19.056537050   179.0026   5   8   2.0880   1.7177   4.7126  -0.7125   0.8773   1.9012   0.00    0.0
2019/01/19 00:34:00.000   47.480942532   19.056537982   179.2112   5   8   2.0819   1.7208   4.6976  -0.7221   0.8834   1.8799   0.00    0.0
2019/01/19 00:34:30.000   47.480944145   19.056535729   179.1001   5   8   2.0758   1.7240   4.6823  -0.7316   0.8896   1.8582   0.00    0.0
2019/01/19 00:35:00.000   47.480944661   19.056534947   179.3630   5   8   2.0698   1.7273   4.6667  -0.7409   0.8960   1.8363   0.00    0.0
2019/01/19 00:35:30.000   47.480944152   19.056533369   179.5118   5   8   2.0639   1.7306   4.6508  -0.7502   0.9025   1.8140   0.00    0.0
2019/01/19 00:36:00.000   47.480943869   19.056531898   179.3041   5   8   2.0581   1.7340   4.6347  -0.7594   0.9091   1.7914   0.00    0.0
2019/01/19 00:36:30.000   47.480943821   19.056530280   179.1436   5   8   2.0524   1.7374   4.6182  -0.7685   0.9157   1.7684   0.00    0.0
2019/01/19 00:37:00.000   47.480943565   19.056529365   179.1399   5   8   2.0468   1.7408   4.6016  -0.7775   0.9225   1.7452   0.00    0.0
2019/01/19 00:37:30.000   47.480943473   19.056528874   179.2245   5   8   2.0412   1.7443   4.5847  -0.7865   0.9294   1.7217   0.00    0.0
2019/01/19 00:38:00.000   47.480943392   19.056531541   179.4628   5   8   2.0358   1.7478   4.5677  -0.7954   0.9364   1.6979   0.00    0.0
2019/01/19 00:38:30.000   47.480944793   19.056532852   179.7740   5   8   2.0305   1.7514   4.5504  -0.8042   0.9434   1.6739   0.00    0.0
2019/01/19 00:39:00.000   47.480945093   19.056532937   179.8807   5   8   2.0252   1.7550   4.5331  -0.8129   0.9505   1.6495   0.00    0.0
2019/01/19 00:39:30.000   47.480944290   19.056532125   179.8363   5   8   2.0201   1.7586   4.5155  -0.8216   0.9577   1.6249   0.00    0.0
2019/01/19 00:40:00.000   47.480945056   19.056529620   179.6578   5   8   2.0151   1.7623   4.4979  -0.8303   0.9650   1.6000   0.00    0.0
2019/01/19 00:40:30.000   47.480945181   19.056530215   179.7834   5   8   2.0102   1.7661   4.4801  -0.8389   0.9723   1.5748   0.00    0.0
2019/01/19 00:41:00.000   47.480945052   19.056533837   179.8974   5   8   2.0055   1.7699   4.4623  -0.8474   0.9797   1.5494   0.00    0.0
2019/01/19 00:41:30.000   47.480945644   19.056534294   179.4961   5   8   2.0009   1.7737   4.4443  -0.8559   0.9871   1.5237   0.00    0.0
2019/01/19 00:42:00.000   47.480943979   19.056535755   179.4460   5   8   1.9964   1.7776   4.4263  -0.8644   0.9946   1.4977   0.00    0.0
2019/01/19 00:42:30.000   47.480942458   19.056536153   179.5857   5   8   1.9920   1.7815   4.4082  -0.8728   1.0022   1.4714   0.00    0.0
2019/01/19 00:43:00.000   47.480943186   19.056534815   179.7949   5   8   1.9877   1.7855   4.3902  -0.8812   1.0097   1.4449   0.00    0.0
2019/01/19 00:43:30.000   47.480945299   19.056534452   179.9789   5   8   1.9836   1.7895   4.3720  -0.8895   1.0173   1.4181   0.00    0.0
2019/01/19 00:44:00.000   47.480948346   19.056532286   179.9838   5   8   1.9797   1.7935   4.3539  -0.8979   1.0250   1.3910   0.00    0.0
2019/01/19 00:44:30.000   47.480949828   19.056529516   179.6920   5   8   1.9758   1.7976   4.3358  -0.9062   1.0326   1.3636   0.00    0.0
2019/01/19 00:45:00.000   47.480949227   19.056530528   179.5194   5   8   1.9721   1.8018   4.3177  -0.9145   1.0403   1.3359   0.00    0.0
2019/01/19 00:45:30.000   47.480948869   19.056532823   179.6131   5   8   1.9685   1.8059   4.2996  -0.9227   1.0481   1.3078   0.00    0.0
2019/01/19 00:46:00.000   47.480949243   19.056533410   179.8488   5   8   1.9651   1.8102   4.2815  -0.9309   1.0558   1.2795   0.00    0.0
2019/01/19 00:46:30.000   47.480949019   19.056534140   179.9743   5   8   1.9618   1.8144   4.2635  -0.9391   1.0635   1.2508   0.00    0.0
2019/01/19 00:47:00.000   47.480949336   19.056530773   179.5921   5   9   1.9573   1.6371   3.6655  -0.9777  -0.7411   1.1551   0.00    0.0
2019/01/19 00:47:30.000   47.480948786   19.056530825   179.7657   5   9   1.9547   1.6387   3.6575  -0.9803  -0.7278   1.1374   0.00    0.0
2019/01/19 00:48:00.000   47.480948827   19.056530463   179.8237   5   9   1.9522   1.6402   3.6493  -0.9830  -0.7141   1.1194   0.00    0.0
2019/01/19 00:48:30.000   47.480950006   19.056528052   179.9099   5   9   1.9498   1.6418   3.6411  -0.9856  -0.6999   1.1011   0.00    0.0
2019/01/19 00:49:00.000   47.480950772   19.056528116   179.8336   5   9   1.9474   1.6434   3.6328  -0.9882  -0.6853   1.0824   0.00    0.0
2019/01/19 00:49:30.000   47.480951073   19.056529525   179.9176   5   9   1.9450   1.6450   3.6244  -0.9908  -0.6701   1.0635   0.00    0.0
2019/01/19 00:50:00.000   47.480949814   19.056530463   179.9092   5   9   1.9427   1.6467   3.6160  -0.9934  -0.6545   1.0442   0.00    0.0
2019/01/19 00:50:30.000   47.480949028   19.056531947   180.0940   5   9   1.9404   1.6483   3.6075  -0.9961  -0.6383   1.0246   0.00    0.0
2019/01/19 00:51:00.000   47.480949182   19.056532318   180.1037   5   9   1.9382   1.6500   3.5990  -0.9987  -0.6216   1.0046   0.00    0.0
2019/01/19 00:51:30.000   47.480949078   19.056533078   180.2405   5   9   1.9361   1.6518   3.5905  -1.0013  -0.6042   0.9842   0.00    0.0
2019/01/19 00:52:00.000   47.480947185   19.056534656   180.2016   5   9   1.9339   1.6535   3.5819  -1.0040  -0.5861   0.9635   0.00    0.0
2019/01/19 00:52:30.000   47.480946057   19.056534509   180.1437   5   9   1.9319   1.6553   3.5732  -1.0066  -0.5674   0.9424   0.00    0.0
2019/01/19 00:53:00.000   47.480945356   19.056534092   180.0740   5   9   1.9299   1.6570   3.5646  -1.0093  -0.5479   0.9208   0.00    0.0
2019/01/19 00:53:30.000   47.480946349   19.056533951   179.9438   5   9   1.9279   1.6589   3.5559  -1.0119  -0.5275   0.8989   0.00    0.0
2019/01/19 00:54:00.000   47.480947540   19.056534804   179.8300   5   9   1.9260   1.6607   3.5472  -1.0146  -0.5062   0.8764   0.00    0.0
2019/01/19 00:54:30.000   47.480948060   19.056536215   179.8042   5   9   1.9242   1.6626   3.5384  -1.0173  -0.4838   0.8535   0.00    0.0
2019/01/19 00:55:00.000   47.480947171   19.056536564   179.8694   5   9   1.9224   1.6645   3.5297  -1.0200  -0.4603   0.8300   0.00    0.0
2019/01/19 00:55:30.000   47.480946319   19.056535280   179.7208   5   9   1.9207   1.6664   3.5209  -1.0228  -0.4353   0.8060   0.00    0.0
2019/01/19 00:56:00.000   47.480945795   19.056535032   179.7689   5   9   1.9190   1.6683   3.5121  -1.0255  -0.4088   0.7813   0.00    0.0
2019/01/19 00:56:30.000   47.480944365   19.056534137   179.9677   5   9   1.9174   1.6703   3.5033  -1.0283  -0.3802   0.7560   0.00    0.0
2019/01/19 00:57:00.000   47.480944042   19.056533457   179.8721   5   9   1.9159   1.6723   3.4945  -1.0311  -0.3493   0.7300   0.00    0.0
2019/01/19 00:57:30.000   47.480944844   19.056533352   179.5165   5   9   1.9144   1.6743   3.4858  -1.0339  -0.3153   0.7032   0.00    0.0
2019/01/19 00:58:00.000   47.480945321   19.056532816   179.2148   5   9   1.9130   1.6764   3.4770  -1.0367  -0.2770   0.6754   0.00    0.0
2019/01/19 00:58:30.000   47.480944807   19.056532490   178.8449   5   9   1.9116   1.6785   3.4682  -1.0395  -0.2324   0.6467   0.00    0.0
2019/01/19 00:59:00.000   47.480944335   19.056531731   178.6704   5   9   1.9103   1.6806   3.4594  -1.0424  -0.1769   0.6169   0.00    0.0
2019/01/19 00:59:30.000   47.480946099   19.056531747   178.3672   5   9   1.9090   1.6827   3.4507  -1.0453  -0.0923   0.5857   0.00    0.0
2019/01/19 01:00:00.000   47.480948723   19.056533597   179.2852   5   9   1.9020   1.5763   3.2911  -1.0049  -0.7652   0.6756   0.00    0.0
2019/01/19 01:00:30.000   47.480950420   19.056532362   179.6936   5   9   1.9003   1.5767   3.2845  -1.0056  -0.7503   0.6520   0.00    0.0
2019/01/19 01:01:00.000   47.480952618   19.056531186   179.6863   5   9   1.8987   1.5771   3.2779  -1.0062  -0.7351   0.6277   0.00    0.0
2019/01/19 01:01:30.000   47.480953510   19.056529936   179.6883   5   9   1.8971   1.5776   3.2712  -1.0069  -0.7196   0.6024   0.00    0.0
2019/01/19 01:02:00.000   47.480953347   19.056529973   179.7764   5   9   1.8955   1.5781   3.2646  -1.0076  -0.7036   0.5762   0.00    0.0
2019/01/19 01:02:30.000   47.480952332   19.056529967   179.8491   5   9   1.8940   1.5786   3.2580  -1.0084  -0.6873   0.5488   0.00    0.0
2019/01/19 01:03:00.000   47.480951668   19.056530459   180.0897   5   9   1.8925   1.5791   3.2513  -1.0091  -0.6706   0.5202   0.00    0.0
2019/01/19 01:03:30.000   47.480950716   19.056532882   180.4416   5   9   1.8911   1.5796   3.2447  -1.0099  -0.6534   0.4901   0.00    0.0
2019/01/19 01:04:00.000   47.480951207   19.056533090   180.7423   5   9   1.8897   1.5802   3.2381  -1.0107  -0.6357   0.4583   0.00    0.0
2019/01/19 01:04:30.000   47.480950899   19.056532867   181.1148   5   9   1.8883   1.5808   3.2314  -1.0115  -0.6175   0.4242   0.00    0.0
2019/01/19 01:05:00.000   47.480948880   19.056532086   181.1985   5   9   1.8870   1.5815   3.2248  -1.0123  -0.5987   0.3875   0.00    0.0
2019/01/19 01:05:30.000   47.480948920   19.056529930   181.0906   5   9   1.8858   1.5822   3.2182  -1.0132  -0.5794   0.3472   0.00    0.0
2019/01/19 01:06:00.000   47.480949919   19.056526829   180.9723   5   9   1.8845   1.5829   3.2116  -1.0141  -0.5593   0.3019   0.00    0.0
2019/01/19 01:06:30.000   47.480950304   19.056525046   180.8992   5   9   1.8834   1.5836   3.2050  -1.0150  -0.5386   0.2489   0.00    0.0
2019/01/19 01:07:00.000   47.480951234   19.056525213   180.9594   5   9   1.8822   1.5844   3.1985  -1.0160  -0.5170   0.1816   0.00    0.0
2019/01/19 01:07:30.000   47.480951176   19.056525344   181.1200   5   9   1.8811   1.5852   3.1919  -1.0169  -0.4946   0.0651   0.00    0.0
2019/01/19 01:08:00.000   47.480951878   19.056526025   180.9931   5   9   1.8801   1.5860   3.1854  -1.0179  -0.4711  -0.1557   0.00    0.0
2019/01/19 01:08:30.000   47.480952960   19.056525514   180.6131   5   9   1.8791   1.5868   3.1789  -1.0189  -0.4464  -0.2291   0.00    0.0
2019/01/19 01:09:00.000   47.480954983   19.056524681   180.4296   5   9   1.8781   1.5877   3.1724  -1.0200  -0.4203  -0.2837   0.00    0.0
2019/01/19 01:09:30.000   47.480956174   19.056524679   180.2315   5   9   1.8772   1.5886   3.1659  -1.0210  -0.3926  -0.3290   0.00    0.0
2019/01/19 01:10:00.000   47.480956315   19.056525523   180.0956   5   9   1.8763   1.5896   3.1595  -1.0221  -0.3629  -0.3684   0.00    0.0
2019/01/19 01:10:30.000   47.480955970   19.056527488   180.0067   5   9   1.8755   1.5906   3.1531  -1.0232  -0.3306  -0.4037   0.00    0.0
2019/01/19 01:11:00.000   47.480954208   19.056531013   180.1521   5   9   1.8747   1.5916   3.1467  -1.0244  -0.2948  -0.4358   0.00    0.0
2019/01/19 01:11:30.000   47.480952119   19.056531592   180.1328   5   9   1.8740   1.5926   3.1404  -1.0256  -0.2543  -0.4654   0.00    0.0
2019/01/19 01:12:00.000   47.480951290   19.056530524   179.8847   5   9   1.8733   1.5937   3.1341  -1.0268  -0.2061  -0.4929   0.00    0.0
2019/01/19 01:12:30.000   47.480950170   19.056529763   179.4820   5   9   1.8726   1.5948   3.1278  -1.0280  -0.1427  -0.5188   0.00    0.0
2019/01/19 01:13:00.000   47.480949165   19.056528812   179.4914   5   9   1.8720   1.5959   3.1215  -1.0292   0.0406  -0.5431   0.00    0.0
2019/01/19 01:13:30.000   47.480949718   19.056529230   179.5590   5   9   1.8715   1.5971   3.1153  -1.0305   0.1535  -0.5661   0.00    0.0
2019/01/19 01:14:00.000   47.480950154   19.056529042   179.8191   5   9   1.8710   1.5983   3.1091  -1.0318   0.2131  -0.5880   0.00    0.0
2019/01/19 01:14:30.000   47.480952601   19.056527656   179.9913   5   9   1.8705   1.5996   3.1030  -1.0331   0.2591  -0.6089   0.00    0.0
2019/01/19 01:15:00.000   47.480954125   19.056526958   180.1494   5   9   1.8700   1.6008   3.0968  -1.0345   0.2979  -0.6288   0.00    0.0
2019/01/19 01:15:30.000   47.480954477   19.056528451   180.2869   5   9   1.8697   1.6021   3.0908  -1.0359   0.3321  -0.6479   0.00    0.0
2019/01/19 01:16:00.000   47.480954513   19.056530342   180.3819   5   9   1.8693   1.6034   3.0847  -1.0373   0.3629  -0.6662   0.00    0.0
2019/01/19 01:16:30.000   47.480955608   19.056531173   180.3417   5   9   1.8690   1.6048   3.0788  -1.0387   0.3912  -0.6838   0.00    0.0
2019/01/19 01:17:00.000   47.480956040   19.056530988   180.4306   5   9   1.8688   1.6062   3.0728  -1.0401   0.4174  -0.7007   0.00    0.0
2019/01/19 01:17:30.000   47.480957275   19.056531842   180.3914   5   9   1.8686   1.6076   3.0669  -1.0416   0.4419  -0.7170   0.00    0.0
2019/01/19 01:18:00.000   47.480957349   19.056531514   180.4230   5   9   1.8684   1.6091   3.0610  -1.0431   0.4650  -0.7328   0.00    0.0
2019/01/19 01:18:30.000   47.480957585   19.056531612   180.4010   5   9   1.8683   1.6105   3.0552  -1.0446   0.4869  -0.7480   0.00    0.0
2019/01/19 01:19:00.000   47.480957712   19.056532047   180.2595   5   9   1.8682   1.6121   3.0495  -1.0461   0.5077  -0.7627   0.00    0.0
2019/01/19 01:19:30.000   47.480958459   19.056529425   180.1412   5   9   1.8681   1.6136   3.0437  -1.0477   0.5276  -0.7769   0.00    0.0
2019/01/19 01:20:00.000   47.480957863   19.056528038   180.1982   5   9   1.8682   1.6152   3.0381  -1.0492   0.5466  -0.7906   0.00    0.0
2019/01/19 01:20:30.000   47.480949529   19.056533625   179.4211   5  10   1.6644   1.5101   2.8998  -0.7836   0.9118  -1.1828   0.00    0.0
2019/01/19 01:21:00.000   47.480949077   19.056532424   179.6074   5  10   1.6642   1.5113   2.8993  -0.7848   0.9180  -1.1856   0.00    0.0
2019/01/19 01:21:30.000   47.480948358   19.056531203   179.8355   5  10   1.6640   1.5125   2.8987  -0.7860   0.9240  -1.1882   0.00    0.0
2019/01/19 01:22:00.000   47.480947552   19.056530065   179.8704   5  10   1.6638   1.5138   2.8981  -0.7872   0.9299  -1.1908   0.00    0.0
2019/01/19 01:22:30.000   47.480947026   19.056528899   179.9842   5  10   1.6637   1.5151   2.8975  -0.7884   0.9357  -1.1932   0.00    0.0
2019/01/19 01:23:00.000   47.480947056   19.056527686   179.9387   5  10   1.6636   1.5164   2.8968  -0.7895   0.9414  -1.1955   0.00    0.0
2019/01/19 01:23:30.000   47.480947399   19.056525887   179.8979   5  10   1.6635   1.5177   2.8960  -0.7907   0.9470  -1.1976   0.00    0.0
2019/01/19 01:24:00.000   47.480947503   19.056527765   179.9780   5  10   1.6635   1.5191   2.8952  -0.7918   0.9525  -1.1997   0.00    0.0
2019/01/19 01:24:30.000   47.480948658   19.056530117   179.9453   5  10   1.6635   1.5204   2.8943  -0.7929   0.9579  -1.2016   0.00    0.0
2019/01/19 01:25:00.000   47.480950454   19.056533049   179.6605   5  10   1.6635   1.5218   2.8934  -0.7940   0.9631  -1.2034   0.00    0.0
2019/01/19 01:25:30.000   47.480952017   19.056534904   179.2237   5  10   1.6636   1.5232   2.8925  -0.7951   0.9683  -1.2051   0.00    0.0
2019/01/19 01:26:00.000   47.480952607   19.056535173   178.8066   5  10   1.6637   1.5246   2.8915  -0.7962   0.9734  -1.2067   0.00    0.0
2019/01/19 01:26:30.000   47.480953193   19.056534562   178.7009   5  10   1.6638   1.5260   2.8905  -0.7973   0.9784  -1.2082   0.00    0.0
2019/01/19 01:27:00.000   47.480951452   19.056535095   178.8848   5  10   1.6639   1.5275   2.8894  -0.7983   0.9833  -1.2095   0.00    0.0
2019/01/19 01:27:30.000   47.480944217   19.056535165   180.0381   5   9   2.3158   1.5353   3.7498  -0.6434   0.8015  -2.3059   0.00    0.0
2019/01/19 01:28:00.000   47.480943264   19.056534896   179.5642   5   8   2.4828   1.5468   3.8550  -0.5164   0.9104  -2.1362   0.00    0.0
2019/01/19 01:28:30.000   47.480943519   19.056536086   179.7024   5   8   2.4832   1.5478   3.8616  -0.5293   0.9272  -2.1408   0.00    0.0
2019/01/19 01:29:00.000   47.480943773   19.056536339   179.9406   5   8   2.4836   1.5489   3.8680  -0.5419   0.9437  -2.1452   0.00    0.0
2019/01/19 01:29:30.000   47.480944383   19.056535618   179.9928   5   8   2.4839   1.5501   3.8744  -0.5542   0.9600  -2.1494   0.00    0.0
2019/01/19 01:30:00.000   47.480945294   19.056535346   179.9331   5   8   2.4841   1.5513   3.8806  -0.5663   0.9760  -2.1536   0.00    0.0
2019/01/19 01:30:30.000   47.480944758   19.056536948   179.9740   5   8   2.4844   1.5526   3.8867  -0.5781   0.9917  -2.1576   0.00    0.0
2019/01/19 01:31:00.000   47.480947335   19.056533827   179.4187   5   9   2.2141   1.3795   3.1284   0.6771  -0.8014  -1.4355   0.00    0.0
2019/01/19 01:31:30.000   47.480946612   19.056532221   179.4978   5   9   2.2119   1.3781   3.1315   0.6742  -0.7927  -1.4351   0.00    0.0
2019/01/19 01:32:00.000   47.480947509   19.056531436   179.5502   5   9   2.2097   1.3768   3.1347   0.6713  -0.7839  -1.4348   0.00    0.0
2019/01/19 01:32:30.000   47.480948552   19.056531176   179.6137   5   9   2.2075   1.3755   3.1378   0.6684  -0.7749  -1.4345   0.00    0.0
2019/01/19 01:33:00.000   47.480947886   19.056531631   179.8468   5   9   2.2053   1.3743   3.1409   0.6654  -0.7656  -1.4341   0.00    0.0
2019/01/19 01:33:30.000   47.480947526   19.056531526   179.7412   5   9   2.2031   1.3731   3.1440   0.6624  -0.7562  -1.4337   0.00    0.0
2019/01/19 01:34:00.000   47.480946675   19.056530321   179.5596   5   9   2.2009   1.3720   3.1472   0.6593  -0.7466  -1.4333   0.00    0.0
2019/01/19 01:34:30.000   47.480946833   19.056528433   179.4787   5   9   2.1987   1.3708   3.1503   0.6562  -0.7368  -1.4329   0.00    0.0
2019/01/19 01:35:00.000   47.480947600   19.056528412   179.3666   5   9   2.1965   1.3698   3.1534   0.6531  -0.7268  -1.4324   0.00    0.0
2019/01/19 01:35:30.000   47.480949699   19.056527975   179.1060   5   9   2.1944   1.3688   3.1565   0.6499  -0.7166  -1.4319   0.00    0.0
2019/01/19 01:36:00.000   47.480950262   19.056529277   179.0860   5   9   2.1922   1.3678   3.1596   0.6466  -0.7062  -1.4315   0.00    0.0
2019/01/19 01:36:30.000   47.480949757   19.056530123   179.4542   5   9   2.1900   1.3669   3.1626   0.6433  -0.6955  -1.4310   0.00    0.0
2019/01/19 01:37:00.000   47.480948317   19.056532335   179.7125   5   9   2.1879   1.3660   3.1657   0.6400  -0.6845  -1.4304   0.00    0.0
2019/01/19 01:37:30.000   47.480947051   19.056533522   179.8452   5   9   2.1857   1.3651   3.1687   0.6366  -0.6733  -1.4299   0.00    0.0
2019/01/19 01:38:00.000   47.480946207   19.056533899   179.7750   5   9   2.1835   1.3644   3.1717   0.6332  -0.6618  -1.4293   0.00    0.0
2019/01/19 01:38:30.000   47.480946173   19.056533353   179.6319   5   9   2.1814   1.3636   3.1746   0.6298  -0.6501  -1.4288   0.00    0.0
2019/01/19 01:39:00.000   47.480946295   19.056532721   179.6694   5   9   2.1792   1.3629   3.1775   0.6263  -0.6380  -1.4281   0.00    0.0
2019/01/19 01:39:30.000   47.480946825   19.056532369   179.6481   5   9   2.1770   1.3622   3.1804   0.6227  -0.6256  -1.4275   0.00    0.0
2019/01/19 01:40:00.000   47.480947476   19.056532463   179.7541   5   9   2.1749   1.3616   3.1833   0.6192  -0.6129  -1.4269   0.00    0.0
2019/01/19 01:40:30.000   47.480946878   19.056532124   179.7731   5   9   2.1727   1.3611   3.1861   0.6156  -0.5999  -1.4262   0.00    0.0
2019/01/19 01:41:00.000   47.480945595   19.056532069   179.7618   5   9   2.1706   1.3606   3.1889   0.6119  -0.5864  -1.4255   0.00    0.0
2019/01/19 01:41:30.000   47.480943575   19.056532517   180.0650   5   9   2.1684   1.3601   3.1916   0.6082  -0.5726  -1.4248   0.00    0.0
2019/01/19 01:42:00.000   47.480941602   19.056532491   180.3221   5   9   2.1662   1.3597   3.1943   0.6045  -0.5583  -1.4240   0.00    0.0
2019/01/19 01:42:30.000   47.480941827   19.056532460   180.2995   5   9   2.1641   1.3593   3.1969   0.6007  -0.5436  -1.4233   0.00    0.0
2019/01/19 01:43:00.000   47.480942434   19.056532231   180.2176   5   9   2.1619   1.3589   3.1995   0.5968  -0.5284  -1.4225   0.00    0.0
2019/01/19 01:43:30.000   47.480943379   19.056531776   180.0136   5   9   2.1598   1.3587   3.2021   0.5930  -0.5126  -1.4216   0.00    0.0
2019/01/19 01:44:00.000   47.480943613   19.056533677   180.0048   5   9   2.1577   1.3584   3.2046   0.5891  -0.4962  -1.4208   0.00    0.0
2019/01/19 01:44:30.000   47.480943218   19.056535555   180.0548   5   9   2.1555   1.3582   3.2070   0.5851  -0.4792  -1.4199   0.00    0.0
2019/01/19 01:45:00.000   47.480943163   19.056535509   180.0716   5   9   2.1534   1.3581   3.2094   0.5811  -0.4615  -1.4190   0.00    0.0
2019/01/19 01:45:30.000   47.480943700   19.056534776   180.0872   5   9   2.1512   1.3580   3.2117   0.5771  -0.4430  -1.4181   0.00    0.0
2019/01/19 01:46:00.000   47.480945557   19.056532638   179.8958   5   9   2.1491   1.3579   3.2140   0.5730  -0.4236  -1.4172   0.00    0.0
2019/01/19 01:46:30.000   47.480945878   19.056531018   179.6998   5   9   2.1470   1.3579   3.2162   0.5689  -0.4031  -1.4162   0.00    0.0
2019/01/19 01:47:00.000   47.480945782   19.056530831   179.8607   5   9   2.1448   1.3580   3.2184   0.5647  -0.3815  -1.4152   0.00    0.0
2019/01/19 01:47:30.000   47.480946011   19.056530535   179.8874   5   9   2.1427   1.3581   3.2205   0.5605  -0.3585  -1.4142   0.00    0.0
2019/01/19 01:48:00.000   47.480946132   19.056530913   179.9470   5   9   2.1406   1.3582   3.2225   0.5563  -0.3337  -1.4131   0.00    0.0
2019/01/19 01:48:30.000   47.480945409   19.056531163   179.9550   5   9   2.1384   1.3584   3.2245   0.5520  -0.3069  -1.4120   0.00    0.0
2019/01/19 01:49:00.000   47.480945261   19.056532146   179.7717   5   9   2.1363   1.3587   3.2264   0.5477  -0.2774  -1.4109   0.00    0.0
2019/01/19 01:49:30.000   47.480945049   19.056532527   179.6292   5   9   2.1342   1.3590   3.2282   0.5433  -0.2443  -1.4098   0.00    0.0
2019/01/19 01:50:00.000   47.480946537   19.056531416   179.4476   5   9   2.1321   1.3593   3.2300   0.5388  -0.2057  -1.4087   0.00    0.0
2019/01/19 01:50:30.000   47.480947885   19.056532533   179.4272   5   9   2.1300   1.3597   3.2317   0.5344  -0.1579  -1.4075   0.00    0.0
2019/01/19 01:51:00.000   47.480947833   19.056533027   179.5044   5   9   2.1279   1.3601   3.2334   0.5299  -0.0864  -1.4063   0.00    0.0
2019/01/19 01:51:30.000   47.480948712   19.056531689   179.3963   5   9   2.1258   1.3606   3.2350   0.5253   0.1002  -1.4050   0.00    0.0
2019/01/19 01:52:00.000   47.480947799   19.056531906   179.4868   5   9   2.1237   1.3612   3.2365   0.5207   0.1661  -1.4038   0.00    0.0
2019/01/19 01:52:30.000   47.480947713   19.056532727   179.5814   5   9   2.1217   1.3618   3.2380   0.5160   0.2125  -1.4025   0.00    0.0
2019/01/19 01:53:00.000   47.480946600   19.056533314   179.7430   5   9   2.1196   1.3624   3.2394   0.5113   0.2506  -1.4012   0.00    0.0
2019/01/19 01:53:30.000   47.480945913   19.056533997   179.6665   5  10   1.9692   1.3523   3.1377   0.6244   0.4682  -1.6096   0.00    0.0
2019/01/19 01:54:00.000   47.480947738   19.056533196   179.6776   5  10   1.9664   1.3531   3.1409   0.6207   0.4854  -1.6070   0.00    0.0
2019/01/19 01:54:30.000   47.480949743   19.056532988   179.7443   5  10   1.9637   1.3539   3.1441   0.6170   0.5021  -1.6044   0.00    0.0
2019/01/19 01:55:00.000   47.480951105   19.056531802   179.6577   5  10   1.9609   1.3547   3.1472   0.6132   0.5182  -1.6016   0.00    0.0
2019/01/19 01:55:30.000   47.480950929   19.056531635   179.6061   5  10   1.9582   1.3556   3.1502   0.6095   0.5339  -1.5988   0.00    0.0
2019/01/19 01:56:00.000   47.480950050   19.056531620   179.5883   5  10   1.9555   1.3566   3.1532   0.6058   0.5492  -1.5959   0.00    0.0
2019/01/19 01:56:30.000   47.480948583   19.056531917   179.6205   5  10   1.9528   1.3576   3.1562   0.6020   0.5640  -1.5930   0.00    0.0
2019/01/19 01:57:00.000   47.480947691   19.056532675   179.8383   5  10   1.9502   1.3586   3.1590   0.5983   0.5785  -1.5900   0.00    0.0
2019/01/19 01:57:30.000   47.480948103   19.056532447   179.9701   5  10   1.9476   1.3597   3.1619   0.5945   0.5927  -1.5869   0.00    0.0
2019/01/19 01:58:00.000   47.480948241   19.056532887   180.3972   5  10   1.9450   1.3609   3.1646   0.5908   0.6065  -1.5838   0.00    0.0
2019/01/19 01:58:30.000   47.480949004   19.056531432   180.6358   5  10   1.9424   1.3621   3.1674   0.5871   0.6201  -1.5806   0.00    0.0
2019/01/19 01:59:00.000   47.480949112   19.056531614   180.7461   5  10   1.9398   1.3633   3.1700   0.5833   0.6333  -1.5773   0.00    0.0
2019/01/19 01:59:30.000   47.480950923   19.056529777   180.1756   5  11   1.9008   1.2377   2.8653   0.7423  -0.6042  -1.4027   0.00    0.0
2019/01/19 02:00:00.000   47.480951280   19.056530549   180.0396   5  11   1.8981   1.2375   2.8673   0.7405  -0.5953  -1.3984   0.00    0.0
2019/01/19 02:00:30.000   47.480951855   19.056529982   179.8201   5  11   1.8954   1.2374   2.8693   0.7388  -0.5862  -1.3940   0.00    0.0
2019/01/19 02:01:00.000   47.480950237   19.056531267   179.7899   5  11   1.8928   1.2373   2.8713   0.7370  -0.5769  -1.3896   0.00    0.0
2019/01/19 02:01:30.000   47.480949516   19.056531074   179.7066   5  11   1.8902   1.2372   2.8732   0.7353  -0.5675  -1.3852   0.00    0.0
2019/01/19 02:02:00.000   47.480950852   19.056534969   179.1196   5  10   2.0683   1.5149   3.3924   1.1301  -1.3729  -1.8516   0.00    0.0
2019/01/19 02:02:30.000   47.480950089   19.056534562   179.1965   5  10   2.0625   1.5116   3.3943   1.1235  -1.3653  -1.8442   0.00    0.0
2019/01/19 02:03:00.000   47.480950338   19.056532953   179.0781   5  10   2.0568   1.5083   3.3962   1.1170  -1.3576  -1.8367   0.00    0.0
2019/01/19 02:03:30.000   47.480951296   19.056530528   178.8962   5  10   2.0511   1.5051   3.3980   1.1104  -1.3497  -1.8291   0.00    0.0
2019/01/19 02:04:00.000   47.480952130   19.056528729   178.8247   5  10   2.0454   1.5020   3.3998   1.1039  -1.3418  -1.8215   0.00    0.0
2019/01/19 02:04:30.000   47.480951079   19.056530087   178.9834   5  10   2.0398   1.4988   3.4014   1.0973  -1.3337  -1.8137   0.00    0.0
2019/01/19 02:05:00.000   47.480949718   19.056531266   179.4511   5  10   2.0343   1.4958   3.4031   1.0907  -1.3255  -1.8059   0.00    0.0
2019/01/19 02:05:30.000   47.480949207   19.056531187   179.8047   5  10   2.0287   1.4927   3.4047   1.0842  -1.3172  -1.7980   0.00    0.0
2019/01/19 02:06:00.000   47.480949500   19.056531207   180.0098   5  10   2.0232   1.4897   3.4062   1.0776  -1.3087  -1.7900   0.00    0.0
2019/01/19 02:06:30.000   47.480951198   19.056530413   179.5923   5  10   2.0178   1.4867   3.4076   1.0711  -1.3002  -1.7819   0.00    0.0
2019/01/19 02:07:00.000   47.480952076   19.056527752   178.9691   5  10   2.0124   1.4838   3.4090   1.0645  -1.2915  -1.7737   0.00    0.0
2019/01/19 02:07:30.000   47.480950265   19.056526819   178.7129   5  10   2.0071   1.4809   3.4104   1.0580  -1.2827  -1.7654   0.00    0.0
2019/01/19 02:08:00.000   47.480946932   19.056529598   179.1166   5  10   2.0018   1.4781   3.4116   1.0514  -1.2737  -1.7570   0.00    0.0
2019/01/19 02:08:30.000   47.480944304   19.056533964   179.7976   5  10   1.9966   1.4753   3.4128   1.0449  -1.2646  -1.7486   0.00    0.0
2019/01/19 02:09:00.000   47.480942886   19.056536399   180.4291   5  10   1.9914   1.4725   3.4140   1.0383  -1.2554  -1.7400   0.00    0.0
2019/01/19 02:09:30.000   47.480942753   19.056536509   180.6051   5  10   1.9862   1.4698   3.4150   1.0318  -1.2460  -1.7314   0.00    0.0
2019/01/19 02:10:00.000   47.480945157   19.056533659   180.1221   5  10   1.9812   1.4672   3.4161   1.0253  -1.2365  -1.7226   0.00    0.0
2019/01/19 02:10:30.000   47.480946745   19.056530661   179.6549   5  10   1.9762   1.4646   3.4170   1.0188  -1.2269  -1.7138   0.00    0.0
2019/01/19 02:11:00.000   47.480945793   19.056530599   179.6859   5  10   1.9712   1.4620   3.4179   1.0123  -1.2171  -1.7049   0.00    0.0
2019/01/19 02:11:30.000   47.480943815   19.056531000   179.8217   5  10   1.9663   1.4595   3.4188   1.0059  -1.2072  -1.6959   0.00    0.0
2019/01/19 02:12:00.000   47.480941614   19.056532488   180.3158   5  10   1.9614   1.4570   3.4196   0.9994  -1.1971  -1.6868   0.00    0.0
2019/01/19 02:12:30.000   47.480941206   19.056533342   180.4903   5  10   1.9567   1.4546   3.4203   0.9930  -1.1869  -1.6776   0.00    0.0
2019/01/19 02:13:00.000   47.480942397   19.056532521   180.3891   5  10   1.9519   1.4522   3.4210   0.9866  -1.1765  -1.6683   0.00    0.0
2019/01/19 02:13:30.000   47.480944125   19.056531852   180.0674   5  10   1.9473   1.4498   3.4217   0.9802  -1.1659  -1.6589   0.00    0.0
2019/01/19 02:14:00.000   47.480948120   19.056532929   179.8136   5  11   1.8816   1.3897   3.3471   0.8675  -1.2742  -1.7508   0.00    0.0
2019/01/19 02:14:30.000   47.480948411   19.056533439   179.5903   5  11   1.8767   1.3867   3.3472   0.8594  -1.2653  -1.7423   0.00    0.0
2019/01/19 02:15:00.000   47.480947285   19.056534443   179.5804   5  11   1.8718   1.3837   3.3473   0.8513  -1.2564  -1.7336   0.00    0.0
2019/01/19 02:15:30.000   47.480946855   19.056534963   179.5515   5  11   1.8669   1.3807   3.3474   0.8431  -1.2473  -1.7250   0.00    0.0
2019/01/19 02:16:00.000   47.480947764   19.056533199   179.3254   5  11   1.8622   1.3778   3.3474   0.8350  -1.2381  -1.7162   0.00    0.0
2019/01/19 02:16:30.000   47.480948258   19.056532245   179.2547   5  11   1.8575   1.3749   3.3473   0.8269  -1.2288  -1.7073   0.00    0.0
2019/01/19 02:17:00.000   47.480948274   19.056532871   179.2286   5  11   1.8529   1.3721   3.3473   0.8187  -1.2194  -1.6984   0.00    0.0
2019/01/19 02:17:30.000   47.480949997   19.056533901   179.5911   5  10   1.9979   1.3762   3.4398   0.8726  -1.1639  -1.5008   0.00    0.0
2019/01/19 02:18:00.000   47.480949750   19.056533680   179.3448   5  10   1.9916   1.3731   3.4468   0.8630  -1.1534  -1.4844   0.00    0.0
2019/01/19 02:18:30.000   47.480949773   19.056534060   179.0751   5  10   1.9855   1.3701   3.4540   0.8535  -1.1427  -1.4679   0.00    0.0
2019/01/19 02:19:00.000   47.480950750   19.056534078   178.6688   5  10   1.9795   1.3671   3.4614   0.8440  -1.1319  -1.4512   0.00    0.0
2019/01/19 02:19:30.000   47.480950502   19.056535985   178.5400   5  10   1.9737   1.3643   3.4690   0.8347  -1.1210  -1.4343   0.00    0.0
2019/01/19 02:20:00.000   47.480950355   19.056536430   178.5701   5  10   1.9680   1.3614   3.4768   0.8254  -1.1100  -1.4172   0.00    0.0
2019/01/19 02:20:30.000   47.480950991   19.056534892   178.7429   5  10   1.9625   1.3587   3.4849   0.8162  -1.0988  -1.3999   0.00    0.0
2019/01/19 02:21:00.000   47.480952223   19.056532710   179.0239   5  10   1.9571   1.3560   3.4931   0.8070  -1.0875  -1.3824   0.00    0.0
2019/01/19 02:21:30.000   47.480952582   19.056533524   179.2964   5  10   1.9519   1.3534   3.5016   0.7979  -1.0760  -1.3647   0.00    0.0
2019/01/19 02:22:00.000   47.480953318   19.056535154   179.6921   5  10   1.9468   1.3509   3.5103   0.7889  -1.0644  -1.3467   0.00    0.0
2019/01/19 02:22:30.000   47.480953352   19.056536308   180.2564   5  10   1.9419   1.3484   3.5192   0.7800  -1.0526  -1.3285   0.00    0.0
2019/01/19 02:23:00.000   47.480953332   19.056537943   180.8132   5  10   1.9371   1.3460   3.5284   0.7711  -1.0406  -1.3100   0.00    0.0
2019/01/19 02:23:30.000   47.480954423   19.056538093   181.1287   5  10   1.9325   1.3437   3.5377   0.7624  -1.0284  -1.2913   0.00    0.0
2019/01/19 02:24:00.000   47.480955301   19.056537213   181.0391   5  10   1.9281   1.3414   3.5473   0.7536  -1.0160  -1.2722   0.00    0.0
2019/01/19 02:24:30.000   47.480955625   19.056536866   180.8280   5  10   1.9237   1.3392   3.5571   0.7450  -1.0034  -1.2528   0.00    0.0
2019/01/19 02:25:00.000   47.480955388   19.056536463   180.4456   5  10   1.9195   1.3371   3.5671   0.7365  -0.9906  -1.2332   0.00    0.0
2019/01/19 02:25:30.000   47.480954950   19.056536955   180.1973   5  10   1.9155   1.3350   3.5773   0.7280  -0.9775  -1.2131   0.00    0.0
2019/01/19 02:26:00.000   47.480954913   19.056536997   179.8286   5  10   1.9116   1.3330   3.5877   0.7196  -0.9641  -1.1927   0.00    0.0
2019/01/19 02:26:30.000   47.480954819   19.056537316   179.6972   5  10   1.9079   1.3311   3.5983   0.7113  -0.9505  -1.1719   0.00    0.0
2019/01/19 02:27:00.000   47.480954746   19.056536782   179.6039   5  10   1.9043   1.3292   3.6091   0.7030  -0.9366  -1.1507   0.00    0.0
2019/01/19 02:27:30.000   47.480954648   19.056536687   179.9563   5  10   1.9008   1.3274   3.6202   0.6949  -0.9223  -1.1290   0.00    0.0
2019/01/19 02:28:00.000   47.480954869   19.056537885   180.2938   5  10   1.8975   1.3257   3.6314   0.6868  -0.9078  -1.1068   0.00    0.0
2019/01/19 02:28:30.000   47.480956272   19.056538078   180.2690   5  11   1.7086   1.3239   3.3468   0.6710  -0.8823   0.0363   0.00    0.0
2019/01/19 02:29:00.000   47.480957161   19.056537719   179.7741   5  11   1.7085   1.3224   3.3602   0.6667  -0.8717   0.1997   0.00    0.0
2019/01/19 02:29:30.000   47.480957236   19.056535593   179.1785   5  11   1.7085   1.3209   3.3738   0.6625  -0.8608   0.2807   0.00    0.0
2019/01/19 02:30:00.000   47.480956321   19.056534965   179.0489   5  11   1.7086   1.3194   3.3874   0.6584  -0.8497   0.3437   0.00    0.0
2019/01/19 02:30:30.000   47.480954854   19.056536010   179.2276   5  11   1.7088   1.3180   3.4013   0.6544  -0.8382   0.3972   0.00    0.0
2019/01/19 02:31:00.000   47.480954319   19.056537610   179.6903   5  11   1.7091   1.3166   3.4152   0.6505  -0.8263   0.4448   0.00    0.0
2019/01/19 02:31:30.000   47.480954631   19.056539299   180.2646   5  11   1.7095   1.3152   3.4293   0.6467  -0.8141   0.4881   0.00    0.0
2019/01/19 02:32:00.000   47.480955386   19.056539360   180.6998   5  11   1.7101   1.3139   3.4434   0.6430  -0.8015   0.5282   0.00    0.0
2019/01/19 02:32:30.000   47.480956839   19.056537826   180.5234   5  11   1.7107   1.3127   3.4577   0.6394  -0.7885   0.5658   0.00    0.0
2019/01/19 02:33:00.000   47.480957074   19.056537222   180.2004   5  11   1.7114   1.3115   3.4722   0.6359  -0.7751   0.6014   0.00    0.0
2019/01/19 02:33:30.000   47.480956364   19.056537652   179.9657   5  11   1.7122   1.3103   3.4867   0.6325  -0.7613   0.6353   0.00    0.0
2019/01/19 02:34:00.000   47.480955088   19.056538775   179.9918   5  11   1.7132   1.3092   3.5013   0.6293  -0.7469   0.6677   0.00    0.0
2019/01/19 02:34:30.000   47.480954799   19.056538829   180.2679   5  11   1.7142   1.3081   3.5161   0.6261  -0.7320   0.6989   0.00    0.0
2019/01/19 02:35:00.000   47.480955454   19.056538425   180.2961   5  11   1.7153   1.3071   3.5309   0.6231  -0.7166   0.7290   0.00    0.0
2019/01/19 02:35:30.000   47.480956640   19.056537482   180.3106   5  11   1.7165   1.3061   3.5458   0.6202  -0.7006   0.7581   0.00    0.0
2019/01/19 02:36:00.000   47.480957976   19.056537050   180.4284   5  11   1.7179   1.3052   3.5609   0.6174  -0.6839   0.7864   0.00    0.0
2019/01/19 02:36:30.000   47.480958615   19.056537243   180.6897   5  11   1.7193   1.3043   3.5759   0.6147  -0.6666   0.8139   0.00    0.0
2019/01/19 02:37:00.000   47.480959210   19.056537613   180.6936   5  11   1.7208   1.3035   3.5911   0.6122  -0.6485   0.8407   0.00    0.0
2019/01/19 02:37:30.000   47.480957958   19.056538091   180.8639   5  11   1.7224   1.3027   3.6063   0.6097  -0.6296   0.8668   0.00    0.0
2019/01/19 02:38:00.000   47.480955142   19.056538724   180.8584   5  11   1.7241   1.3019   3.6216   0.6075  -0.6098   0.8924   0.00    0.0
2019/01/19 02:38:30.000   47.480952729   19.056540301   180.7472   5  11   1.7259   1.3013   3.6370   0.6053  -0.5890   0.9174   0.00    0.0
2019/01/19 02:39:00.000   47.480951920   19.056541172   180.5846   5  11   1.7278   1.3007   3.6524   0.6033  -0.5671   0.9419   0.00    0.0
2019/01/19 02:39:30.000   47.480953108   19.056541983   180.5090   5  11   1.7298   1.3001   3.6678   0.6015  -0.5439   0.9659   0.00    0.0
2019/01/19 02:40:00.000   47.480954653   19.056540951   180.4644   5  11   1.7319   1.2996   3.6833   0.5998  -0.5194   0.9895   0.00    0.0
2019/01/19 02:40:30.000   47.480955483   19.056539579   180.6312   5  11   1.7341   1.2991   3.6988   0.5982  -0.4932   1.0127   0.00    0.0
2019/01/19 02:41:00.000   47.480955579   19.056537729   180.8433   5  11   1.7363   1.2987   3.7142   0.5968  -0.4652   1.0354   0.00    0.0
2019/01/19 02:41:30.000   47.480955081   19.056538129   181.1372   5  11   1.7386   1.2984   3.7297   0.5955  -0.4349   1.0578   0.00    0.0
2019/01/19 02:42:00.000   47.480954615   19.056538498   181.2458   5  11   1.7410   1.2981   3.7452   0.5944  -0.4018   1.0798   0.00    0.0
2019/01/19 02:42:30.000   47.480953929   19.056539704   181.0098   5  11   1.7435   1.2979   3.7607   0.5934  -0.3653   1.1014   0.00    0.0
2019/01/19 02:43:00.000   47.480954690   19.056539849   180.6688   5  11   1.7461   1.2977   3.7762   0.5926  -0.3240   1.1227   0.00    0.0
2019/01/19 02:43:30.000   47.480956672   19.056539953   180.2855   5  11   1.7487   1.2976   3.7916   0.5919  -0.2759   1.1436   0.00    0.0
2019/01/19 02:44:00.000   47.480957678   19.056539962   180.3035   5  11   1.7514   1.2976   3.8069   0.5914  -0.2165   1.1642   0.00    0.0
2019/01/19 02:44:30.000   47.480957014   19.056539193   180.4164   5  11   1.7542   1.2976   3.8222   0.5910  -0.1314   1.1845   0.00    0.0
2019/01/19 02:45:00.000   47.480955089   19.056536669   180.2827   5  11   1.7571   1.2977   3.8375   0.5908   0.1128   1.2044   0.00    0.0
2019/01/19 02:45:30.000   47.480953765   19.056535436   180.1098   5  11   1.7600   1.2978   3.8526   0.5907   0.2076   1.2240   0.00    0.0
2019/01/19 02:46:00.000   47.480953562   19.056535688   180.1293   5  11   1.7629   1.2980   3.8677   0.5908   0.2717   1.2433   0.00    0.0
2019/01/19 02:46:30.000   47.480954766   19.056536925   180.3856   5  11   1.7660   1.2983   3.8826   0.5910   0.3239   1.2623   0.00    0.0
2019/01/19 02:47:00.000   47.480955703   19.056536635   180.5007   5  11   1.7691   1.2987   3.8975   0.5914   0.3693   1.2810   0.00    0.0
2019/01/19 02:47:30.000   47.480955360   19.056537289   180.7743   5  11   1.7722   1.2991   3.9121   0.5919   0.4101   1.2994   0.00    0.0
2019/01/19 02:48:00.000   47.480954198   19.056538415   180.7368   5  11   1.7754   1.2995   3.9267   0.5925   0.4476   1.3174   0.00    0.0
2019/01/19 02:48:30.000   47.480954401   19.056539748   180.8492   5  11   1.7786   1.3001   3.9411   0.5933   0.4825   1.3351   0.00    0.0
2019/01/19 02:49:00.000   47.480956000   19.056541390   180.8978   5  11   1.7819   1.3007   3.9553   0.5942   0.5153   1.3525   0.00    0.0
2019/01/19 02:49:30.000   47.480958099   19.056541522   180.7829   5  11   1.7852   1.3014   3.9693   0.5953   0.5465   1.3696   0.00    0.0
2019/01/19 02:50:00.000   47.480960260   19.056540799   180.7080   5  11   1.7885   1.3021   3.9831   0.5965   0.5762   1.3863   0.00    0.0
2019/01/19 02:50:30.000   47.480960797   19.056539963   180.9016   5  11   1.7919   1.3029   3.9966   0.5978   0.6047   1.4027   0.00    0.0
2019/01/19 02:51:00.000   47.480961066   19.056537369   180.9456   5  11   1.7952   1.3038   4.0100   0.5992   0.6321   1.4188   0.00    0.0
2019/01/19 02:51:30.000   47.480961704   19.056536246   181.2397   5  11   1.7987   1.3048   4.0231   0.6007   0.6585   1.4345   0.00    0.0
2019/01/19 02:52:00.000   47.480961633   19.056536399   181.4730   5  11   1.8021   1.3058   4.0359   0.6023   0.6841   1.4499   0.00    0.0
2019/01/19 02:52:30.000   47.480961093   19.056537265   181.5012   5  11   1.8055   1.3069   4.0484   0.6041   0.7089   1.4649   0.00    0.0
2019/01/19 02:53:00.000   47.480960216   19.056538350   181.6085   5  11   1.8089   1.3081   4.0607   0.6059   0.7330   1.4796   0.00    0.0
2019/01/19 02:53:30.000   47.480959724   19.056536384   181.2903   5  11   1.8124   1.3093   4.0726   0.6078   0.7564   1.4938   0.00    0.0
2019/01/19 02:54:00.000   47.480959428   19.056534519   181.2422   5  11   1.8158   1.3106   4.0842   0.6098   0.7792   1.5077   0.00    0.0
2019/01/19 02:54:30.000   47.480960020   19.056534230   181.1726   5  11   1.8192   1.3119   4.0955   0.6119   0.8014   1.5213   0.00    0.0
2019/01/19 02:55:00.000   47.480960574   19.056534969   181.3982   5  11   1.8226   1.3134   4.1064   0.6140   0.8231   1.5344   0.00    0.0
2019/01/19 02:55:30.000   47.480961499   19.056535736   181.7261   5  11   1.8260   1.3148   4.1169   0.6162   0.8442   1.5471   0.00    0.0
2019/01/19 02:56:00.000   47.480961512   19.056536136   182.0233   5  11   1.8293   1.3164   4.1271   0.6185   0.8649   1.5595   0.00    0.0
2019/01/19 02:56:30.000   47.480961460   19.056536336   181.9175   5  11   1.8327   1.3180   4.1368   0.6208   0.8850   1.5714   0.00    0.0
2019/01/19 02:57:00.000   47.480962027   19.056536499   181.6624   5  11   1.8359   1.3197   4.1462   0.6231   0.9048   1.5829   0.00    0.0
2019/01/19 02:57:30.000   47.480961690   19.056536969   181.7562   5  11   1.8392   1.3214   4.1551   0.6255   0.9240   1.5939   0.00    0.0
2019/01/19 02:58:00.000   47.480961191   19.056538075   181.7099   5  11   1.8424   1.3233   4.1635   0.6279   0.9428   1.6046   0.00    0.0
2019/01/19 02:58:30.000   47.480961044   19.056539408   181.7709   5  11   1.8456   1.3251   4.1716   0.6303   0.9612   1.6147   0.00    0.0
2019/01/19 02:59:00.000   47.480961591   19.056538819   181.7232   5  11   1.8487   1.3270   4.1791   0.6326   0.9792   1.6245   0.00    0.0
2019/01/19 02:59:30.000   47.480962596   19.056539629   181.9640   5  11   1.8517   1.3290   4.1862   0.6350   0.9967   1.6338   0.00    0.0
2019/01/19 03:00:00.000   47.480963581   19.056542099   182.1276   5  11   1.8547   1.3311   4.1928   0.6374   1.0138   1.6426   0.00    0.0
2019/01/19 03:00:30.000   47.480963298   19.056543021   182.0535   5  11   1.8576   1.3332   4.1989   0.6398   1.0306   1.6509   0.00    0.0
2019/01/19 03:01:00.000   47.480963114   19.056543453   182.1731   5  11   1.8604   1.3353   4.2045   0.6421   1.0469   1.6588   0.00    0.0
2019/01/19 03:01:30.000   47.480963126   19.056541934   182.3827   5  11   1.8632   1.3375   4.2095   0.6444   1.0628   1.6661   0.00    0.0
2019/01/19 03:02:00.000   47.480963455   19.056539405   182.6135   5  11   1.8659   1.3397   4.2141   0.6466   1.0784   1.6730   0.00    0.0
2019/01/19 03:02:30.000   47.480963421   19.056538005   182.7314   5  11   1.8685   1.3420   4.2181   0.6488   1.0935   1.6794   0.00    0.0
2019/01/19 03:03:00.000   47.480962708   19.056537419   182.8627   5  11   1.8710   1.3444   4.2216   0.6509   1.1083   1.6853   0.00    0.0
2019/01/19 03:03:30.000   47.480963076   19.056540892   181.6574   5  10   1.9499   1.5403   5.1744   0.9113  -0.9866   1.1149   0.00    0.0
2019/01/19 03:04:00.000   47.480963391   19.056540380   181.3702   5  10   1.9498   1.5389   5.1885   0.9071  -0.9671   1.1285   0.00    0.0
2019/01/19 03:04:30.000   47.480963395   19.056540410   181.4000   5  10   1.9497   1.5375   5.2018   0.9029  -0.9470   1.1414   0.00    0.0
2019/01/19 03:05:00.000   47.480962865   19.056540440   181.4440   5  10   1.9496   1.5361   5.2143   0.8988  -0.9262   1.1535   0.00    0.0
2019/01/19 03:05:30.000   47.480962666   19.056539758   181.4855   5  10   1.9495   1.5348   5.2258   0.8947  -0.9047   1.1648   0.00    0.0
2019/01/19 03:06:00.000   47.480963162   19.056538378   182.0734   5  10   1.9493   1.5336   5.2365   0.8906  -0.8824   1.1753   0.00    0.0
2019/01/19 03:06:30.000   47.480964708   19.056537433   182.7611   5  10   1.9491   1.5324   5.2463   0.8865  -0.8594   1.1850   0.00    0.0
2019/01/19 03:07:00.000   47.480965262   19.056537112   182.6653   5  10   1.9489   1.5313   5.2551   0.8825  -0.8356   1.1940   0.00    0.0
2019/01/19 03:07:30.000   47.480965288   19.056539108   182.7482   5  10   1.9487   1.5302   5.2630   0.8784  -0.8109   1.2021   0.00    0.0
2019/01/19 03:08:00.000   47.480958998   19.056535981   179.8356   5  11   1.8069   1.4751   4.0666   0.6861  -1.4028  -0.9905   0.00    0.0
2019/01/19 03:08:30.000   47.480958182   19.056536744   179.7152   5  11   1.8066   1.4726   4.0704   0.6781  -1.3952  -0.9839   0.00    0.0
2019/01/19 03:09:00.000   47.480958627   19.056536683   179.5884   5  11   1.8064   1.4702   4.0740   0.6702  -1.3874  -0.9773   0.00    0.0
2019/01/19 03:09:30.000   47.480959941   19.056534441   179.3703   5  11   1.8063   1.4678   4.0773   0.6622  -1.3794  -0.9708   0.00    0.0
2019/01/19 03:10:00.000   47.480960447   19.056532811   179.2151   5  11   1.8062   1.4653   4.0804   0.6542  -1.3712  -0.9644   0.00    0.0
2019/01/19 03:10:30.000   47.480960116   19.056533471   178.9463   5  11   1.8061   1.4630   4.0832   0.6461  -1.3628  -0.9581   0.00    0.0
2019/01/19 03:11:00.000   47.480960592   19.056533683   178.9394   5  11   1.8061   1.4606   4.0857   0.6380  -1.3541  -0.9518   0.00    0.0
2019/01/19 03:11:30.000   47.480961526   19.056533461   179.0724   5  11   1.8062   1.4583   4.0879   0.6299  -1.3453  -0.9457   0.00    0.0
2019/01/19 03:12:00.000   47.480961405   19.056533623   178.9315   5  11   1.8062   1.4560   4.0898   0.6218  -1.3362  -0.9397   0.00    0.0
2019/01/19 03:12:30.000   47.480960437   19.056533946   178.8411   5  11   1.8064   1.4537   4.0915   0.6136  -1.3270  -0.9338   0.00    0.0
2019/01/19 03:13:00.000   47.480958966   19.056534067   178.9031   5  11   1.8065   1.4514   4.0928   0.6054  -1.3175  -0.9280   0.00    0.0
2019/01/19 03:13:30.000   47.480958090   19.056535189   179.0889   5  11   1.8067   1.4492   4.0939   0.5972  -1.3078  -0.9224   0.00    0.0
2019/01/19 03:14:00.000   47.480958488   19.056536901   179.1226   5  11   1.8070   1.4470   4.0946   0.5889  -1.2978  -0.9169   0.00    0.0
2019/01/19 03:14:30.000   47.480959109   19.056537489   178.9053   5  11   1.8073   1.4449   4.0950   0.5805  -1.2877  -0.9116   0.00    0.0
2019/01/19 03:15:00.000   47.480958852   19.056537765   178.7718   5  11   1.8076   1.4427   4.0951   0.5721  -1.2773  -0.9065   0.00    0.0
2019/01/19 03:15:30.000   47.480958020   19.056537253   178.6086   5  11   1.8080   1.4406   4.0949   0.5637  -1.2667  -0.9015   0.00    0.0
2019/01/19 03:16:00.000   47.480957578   19.056537059   178.4908   5  11   1.8084   1.4386   4.0943   0.5552  -1.2559  -0.8968   0.00    0.0
2019/01/19 03:16:30.000   47.480957981   19.056537798   177.9211   5  11   1.8089   1.4366   4.0935   0.5466  -1.2449  -0.8922   0.00    0.0
2019/01/19 03:17:00.000   47.480959684   19.056537264   177.2527   5  11   1.8093   1.4346   4.0923   0.5380  -1.2336  -0.8878   0.00    0.0
2019/01/19 03:17:30.000   47.480960840   19.056537196   176.8433   5  11   1.8099   1.4326   4.0908   0.5293  -1.2222  -0.8836   0.00    0.0
2019/01/19 03:18:00.000   47.480959652   19.056537912   176.9655   5  11   1.8104   1.4307   4.0889   0.5205  -1.2105  -0.8797   0.00    0.0
2019/01/19 03:18:30.000   47.480958344   19.056538648   177.3261   5  11   1.8110   1.4289   4.0868   0.5116  -1.1985  -0.8760   0.00    0.0
2019/01/19 03:19:00.000   47.480957629   19.056538921   177.6728   5  11   1.8116   1.4270   4.0843   0.5027  -1.1864  -0.8725   0.00    0.0
2019/01/19 03:19:30.000   47.480959185   19.056539556   177.8632   5  11   1.8123   1.4253   4.0815   0.4936  -1.1740  -0.8692   0.00    0.0
2019/01/19 03:20:00.000   47.480959804   19.056539910   177.9436   5  11   1.8130   1.4235   4.0783   0.4844  -1.1614  -0.8662   0.00    0.0
2019/01/19 03:20:30.000   47.480959582   19.056539261   178.3361   5  11   1.8137   1.4218   4.0749   0.4752  -1.1486  -0.8635   0.00    0.0
2019/01/19 03:21:00.000   47.480958141   19.056538383   178.5536   5  11   1.8145   1.4202   4.0711   0.4657  -1.1356  -0.8609   0.00    0.0
2019/01/19 03:21:30.000   47.480956625   19.056537992   178.6767   5  11   1.8153   1.4186   4.0669   0.4562  -1.1223  -0.8587   0.00    0.0
2019/01/19 03:22:00.000   47.480955812   19.056538068   178.6930   5  11   1.8161   1.4170   4.0625   0.4465  -1.1088  -0.8567   0.00    0.0
2019/01/19 03:22:30.000   47.480956265   19.056539334   178.6468   5  11   1.8169   1.4155   4.0578   0.4367  -1.0950  -0.8550   0.00    0.0
2019/01/19 03:23:00.000   47.480956824   19.056540419   178.2084   5  11   1.8178   1.4141   4.0527   0.4267  -1.0811  -0.8535   0.00    0.0
2019/01/19 03:23:30.000   47.480956950   19.056539499   177.6161   5  11   1.8187   1.4127   4.0473   0.4165  -1.0669  -0.8523   0.00    0.0
2019/01/19 03:24:00.000   47.480957309   19.056538662   177.4908   5  11   1.8197   1.4113   4.0416   0.4061  -1.0524  -0.8514   0.00    0.0
2019/01/19 03:24:30.000   47.480957621   19.056537819   177.7686   5  11   1.8206   1.4100   4.0357   0.3955  -1.0377  -0.8508   0.00    0.0
2019/01/19 03:25:00.000   47.480958125   19.056538109   177.9492   5  11   1.8216   1.4088   4.0294   0.3846  -1.0228  -0.8504   0.00    0.0
2019/01/19 03:25:30.000   47.480957976   19.056538399   178.2669   5  11   1.8227   1.4076   4.0228   0.3734  -1.0077  -0.8503   0.00    0.0
2019/01/19 03:26:00.000   47.480959414   19.056539097   178.2819   5  11   1.8237   1.4064   4.0160   0.3620  -0.9922  -0.8505   0.00    0.0
2019/01/19 03:26:30.000   47.480960759   19.056538949   177.9888   5  11   1.8248   1.4053   4.0088   0.3502  -0.9766  -0.8509   0.00    0.0
2019/01/19 03:27:00.000   47.480959801   19.056539584   178.1134   5  11   1.8259   1.4043   4.0014   0.3381  -0.9607  -0.8516   0.00    0.0
2019/01/19 03:27:30.000   47.480958487   19.056539326   178.4888   5  11   1.8270   1.4033   3.9937   0.3255  -0.9445  -0.8526   0.00    0.0
2019/01/19 03:28:00.000   47.480957505   19.056541138   178.9113   5  11   1.8281   1.4024   3.9858   0.3124  -0.9280  -0.8538   0.00    0.0
2019/01/19 03:28:30.000   47.480957382   19.056543954   179.1080   5  11   1.8293   1.4015   3.9776   0.2989  -0.9113  -0.8553   0.00    0.0
2019/01/19 03:29:00.000   47.480957723   19.056544453   179.2405   5  11   1.8305   1.4007   3.9691   0.2846  -0.8943  -0.8570   0.00    0.0
