% program   : RTKPOST ver.2.4.3 b31
% inp file  : C:\Users\lus2bp\Source\Repos\GINA\70_EGNOS_Project\files\PositionComparisonInputFiles\bute0190\bute0190.19o
% inp file  : C:\Users\lus2bp\Source\Repos\GINA\70_EGNOS_Project\files\PositionComparisonInputFiles\bute0190\brdc0190.19n
% obs start : 2019/01/19 00:00:00.0 GPST (week2036 518400.0s)
% obs end   : 2019/01/19 23:59:30.0 GPST (week2036 604770.0s)
% pos mode  : single
% elev mask : 10.0 deg
% ionos opt : ionex tecratio
% tropo opt : saastamoinen
% ephemeris : broadcast
% 
% (lat/lon/height=WGS84/ellipsoidal,Q=1:fix,2:float,3:sbas,4:dgps,5:single,6:ppp,ns=# of satellites)
%  GPST                  latitude(deg) longitude(deg)  height(m)   Q  ns   sdn(m)   sde(m)   sdu(m)  sdne(m)  sdeu(m)  sdun(m) age(s)  ratio
2019/01/19 00:00:00.000   47.480942042   19.056535481   178.9249   5   8   2.3066   1.6106   4.3180   0.6630   0.7785   2.1439   0.00    0.0
2019/01/19 00:00:30.000   47.480943761   19.056535277   179.0161   5   8   2.3079   1.6107   4.3414   0.6524   0.7785   2.1570   0.00    0.0
2019/01/19 00:01:00.000   47.480945535   19.056536103   179.2301   5   8   2.3092   1.6108   4.3646   0.6415   0.7784   2.1697   0.00    0.0
2019/01/19 00:01:30.000   47.480945760   19.056538027   179.1992   5   8   2.3104   1.6110   4.3877   0.6304   0.7783   2.1822   0.00    0.0
2019/01/19 00:02:00.000   47.480946306   19.056537021   179.2760   5   8   2.3115   1.6112   4.4105   0.6192   0.7781   2.1943   0.00    0.0
2019/01/19 00:02:30.000   47.480947247   19.056535813   179.9640   5   8   2.3125   1.6114   4.4332   0.6076   0.7778   2.2061   0.00    0.0
2019/01/19 00:03:00.000   47.480947430   19.056534445   180.0836   5   8   2.3134   1.6117   4.4556   0.5958   0.7774   2.2176   0.00    0.0
2019/01/19 00:03:30.000   47.480948095   19.056530311   179.7922   5   8   2.3142   1.6121   4.4778   0.5838   0.7770   2.2286   0.00    0.0
2019/01/19 00:04:00.000   47.480948003   19.056527660   179.6307   5   8   2.3149   1.6125   4.4997   0.5714   0.7765   2.2393   0.00    0.0
2019/01/19 00:04:30.000   47.480947481   19.056528351   179.5770   5   8   2.3154   1.6130   4.5213   0.5588   0.7760   2.2496   0.00    0.0
2019/01/19 00:05:00.000   47.480945959   19.056527507   179.5369   5   8   2.3159   1.6135   4.5425   0.5458   0.7755   2.2595   0.00    0.0
2019/01/19 00:05:30.000   47.480943971   19.056529815   179.7364   5   8   2.3161   1.6140   4.5634   0.5325   0.7749   2.2690   0.00    0.0
2019/01/19 00:06:00.000   47.480943029   19.056532123   180.0684   5   8   2.3163   1.6146   4.5840   0.5188   0.7743   2.2780   0.00    0.0
2019/01/19 00:06:30.000   47.480942733   19.056532696   180.1302   5   8   2.3163   1.6153   4.6041   0.5048   0.7736   2.2866   0.00    0.0
2019/01/19 00:07:00.000   47.480943509   19.056533003   179.9196   5   8   2.3161   1.6160   4.6239   0.4903   0.7730   2.2947   0.00    0.0
2019/01/19 00:07:30.000   47.480944933   19.056530484   179.9045   5   8   2.3158   1.6167   4.6432   0.4753   0.7723   2.3023   0.00    0.0
2019/01/19 00:08:00.000   47.480945648   19.056528106   179.9121   5   8   2.3154   1.6175   4.6620   0.4598   0.7716   2.3095   0.00    0.0
2019/01/19 00:08:30.000   47.480945252   19.056528494   180.0137   5   8   2.3148   1.6184   4.6803   0.4438   0.7710   2.3161   0.00    0.0
2019/01/19 00:09:00.000   47.480944849   19.056528336   180.0922   5   8   2.3140   1.6193   4.6981   0.4272   0.7703   2.3222   0.00    0.0
2019/01/19 00:09:30.000   47.480944587   19.056528862   180.4026   5   8   2.3130   1.6202   4.7154   0.4099   0.7696   2.3278   0.00    0.0
2019/01/19 00:10:00.000   47.480944378   19.056530214   180.7379   5   8   2.3119   1.6212   4.7321   0.3918   0.7689   2.3329   0.00    0.0
2019/01/19 00:10:30.000   47.480945625   19.056529725   180.9344   5   8   2.3105   1.6222   4.7482   0.3728   0.7683   2.3374   0.00    0.0
2019/01/19 00:11:00.000   47.480946823   19.056528032   180.6036   5   8   2.3090   1.6233   4.7637   0.3528   0.7677   2.3413   0.00    0.0
2019/01/19 00:11:30.000   47.480947154   19.056528467   180.1562   5   8   2.3074   1.6244   4.7786   0.3315   0.7671   2.3447   0.00    0.0
2019/01/19 00:12:00.000   47.480947401   19.056530369   180.0770   5   8   2.3055   1.6256   4.7929   0.3089   0.7666   2.3475   0.00    0.0
2019/01/19 00:12:30.000   47.480947460   19.056531040   179.8996   5   8   2.3035   1.6268   4.8065   0.2844   0.7662   2.3497   0.00    0.0
2019/01/19 00:13:00.000   47.480947799   19.056532545   179.7401   5   8   2.3012   1.6281   4.8194   0.2576   0.7658   2.3513   0.00    0.0
2019/01/19 00:13:30.000   47.480947262   19.056536392   179.9687   5   8   2.2988   1.6294   4.8316   0.2278   0.7655   2.3522   0.00    0.0
2019/01/19 00:14:00.000   47.480947669   19.056537773   180.1378   5   8   2.2962   1.6308   4.8431   0.1933   0.7653   2.3526   0.00    0.0
2019/01/19 00:14:30.000   47.480948850   19.056538115   180.2138   5   8   2.2934   1.6322   4.8539   0.1514   0.7651   2.3524   0.00    0.0
2019/01/19 00:15:00.000   47.480949454   19.056537700   180.1358   5   8   2.2904   1.6337   4.8639   0.0919   0.7651   2.3515   0.00    0.0
2019/01/19 00:15:30.000   47.480949114   19.056535693   179.8957   5   8   2.2872   1.6352   4.8732  -0.0774   0.7651   2.3500   0.00    0.0
2019/01/19 00:16:00.000   47.480949567   19.056533984   179.7707   5   8   2.2838   1.6367   4.8818  -0.1428   0.7653   2.3478   0.00    0.0
2019/01/19 00:16:30.000   47.480950033   19.056532373   179.0842   5   8   2.2803   1.6383   4.8895  -0.1865   0.7655   2.3450   0.00    0.0
2019/01/19 00:17:00.000   47.480948702   19.056534019   178.6511   5   8   2.2765   1.6400   4.8965  -0.2217   0.7659   2.3416   0.00    0.0
2019/01/19 00:17:30.000   47.480947802   19.056533662   178.6250   5   8   2.2726   1.6416   4.9027  -0.2520   0.7665   2.3375   0.00    0.0
2019/01/19 00:18:00.000   47.480947528   19.056533795   178.6852   5   8   2.2685   1.6434   4.9081  -0.2789   0.7671   2.3328   0.00    0.0
2019/01/19 00:18:30.000   47.480947129   19.056535033   178.8001   5   8   2.2643   1.6452   4.9126  -0.3035   0.7680   2.3275   0.00    0.0
2019/01/19 00:19:00.000   47.480945873   19.056535082   178.9750   5   8   2.2599   1.6470   4.9164  -0.3261   0.7689   2.3215   0.00    0.0
2019/01/19 00:19:30.000   47.480945455   19.056533160   178.9991   5   8   2.2553   1.6489   4.9194  -0.3472   0.7701   2.3149   0.00    0.0
2019/01/19 00:20:00.000   47.480945536   19.056532236   178.9640   5   8   2.2505   1.6508   4.9216  -0.3670   0.7714   2.3076   0.00    0.0
2019/01/19 00:20:30.000   47.480946048   19.056531520   178.8770   5   8   2.2456   1.6527   4.9230  -0.3858   0.7728   2.2997   0.00    0.0
2019/01/19 00:21:00.000   47.480945851   19.056531716   178.9354   5   8   2.2406   1.6547   4.9237  -0.4037   0.7745   2.2912   0.00    0.0
2019/01/19 00:21:30.000   47.480944491   19.056533772   179.3843   5   8   2.2354   1.6568   4.9235  -0.4207   0.7763   2.2821   0.00    0.0
2019/01/19 00:22:00.000   47.480943729   19.056534914   179.7594   5   8   2.2301   1.6589   4.9225  -0.4371   0.7783   2.2723   0.00    0.0
2019/01/19 00:22:30.000   47.480943545   19.056536571   179.8730   5   8   2.2247   1.6610   4.9208  -0.4528   0.7804   2.2620   0.00    0.0
2019/01/19 00:23:00.000   47.480944709   19.056534822   179.6990   5   8   2.2191   1.6632   4.9184  -0.4680   0.7828   2.2511   0.00    0.0
2019/01/19 00:23:30.000   47.480945562   19.056532654   179.4269   5   8   2.2135   1.6654   4.9151  -0.4826   0.7854   2.2395   0.00    0.0
2019/01/19 00:24:00.000   47.480945982   19.056532042   179.3921   5   8   2.2077   1.6677   4.9112  -0.4968   0.7881   2.2274   0.00    0.0
2019/01/19 00:24:30.000   47.480945649   19.056532495   179.3531   5   8   2.2018   1.6700   4.9065  -0.5106   0.7911   2.2147   0.00    0.0
2019/01/19 00:25:00.000   47.480944784   19.056535520   179.5637   5   8   2.1959   1.6724   4.9011  -0.5240   0.7942   2.2015   0.00    0.0
2019/01/19 00:25:30.000   47.480944476   19.056538358   179.8559   5   8   2.1899   1.6748   4.8950  -0.5370   0.7976   2.1877   0.00    0.0
2019/01/19 00:26:00.000   47.480943909   19.056538717   179.8701   5   8   2.1838   1.6773   4.8882  -0.5497   0.8011   2.1734   0.00    0.0
2019/01/19 00:26:30.000   47.480943891   19.056536083   179.5539   5   8   2.1776   1.6798   4.8808  -0.5621   0.8048   2.1585   0.00    0.0
2019/01/19 00:27:00.000   47.480943681   19.056533201   179.4383   5   8   2.1714   1.6823   4.8727  -0.5742   0.8088   2.1432   0.00    0.0
2019/01/19 00:27:30.000   47.480943812   19.056532372   179.5956   5   8   2.1652   1.6849   4.8640  -0.5860   0.8129   2.1273   0.00    0.0
2019/01/19 00:28:00.000   47.480945101   19.056530499   179.6023   5   8   2.1589   1.6875   4.8547  -0.5976   0.8171   2.1109   0.00    0.0
2019/01/19 00:28:30.000   47.480945878   19.056529663   179.5364   5   8   2.1526   1.6902   4.8448  -0.6089   0.8216   2.0941   0.00    0.0
2019/01/19 00:29:00.000   47.480947000   19.056528216   179.2553   5   8   2.1462   1.6929   4.8344  -0.6201   0.8262   2.0768   0.00    0.0
2019/01/19 00:29:30.000   47.480948455   19.056529008   179.1724   5   8   2.1399   1.6957   4.8234  -0.6310   0.8310   2.0590   0.00    0.0
2019/01/19 00:30:00.000   47.480949482   19.056530105   179.0889   5   8   2.1336   1.6985   4.8118  -0.6417   0.8360   2.0408   0.00    0.0
2019/01/19 00:30:30.000   47.480948650   19.056532260   179.1231   5   8   2.1272   1.7014   4.7998  -0.6523   0.8411   2.0222   0.00    0.0
2019/01/19 00:31:00.000   47.480946852   19.056534778   179.3776   5   8   2.1209   1.7043   4.7873  -0.6627   0.8464   2.0032   0.00    0.0
2019/01/19 00:31:30.000   47.480947783   19.056530757   179.2703   5   8   2.1146   1.7072   4.7743  -0.6729   0.8519   1.9837   0.00    0.0
2019/01/19 00:32:00.000   47.480946235   19.056530620   179.2152   5   8   2.1083   1.7102   4.7609  -0.6830   0.8575   1.9639   0.00    0.0
2019/01/19 00:32:30.000   47.480943452   19.056532581   179.0509   5   8   2.1021   1.7133   4.7471  -0.6930   0.8633   1.9436   0.00    0.0
2019/01/19 00:33:00.000   47.480941303   19.056534493   179.0280   5   8   2.0959   1.7163   4.7328  -0.7028   0.8692   1.9230   0.00    0.0
2019/01/19 00:33:30.000   47.480940691   19.056536266   179.2606   5   8   2.0897   1.7195   4.7182  -0.7125   0.8752   1.9021   0.00    0.0
2019/01/19 00:34:00.000   47.480941077   19.056537194   179.4676   5   8   2.0837   1.7226   4.7033  -0.7221   0.8814   1.8808   0.00    0.0
2019/01/19 00:34:30.000   47.480942685   19.056534941   179.3546   5   8   2.0776   1.7258   4.6880  -0.7315   0.8877   1.8591   0.00    0.0
2019/01/19 00:35:00.000   47.480943206   19.056534186   179.6080   5   8   2.0717   1.7291   4.6724  -0.7409   0.8941   1.8371   0.00    0.0
2019/01/19 00:35:30.000   47.480943050   19.056533259   179.6124   5   8   2.0658   1.7324   4.6565  -0.7502   0.9006   1.8148   0.00    0.0
2019/01/19 00:36:00.000   47.480942772   19.056531780   179.4061   5   8   2.0600   1.7357   4.6403  -0.7594   0.9073   1.7922   0.00    0.0
2019/01/19 00:36:30.000   47.480942727   19.056530154   179.2470   5   8   2.0543   1.7391   4.6239  -0.7685   0.9140   1.7693   0.00    0.0
2019/01/19 00:37:00.000   47.480942472   19.056529234   179.2450   5   8   2.0487   1.7425   4.6072  -0.7775   0.9208   1.7461   0.00    0.0
2019/01/19 00:37:30.000   47.480942379   19.056528735   179.3323   5   8   2.0431   1.7460   4.5903  -0.7864   0.9277   1.7226   0.00    0.0
2019/01/19 00:38:00.000   47.480942297   19.056531395   179.5735   5   8   2.0377   1.7495   4.5733  -0.7953   0.9347   1.6988   0.00    0.0
2019/01/19 00:38:30.000   47.480943627   19.056532989   179.7562   5   8   2.0324   1.7531   4.5560  -0.8041   0.9418   1.6747   0.00    0.0
2019/01/19 00:39:00.000   47.480943928   19.056533068   179.8640   5   8   2.0272   1.7567   4.5386  -0.8128   0.9489   1.6503   0.00    0.0
2019/01/19 00:39:30.000   47.480943126   19.056532250   179.8206   5   8   2.0221   1.7603   4.5211  -0.8215   0.9561   1.6257   0.00    0.0
2019/01/19 00:40:00.000   47.480943893   19.056529741   179.6428   5   8   2.0171   1.7640   4.5034  -0.8301   0.9634   1.6008   0.00    0.0
2019/01/19 00:40:30.000   47.480944020   19.056530331   179.7695   5   8   2.0122   1.7677   4.4857  -0.8387   0.9708   1.5756   0.00    0.0
2019/01/19 00:41:00.000   47.480943892   19.056533948   179.8847   5   8   2.0074   1.7715   4.4678  -0.8472   0.9782   1.5501   0.00    0.0
2019/01/19 00:41:30.000   47.480944484   19.056534404   179.4845   5   8   2.0028   1.7753   4.4499  -0.8557   0.9856   1.5244   0.00    0.0
2019/01/19 00:42:00.000   47.480942556   19.056535806   179.3879   5   8   1.9983   1.7792   4.4319  -0.8642   0.9932   1.4984   0.00    0.0
2019/01/19 00:42:30.000   47.480941026   19.056536197   179.5285   5   8   1.9940   1.7831   4.4138  -0.8726   1.0007   1.4722   0.00    0.0
2019/01/19 00:43:00.000   47.480941745   19.056534853   179.7388   5   8   1.9897   1.7870   4.3957  -0.8810   1.0083   1.4456   0.00    0.0
2019/01/19 00:43:30.000   47.480943851   19.056534484   179.9243   5   8   1.9856   1.7910   4.3776  -0.8893   1.0160   1.4188   0.00    0.0
2019/01/19 00:44:00.000   47.480946892   19.056532314   179.9304   5   8   1.9817   1.7951   4.3594  -0.8976   1.0236   1.3917   0.00    0.0
2019/01/19 00:44:30.000   47.480948367   19.056529541   179.6396   5   8   1.9778   1.7992   4.3413  -0.9059   1.0313   1.3643   0.00    0.0
2019/01/19 00:45:00.000   47.480947323   19.056531012   179.5539   5   8   1.9741   1.8033   4.3232  -0.9142   1.0391   1.3365   0.00    0.0
2019/01/19 00:45:30.000   47.480946584   19.056532942   179.6144   5   8   1.9706   1.8074   4.3051  -0.9224   1.0468   1.3085   0.00    0.0
2019/01/19 00:46:00.000   47.480946953   19.056533528   179.8514   5   8   1.9672   1.8116   4.2870  -0.9306   1.0546   1.2801   0.00    0.0
2019/01/19 00:46:30.000   47.480946724   19.056534258   179.9779   5   8   1.9639   1.8159   4.2690  -0.9388   1.0624   1.2514   0.00    0.0
2019/01/19 00:47:00.000   47.480947034   19.056530881   179.5948   5   9   1.9594   1.6388   3.6702  -0.9776  -0.7441   1.1553   0.00    0.0
2019/01/19 00:47:30.000   47.480946477   19.056530923   179.7682   5   9   1.9568   1.6403   3.6621  -0.9802  -0.7308   1.1375   0.00    0.0
2019/01/19 00:48:00.000   47.480946514   19.056530551   179.8259   5   9   1.9543   1.6419   3.6539  -0.9828  -0.7172   1.1195   0.00    0.0
2019/01/19 00:48:30.000   47.480947771   19.056528719   179.8962   5   9   1.9519   1.6434   3.6456  -0.9855  -0.7030   1.1011   0.00    0.0
2019/01/19 00:49:00.000   47.480948530   19.056528783   179.8190   5   9   1.9495   1.6450   3.6373  -0.9881  -0.6885   1.0825   0.00    0.0
2019/01/19 00:49:30.000   47.480948824   19.056530192   179.9021   5   9   1.9471   1.6466   3.6290  -0.9907  -0.6734   1.0635   0.00    0.0
2019/01/19 00:50:00.000   47.480947557   19.056531132   179.8925   5   9   1.9449   1.6482   3.6205  -0.9933  -0.6578   1.0442   0.00    0.0
2019/01/19 00:50:30.000   47.480946764   19.056532615   180.0766   5   9   1.9426   1.6499   3.6120  -0.9959  -0.6417   1.0246   0.00    0.0
2019/01/19 00:51:00.000   47.480946910   19.056532984   180.0865   5   9   1.9404   1.6516   3.6035  -0.9985  -0.6250   1.0046   0.00    0.0
2019/01/19 00:51:30.000   47.480946518   19.056533777   180.1889   5   9   1.9383   1.6533   3.5949  -1.0012  -0.6076   0.9843   0.00    0.0
2019/01/19 00:52:00.000   47.480944606   19.056535354   180.1517   5   9   1.9362   1.6550   3.5863  -1.0038  -0.5896   0.9636   0.00    0.0
2019/01/19 00:52:30.000   47.480943462   19.056535218   180.0972   5   9   1.9342   1.6567   3.5777  -1.0065  -0.5709   0.9425   0.00    0.0
2019/01/19 00:53:00.000   47.480942744   19.056534812   180.0307   5   9   1.9322   1.6585   3.5690  -1.0092  -0.5515   0.9210   0.00    0.0
2019/01/19 00:53:30.000   47.480943723   19.056534676   179.9044   5   9   1.9302   1.6603   3.5603  -1.0118  -0.5312   0.8990   0.00    0.0
2019/01/19 00:54:00.000   47.480944900   19.056535531   179.7949   5   9   1.9284   1.6622   3.5515  -1.0145  -0.5100   0.8766   0.00    0.0
2019/01/19 00:54:30.000   47.480945407   19.056536945   179.7733   5   9   1.9266   1.6640   3.5428  -1.0172  -0.4877   0.8536   0.00    0.0
2019/01/19 00:55:00.000   47.480944504   19.056537297   179.8425   5   9   1.9248   1.6659   3.5340  -1.0200  -0.4642   0.8302   0.00    0.0
2019/01/19 00:55:30.000   47.480943634   19.056536015   179.6979   5   9   1.9231   1.6678   3.5252  -1.0227  -0.4395   0.8062   0.00    0.0
2019/01/19 00:56:00.000   47.480943091   19.056535768   179.7502   5   9   1.9214   1.6698   3.5165  -1.0255  -0.4131   0.7816   0.00    0.0
2019/01/19 00:56:30.000   47.480941642   19.056534874   179.9530   5   9   1.9199   1.6717   3.5077  -1.0282  -0.3848   0.7563   0.00    0.0
2019/01/19 00:57:00.000   47.480941308   19.056534198   179.8619   5   9   1.9183   1.6737   3.4989  -1.0310  -0.3542   0.7303   0.00    0.0
2019/01/19 00:57:30.000   47.480942101   19.056534096   179.5109   5   9   1.9169   1.6757   3.4901  -1.0339  -0.3205   0.7035   0.00    0.0
2019/01/19 00:58:00.000   47.480942568   19.056533562   179.2137   5   9   1.9155   1.6778   3.4813  -1.0367  -0.2829   0.6758   0.00    0.0
2019/01/19 00:58:30.000   47.480942043   19.056533241   178.8485   5   9   1.9141   1.6799   3.4725  -1.0396  -0.2393   0.6471   0.00    0.0
2019/01/19 00:59:00.000   47.480941560   19.056532485   178.6791   5   9   1.9128   1.6820   3.4637  -1.0424  -0.1856   0.6173   0.00    0.0
2019/01/19 00:59:30.000   47.480943314   19.056532504   178.3814   5   9   1.9116   1.6841   3.4549  -1.0454  -0.1079   0.5863   0.00    0.0
2019/01/19 01:00:00.000   47.480945929   19.056534342   179.3031   5   9   1.9046   1.5780   3.2953  -1.0052  -0.7669   0.6757   0.00    0.0
2019/01/19 01:00:30.000   47.480947624   19.056533086   179.7174   5   9   1.9030   1.5784   3.2887  -1.0059  -0.7521   0.6522   0.00    0.0
2019/01/19 01:01:00.000   47.480949817   19.056531888   179.7162   5   9   1.9014   1.5789   3.2821  -1.0066  -0.7370   0.6278   0.00    0.0
2019/01/19 01:01:30.000   47.480950705   19.056530660   179.7215   5   9   1.8998   1.5793   3.2755  -1.0073  -0.7215   0.6026   0.00    0.0
2019/01/19 01:02:00.000   47.480950537   19.056530675   179.8153   5   9   1.8983   1.5798   3.2688  -1.0080  -0.7056   0.5765   0.00    0.0
2019/01/19 01:02:30.000   47.480949513   19.056530648   179.8938   5   9   1.8968   1.5803   3.2622  -1.0088  -0.6893   0.5492   0.00    0.0
2019/01/19 01:03:00.000   47.480948844   19.056531109   180.1398   5   9   1.8954   1.5808   3.2555  -1.0096  -0.6726   0.5207   0.00    0.0
2019/01/19 01:03:30.000   47.480947887   19.056533503   180.4972   5   9   1.8940   1.5814   3.2489  -1.0103  -0.6555   0.4907   0.00    0.0
2019/01/19 01:04:00.000   47.480948374   19.056533684   180.8035   5   9   1.8926   1.5819   3.2423  -1.0112  -0.6379   0.4589   0.00    0.0
2019/01/19 01:04:30.000   47.480948062   19.056533433   181.1818   5   9   1.8913   1.5825   3.2356  -1.0120  -0.6198   0.4250   0.00    0.0
2019/01/19 01:05:00.000   47.480946653   19.056532840   181.2611   5   9   1.8900   1.5832   3.2290  -1.0128  -0.6012   0.3884   0.00    0.0
2019/01/19 01:05:30.000   47.480946690   19.056530658   181.1607   5   9   1.8888   1.5838   3.2224  -1.0137  -0.5819   0.3483   0.00    0.0
2019/01/19 01:06:00.000   47.480947688   19.056527532   181.0499   5   9   1.8876   1.5845   3.2158  -1.0146  -0.5621   0.3033   0.00    0.0
2019/01/19 01:06:30.000   47.480948071   19.056525725   180.9843   5   9   1.8865   1.5853   3.2093  -1.0156  -0.5414   0.2508   0.00    0.0
2019/01/19 01:07:00.000   47.480948999   19.056525868   181.0524   5   9   1.8854   1.5860   3.2027  -1.0165  -0.5200   0.1844   0.00    0.0
2019/01/19 01:07:30.000   47.480948939   19.056525969   181.2212   5   9   1.8843   1.5868   3.1962  -1.0175  -0.4978   0.0729   0.00    0.0
2019/01/19 01:08:00.000   47.480949637   19.056526622   181.1026   5   9   1.8833   1.5876   3.1897  -1.0185  -0.4745  -0.1521   0.00    0.0
2019/01/19 01:08:30.000   47.480950712   19.056526085   180.7307   5   9   1.8824   1.5885   3.1832  -1.0195  -0.4500  -0.2266   0.00    0.0
2019/01/19 01:09:00.000   47.480952724   19.056525228   180.5548   5   9   1.8815   1.5894   3.1767  -1.0206  -0.4242  -0.2816   0.00    0.0
2019/01/19 01:09:30.000   47.480953906   19.056525201   180.3646   5   9   1.8806   1.5903   3.1703  -1.0217  -0.3968  -0.3272   0.00    0.0
2019/01/19 01:10:00.000   47.480954037   19.056526020   180.2369   5   9   1.8798   1.5912   3.1639  -1.0228  -0.3675  -0.3667   0.00    0.0
2019/01/19 01:10:30.000   47.480953682   19.056527959   180.1561   5   9   1.8790   1.5922   3.1575  -1.0239  -0.3357  -0.4022   0.00    0.0
2019/01/19 01:11:00.000   47.480951910   19.056531457   180.3095   5   9   1.8783   1.5932   3.1511  -1.0251  -0.3006  -0.4344   0.00    0.0
2019/01/19 01:11:30.000   47.480949735   19.056532386   180.3145   5   9   1.8776   1.5943   3.1448  -1.0262  -0.2611  -0.4641   0.00    0.0
2019/01/19 01:12:00.000   47.480948890   19.056531310   180.0746   5   9   1.8769   1.5954   3.1385  -1.0274  -0.2145  -0.4917   0.00    0.0
2019/01/19 01:12:30.000   47.480947755   19.056530542   179.6804   5   9   1.8763   1.5965   3.1323  -1.0287  -0.1547  -0.5176   0.00    0.0
2019/01/19 01:13:00.000   47.480946737   19.056529585   179.6984   5   9   1.8758   1.5976   3.1261  -1.0299  -0.0443  -0.5420   0.00    0.0
2019/01/19 01:13:30.000   47.480947278   19.056529997   179.7752   5   9   1.8753   1.5988   3.1199  -1.0312   0.1412  -0.5651   0.00    0.0
2019/01/19 01:14:00.000   47.480947703   19.056529804   180.0445   5   9   1.8748   1.6000   3.1138  -1.0325   0.2043  -0.5870   0.00    0.0
2019/01/19 01:14:30.000   47.480949753   19.056528497   180.1854   5   9   1.8744   1.6012   3.1076  -1.0339   0.2519  -0.6079   0.00    0.0
2019/01/19 01:15:00.000   47.480951335   19.056528264   180.3170   5   9   1.8740   1.6025   3.1016  -1.0352   0.2917  -0.6279   0.00    0.0
2019/01/19 01:15:30.000   47.480951667   19.056529756   180.4640   5   9   1.8737   1.6038   3.0956  -1.0366   0.3266  -0.6470   0.00    0.0
2019/01/19 01:16:00.000   47.480951680   19.056531645   180.5683   5   9   1.8734   1.6051   3.0896  -1.0380   0.3579  -0.6654   0.00    0.0
2019/01/19 01:16:30.000   47.480952749   19.056532478   180.5376   5   9   1.8731   1.6065   3.0836  -1.0395   0.3865  -0.6830   0.00    0.0
2019/01/19 01:17:00.000   47.480953161   19.056532295   180.6360   5   9   1.8729   1.6079   3.0777  -1.0409   0.4131  -0.7000   0.00    0.0
2019/01/19 01:17:30.000   47.480954373   19.056533152   180.6065   5   9   1.8728   1.6093   3.0718  -1.0424   0.4379  -0.7163   0.00    0.0
2019/01/19 01:18:00.000   47.480954302   19.056532858   180.6333   5   9   1.8727   1.6108   3.0660  -1.0439   0.4612  -0.7321   0.00    0.0
2019/01/19 01:18:30.000   47.480954515   19.056532959   180.6198   5   9   1.8726   1.6123   3.0603  -1.0454   0.4833  -0.7473   0.00    0.0
2019/01/19 01:19:00.000   47.480954619   19.056533399   180.4873   5   9   1.8726   1.6138   3.0545  -1.0470   0.5043  -0.7620   0.00    0.0
2019/01/19 01:19:30.000   47.480955344   19.056530784   180.3776   5   9   1.8726   1.6154   3.0489  -1.0485   0.5243  -0.7762   0.00    0.0
2019/01/19 01:20:00.000   47.480954726   19.056529405   180.4437   5   9   1.8726   1.6169   3.0432  -1.0501   0.5435  -0.7900   0.00    0.0
2019/01/19 01:20:30.000   47.480946381   19.056534973   179.6760   5  10   1.6689   1.5121   2.9045  -0.7846   0.9106  -1.1837   0.00    0.0
2019/01/19 01:21:00.000   47.480945894   19.056533791   179.8703   5  10   1.6687   1.5133   2.9040  -0.7858   0.9168  -1.1865   0.00    0.0
2019/01/19 01:21:30.000   47.480945269   19.056532460   180.1209   5  10   1.6686   1.5146   2.9035  -0.7869   0.9229  -1.1892   0.00    0.0
2019/01/19 01:22:00.000   47.480944428   19.056531343   180.1642   5  10   1.6684   1.5159   2.9029  -0.7881   0.9289  -1.1918   0.00    0.0
2019/01/19 01:22:30.000   47.480943865   19.056530192   180.2863   5  10   1.6683   1.5172   2.9022  -0.7893   0.9348  -1.1942   0.00    0.0
2019/01/19 01:23:00.000   47.480943859   19.056528993   180.2491   5  10   1.6683   1.5185   2.9015  -0.7904   0.9405  -1.1966   0.00    0.0
2019/01/19 01:23:30.000   47.480944165   19.056527213   180.2167   5  10   1.6682   1.5198   2.9008  -0.7915   0.9462  -1.1988   0.00    0.0
2019/01/19 01:24:00.000   47.480944234   19.056529108   180.3056   5  10   1.6682   1.5211   2.9000  -0.7926   0.9517  -1.2008   0.00    0.0
2019/01/19 01:24:30.000   47.480945316   19.056531470   180.2882   5  10   1.6682   1.5225   2.8992  -0.7937   0.9572  -1.2028   0.00    0.0
2019/01/19 01:25:00.000   47.480946092   19.056534252   180.1758   5  10   1.6683   1.5239   2.8983  -0.7948   0.9625  -1.2046   0.00    0.0
2019/01/19 01:25:30.000   47.480947624   19.056536132   179.7467   5  10   1.6683   1.5253   2.8974  -0.7959   0.9678  -1.2063   0.00    0.0
2019/01/19 01:26:00.000   47.480948179   19.056536430   179.3375   5  10   1.6684   1.5267   2.8965  -0.7970   0.9729  -1.2079   0.00    0.0
2019/01/19 01:26:30.000   47.480948734   19.056535851   179.2398   5  10   1.6686   1.5281   2.8954  -0.7980   0.9780  -1.2094   0.00    0.0
2019/01/19 01:27:00.000   47.480946961   19.056536418   179.4314   5  10   1.6687   1.5296   2.8944  -0.7990   0.9829  -1.2108   0.00    0.0
2019/01/19 01:27:30.000   47.480944043   19.056537079   179.8742   5   9   2.3197   1.5375   3.7541  -0.6425   0.7990  -2.3072   0.00    0.0
2019/01/19 01:28:00.000   47.480942617   19.056537021   179.5525   5   8   2.4866   1.5488   3.8592  -0.5164   0.9076  -2.1375   0.00    0.0
2019/01/19 01:28:30.000   47.480942863   19.056538211   179.6881   5   8   2.4870   1.5498   3.8658  -0.5292   0.9244  -2.1421   0.00    0.0
2019/01/19 01:29:00.000   47.480943105   19.056538466   179.9239   5   8   2.4874   1.5509   3.8722  -0.5418   0.9410  -2.1466   0.00    0.0
2019/01/19 01:29:30.000   47.480943709   19.056537746   179.9736   5   8   2.4877   1.5521   3.8786  -0.5541   0.9574  -2.1509   0.00    0.0
2019/01/19 01:30:00.000   47.480944611   19.056537473   179.9115   5   8   2.4879   1.5533   3.8848  -0.5661   0.9734  -2.1551   0.00    0.0
2019/01/19 01:30:30.000   47.480944067   19.056539077   179.9498   5   8   2.4882   1.5545   3.8908  -0.5780   0.9892  -2.1592   0.00    0.0
2019/01/19 01:31:00.000   47.480945161   19.056537339   179.7289   5   9   2.2181   1.3820   3.1331   0.6772  -0.8042  -1.4373   0.00    0.0
2019/01/19 01:31:30.000   47.480944421   19.056535743   179.8043   5   9   2.2159   1.3806   3.1361   0.6744  -0.7955  -1.4370   0.00    0.0
2019/01/19 01:32:00.000   47.480945308   19.056534968   179.8539   5   9   2.2137   1.3793   3.1392   0.6716  -0.7867  -1.4367   0.00    0.0
2019/01/19 01:32:30.000   47.480946342   19.056534714   179.9144   5   9   2.2115   1.3780   3.1423   0.6687  -0.7777  -1.4364   0.00    0.0
2019/01/19 01:33:00.000   47.480945644   19.056535178   180.1432   5   9   2.2093   1.3767   3.1454   0.6658  -0.7686  -1.4360   0.00    0.0
2019/01/19 01:33:30.000   47.480945251   19.056535082   180.0337   5   9   2.2071   1.3755   3.1485   0.6628  -0.7593  -1.4357   0.00    0.0
2019/01/19 01:34:00.000   47.480944371   19.056533885   179.8483   5   9   2.2049   1.3744   3.1516   0.6598  -0.7498  -1.4353   0.00    0.0
2019/01/19 01:34:30.000   47.480944394   19.056532068   179.7538   5   9   2.2027   1.3733   3.1547   0.6568  -0.7400  -1.4349   0.00    0.0
2019/01/19 01:35:00.000   47.480944778   19.056531462   179.6448   5   9   2.2005   1.3722   3.1577   0.6537  -0.7301  -1.4344   0.00    0.0
2019/01/19 01:35:30.000   47.480946861   19.056531031   179.3814   5   9   2.1984   1.3712   3.1608   0.6506  -0.7200  -1.4340   0.00    0.0
2019/01/19 01:36:00.000   47.480947408   19.056532338   179.3586   5   9   2.1962   1.3702   3.1639   0.6474  -0.7096  -1.4335   0.00    0.0
2019/01/19 01:36:30.000   47.480946887   19.056533191   179.7241   5   9   2.1940   1.3693   3.1669   0.6442  -0.6990  -1.4331   0.00    0.0
2019/01/19 01:37:00.000   47.480945430   19.056535410   179.9800   5   9   2.1918   1.3684   3.1699   0.6410  -0.6881  -1.4326   0.00    0.0
2019/01/19 01:37:30.000   47.480944148   19.056536604   180.1102   5   9   2.1897   1.3676   3.1730   0.6377  -0.6770  -1.4321   0.00    0.0
2019/01/19 01:38:00.000   47.480943337   19.056536763   180.0252   5   9   2.1875   1.3668   3.1759   0.6343  -0.6656  -1.4316   0.00    0.0
2019/01/19 01:38:30.000   47.480943285   19.056536232   179.8804   5   9   2.1854   1.3661   3.1789   0.6309  -0.6540  -1.4310   0.00    0.0
2019/01/19 01:39:00.000   47.480943393   19.056535611   179.9161   5   9   2.1832   1.3654   3.1818   0.6275  -0.6420  -1.4304   0.00    0.0
2019/01/19 01:39:30.000   47.480943918   19.056535267   179.8915   5   9   2.1810   1.3647   3.1847   0.6240  -0.6297  -1.4298   0.00    0.0
2019/01/19 01:40:00.000   47.480944580   19.056535355   179.9912   5   9   2.1789   1.3641   3.1876   0.6205  -0.6172  -1.4292   0.00    0.0
2019/01/19 01:40:30.000   47.480943994   19.056535009   180.0042   5   9   2.1767   1.3635   3.1904   0.6170  -0.6042  -1.4285   0.00    0.0
2019/01/19 01:41:00.000   47.480942721   19.056534946   179.9873   5   9   2.1746   1.3630   3.1931   0.6134  -0.5909  -1.4278   0.00    0.0
2019/01/19 01:41:30.000   47.480940713   19.056535382   180.2850   5   9   2.1724   1.3625   3.1959   0.6098  -0.5773  -1.4271   0.00    0.0
2019/01/19 01:42:00.000   47.480938751   19.056535345   180.5368   5   9   2.1702   1.3621   3.1986   0.6061  -0.5631  -1.4264   0.00    0.0
2019/01/19 01:42:30.000   47.480938988   19.056535307   180.5093   5   9   2.1681   1.3617   3.2012   0.6024  -0.5486  -1.4256   0.00    0.0
2019/01/19 01:43:00.000   47.480939608   19.056535071   180.4226   5   9   2.1659   1.3614   3.2038   0.5986  -0.5335  -1.4248   0.00    0.0
2019/01/19 01:43:30.000   47.480940567   19.056534610   180.2140   5   9   2.1638   1.3611   3.2063   0.5948  -0.5180  -1.4240   0.00    0.0
2019/01/19 01:44:00.000   47.480940815   19.056536502   180.2005   5   9   2.1616   1.3609   3.2088   0.5910  -0.5018  -1.4232   0.00    0.0
2019/01/19 01:44:30.000   47.480940437   19.056538375   180.2453   5   9   2.1595   1.3607   3.2112   0.5871  -0.4850  -1.4223   0.00    0.0
2019/01/19 01:45:00.000   47.480940398   19.056538324   180.2571   5   9   2.1573   1.3605   3.2136   0.5831  -0.4675  -1.4214   0.00    0.0
2019/01/19 01:45:30.000   47.480940953   19.056537587   180.2680   5   9   2.1552   1.3604   3.2159   0.5792  -0.4492  -1.4204   0.00    0.0
2019/01/19 01:46:00.000   47.480942828   19.056535444   180.0722   5   9   2.1530   1.3603   3.2182   0.5751  -0.4300  -1.4194   0.00    0.0
2019/01/19 01:46:30.000   47.480943169   19.056533819   179.8718   5   9   2.1509   1.3603   3.2204   0.5711  -0.4098  -1.4184   0.00    0.0
2019/01/19 01:47:00.000   47.480943095   19.056533627   180.0280   5   9   2.1487   1.3604   3.2225   0.5669  -0.3885  -1.4174   0.00    0.0
2019/01/19 01:47:30.000   47.480943347   19.056533328   180.0503   5   9   2.1466   1.3604   3.2246   0.5628  -0.3659  -1.4164   0.00    0.0
2019/01/19 01:48:00.000   47.480943635   19.056533369   180.1162   5   9   2.1444   1.3606   3.2266   0.5586  -0.3417  -1.4153   0.00    0.0
2019/01/19 01:48:30.000   47.480942933   19.056533614   180.1212   5   9   2.1423   1.3607   3.2286   0.5543  -0.3155  -1.4142   0.00    0.0
2019/01/19 01:49:00.000   47.480942807   19.056534597   179.9354   5   9   2.1402   1.3610   3.2305   0.5500  -0.2869  -1.4130   0.00    0.0
2019/01/19 01:49:30.000   47.480942619   19.056534980   179.7902   5   9   2.1380   1.3613   3.2323   0.5457  -0.2549  -1.4119   0.00    0.0
2019/01/19 01:50:00.000   47.480944132   19.056533873   179.6058   5   9   2.1359   1.3616   3.2341   0.5413  -0.2182  -1.4107   0.00    0.0
2019/01/19 01:50:30.000   47.480945509   19.056534996   179.5825   5   9   2.1338   1.3620   3.2358   0.5369  -0.1737  -1.4095   0.00    0.0
2019/01/19 01:51:00.000   47.480945616   19.056535426   179.5812   5   9   2.1316   1.3624   3.2375   0.5324  -0.1126  -1.4082   0.00    0.0
2019/01/19 01:51:30.000   47.480946523   19.056534087   179.4707   5   9   2.1295   1.3629   3.2391   0.5279   0.0696  -1.4070   0.00    0.0
2019/01/19 01:52:00.000   47.480945638   19.056534302   179.5593   5   9   2.1274   1.3634   3.2406   0.5233   0.1497  -1.4057   0.00    0.0
2019/01/19 01:52:30.000   47.480945579   19.056535118   179.6526   5   9   2.1253   1.3640   3.2421   0.5187   0.2000  -1.4043   0.00    0.0
2019/01/19 01:53:00.000   47.480944493   19.056535702   179.8131   5   9   2.1232   1.3646   3.2435   0.5140   0.2401  -1.4030   0.00    0.0
2019/01/19 01:53:30.000   47.480944238   19.056536253   179.7828   5  10   1.9732   1.3545   3.1418   0.6268   0.4631  -1.6112   0.00    0.0
2019/01/19 01:54:00.000   47.480946079   19.056535455   179.7917   5  10   1.9704   1.3552   3.1449   0.6231   0.4805  -1.6086   0.00    0.0
2019/01/19 01:54:30.000   47.480947494   19.056535541   179.8132   5  10   1.9676   1.3560   3.1481   0.6194   0.4974  -1.6059   0.00    0.0
2019/01/19 01:55:00.000   47.480948861   19.056534360   179.7239   5  10   1.9648   1.3568   3.1511   0.6157   0.5136  -1.6032   0.00    0.0
2019/01/19 01:55:30.000   47.480948689   19.056534197   179.6702   5  10   1.9621   1.3577   3.1542   0.6121   0.5294  -1.6004   0.00    0.0
2019/01/19 01:56:00.000   47.480947817   19.056534184   179.6502   5  10   1.9594   1.3587   3.1572   0.6084   0.5448  -1.5975   0.00    0.0
2019/01/19 01:56:30.000   47.480946362   19.056534479   179.6805   5  10   1.9567   1.3597   3.1601   0.6047   0.5598  -1.5946   0.00    0.0
2019/01/19 01:57:00.000   47.480945478   19.056535235   179.8966   5  10   1.9540   1.3607   3.1630   0.6010   0.5744  -1.5916   0.00    0.0
2019/01/19 01:57:30.000   47.480945900   19.056535004   180.0273   5  10   1.9513   1.3618   3.1659   0.5973   0.5886  -1.5885   0.00    0.0
2019/01/19 01:58:00.000   47.480946038   19.056535443   180.4531   5  10   1.9487   1.3630   3.1687   0.5936   0.6026  -1.5854   0.00    0.0
2019/01/19 01:58:30.000   47.480946808   19.056533984   180.6913   5  10   1.9461   1.3642   3.1714   0.5899   0.6162  -1.5822   0.00    0.0
2019/01/19 01:59:00.000   47.480946923   19.056534162   180.8013   5  10   1.9435   1.3654   3.1741   0.5862   0.6295  -1.5790   0.00    0.0
2019/01/19 01:59:30.000   47.480948723   19.056532360   180.2372   5  11   1.9046   1.2401   2.8693   0.7443  -0.6084  -1.4047   0.00    0.0
2019/01/19 02:00:00.000   47.480949079   19.056533125   180.1015   5  11   1.9019   1.2399   2.8714   0.7426  -0.5996  -1.4004   0.00    0.0
2019/01/19 02:00:30.000   47.480949644   19.056532538   179.8820   5  11   1.8992   1.2398   2.8734   0.7408  -0.5906  -1.3961   0.00    0.0
2019/01/19 02:01:00.000   47.480948738   19.056533477   179.8986   5  11   1.8966   1.2397   2.8754   0.7391  -0.5815  -1.3918   0.00    0.0
2019/01/19 02:01:30.000   47.480947873   19.056533568   179.8691   5  11   1.8940   1.2396   2.8775   0.7374  -0.5721  -1.3874   0.00    0.0
2019/01/19 02:02:00.000   47.480948489   19.056536366   179.4523   5  10   2.0710   1.5166   3.3954   1.1306  -1.3742  -1.8521   0.00    0.0
2019/01/19 02:02:30.000   47.480947737   19.056535969   179.5284   5  10   2.0652   1.5133   3.3973   1.1241  -1.3666  -1.8447   0.00    0.0
2019/01/19 02:03:00.000   47.480947998   19.056534368   179.4100   5  10   2.0595   1.5100   3.3992   1.1175  -1.3588  -1.8372   0.00    0.0
2019/01/19 02:03:30.000   47.480948968   19.056531949   179.2284   5  10   2.0538   1.5068   3.4010   1.1110  -1.3509  -1.8296   0.00    0.0
2019/01/19 02:04:00.000   47.480949814   19.056530153   179.1573   5  10   2.0481   1.5036   3.4027   1.1044  -1.3429  -1.8219   0.00    0.0
2019/01/19 02:04:30.000   47.480948777   19.056531512   179.3166   5  10   2.0425   1.5005   3.4044   1.0979  -1.3348  -1.8141   0.00    0.0
2019/01/19 02:05:00.000   47.480947600   19.056532434   179.7242   5  10   2.0369   1.4974   3.4060   1.0913  -1.3265  -1.8062   0.00    0.0
2019/01/19 02:05:30.000   47.480947120   19.056532350   180.0757   5  10   2.0314   1.4943   3.4075   1.0848  -1.3182  -1.7983   0.00    0.0
2019/01/19 02:06:00.000   47.480947443   19.056532366   180.2792   5  10   2.0260   1.4913   3.4090   1.0782  -1.3097  -1.7902   0.00    0.0
2019/01/19 02:06:30.000   47.480949165   19.056531568   179.8607   5  10   2.0205   1.4883   3.4105   1.0717  -1.3011  -1.7821   0.00    0.0
2019/01/19 02:07:00.000   47.480950064   19.056528900   179.2369   5  10   2.0152   1.4854   3.4118   1.0652  -1.2924  -1.7739   0.00    0.0
2019/01/19 02:07:30.000   47.480948273   19.056527958   178.9802   5  10   2.0098   1.4825   3.4132   1.0586  -1.2835  -1.7655   0.00    0.0
2019/01/19 02:08:00.000   47.480944681   19.056530840   179.4757   5  10   2.0046   1.4797   3.4144   1.0521  -1.2745  -1.7571   0.00    0.0
2019/01/19 02:08:30.000   47.480942066   19.056535205   180.1566   5  10   1.9993   1.4769   3.4156   1.0456  -1.2654  -1.7486   0.00    0.0
2019/01/19 02:09:00.000   47.480940660   19.056537645   180.7888   5  10   1.9942   1.4741   3.4167   1.0391  -1.2561  -1.7400   0.00    0.0
2019/01/19 02:09:30.000   47.480940539   19.056537762   180.9659   5  10   1.9891   1.4714   3.4178   1.0326  -1.2467  -1.7313   0.00    0.0
2019/01/19 02:10:00.000   47.480942948   19.056534918   180.4842   5  10   1.9840   1.4687   3.4189   1.0261  -1.2372  -1.7225   0.00    0.0
2019/01/19 02:10:30.000   47.480944540   19.056531924   180.0185   5  10   1.9790   1.4661   3.4198   1.0196  -1.2275  -1.7136   0.00    0.0
2019/01/19 02:11:00.000   47.480943661   19.056531786   180.0618   5  10   1.9741   1.4635   3.4208   1.0132  -1.2177  -1.7047   0.00    0.0
2019/01/19 02:11:30.000   47.480941690   19.056532189   180.1995   5  10   1.9692   1.4610   3.4216   1.0067  -1.2077  -1.6956   0.00    0.0
2019/01/19 02:12:00.000   47.480939496   19.056533677   180.6957   5  10   1.9643   1.4585   3.4225   1.0003  -1.1976  -1.6864   0.00    0.0
2019/01/19 02:12:30.000   47.480939093   19.056534533   180.8721   5  10   1.9596   1.4561   3.4232   0.9939  -1.1873  -1.6771   0.00    0.0
2019/01/19 02:13:00.000   47.480940287   19.056533714   180.7727   5  10   1.9549   1.4537   3.4240   0.9875  -1.1768  -1.6678   0.00    0.0
2019/01/19 02:13:30.000   47.480942018   19.056533045   180.4531   5  10   1.9503   1.4514   3.4246   0.9811  -1.1662  -1.6583   0.00    0.0
2019/01/19 02:14:00.000   47.480946108   19.056534230   180.2166   5  11   1.8843   1.3913   3.3498   0.8682  -1.2746  -1.7507   0.00    0.0
2019/01/19 02:14:30.000   47.480946388   19.056534724   179.9944   5  11   1.8793   1.3883   3.3500   0.8601  -1.2658  -1.7422   0.00    0.0
2019/01/19 02:15:00.000   47.480945250   19.056535710   179.9858   5  11   1.8745   1.3853   3.3501   0.8520  -1.2568  -1.7335   0.00    0.0
2019/01/19 02:15:30.000   47.480944808   19.056536211   179.9584   5  11   1.8696   1.3823   3.3502   0.8439  -1.2477  -1.7248   0.00    0.0
2019/01/19 02:16:00.000   47.480945703   19.056534427   179.7339   5  11   1.8649   1.3794   3.3502   0.8358  -1.2385  -1.7160   0.00    0.0
2019/01/19 02:16:30.000   47.480946187   19.056533452   179.6651   5  11   1.8602   1.3765   3.3502   0.8277  -1.2292  -1.7070   0.00    0.0
2019/01/19 02:17:00.000   47.480946196   19.056534055   179.6412   5  11   1.8556   1.3737   3.3502   0.8195  -1.2198  -1.6981   0.00    0.0
2019/01/19 02:17:30.000   47.480947129   19.056534850   179.9150   5  10   2.0004   1.3777   3.4428   0.8732  -1.1643  -1.5003   0.00    0.0
2019/01/19 02:18:00.000   47.480946775   19.056534752   179.6961   5  10   1.9941   1.3747   3.4498   0.8637  -1.1537  -1.4839   0.00    0.0
2019/01/19 02:18:30.000   47.480946777   19.056535105   179.4216   5  10   1.9880   1.3716   3.4570   0.8542  -1.1431  -1.4673   0.00    0.0
2019/01/19 02:19:00.000   47.480947732   19.056535095   179.0107   5  10   1.9820   1.3687   3.4644   0.8448  -1.1323  -1.4506   0.00    0.0
2019/01/19 02:19:30.000   47.480947464   19.056536975   178.8773   5  10   1.9762   1.3658   3.4721   0.8354  -1.1213  -1.4337   0.00    0.0
2019/01/19 02:20:00.000   47.480947295   19.056537393   178.9030   5  10   1.9705   1.3630   3.4799   0.8262  -1.1103  -1.4166   0.00    0.0
2019/01/19 02:20:30.000   47.480947910   19.056535826   179.0717   5  10   1.9650   1.3603   3.4880   0.8170  -1.0991  -1.3993   0.00    0.0
2019/01/19 02:21:00.000   47.480949119   19.056533620   179.3495   5  10   1.9596   1.3576   3.4962   0.8079  -1.0878  -1.3818   0.00    0.0
2019/01/19 02:21:30.000   47.480949456   19.056534409   179.6190   5  10   1.9544   1.3550   3.5047   0.7988  -1.0763  -1.3641   0.00    0.0
2019/01/19 02:22:00.000   47.480950171   19.056536015   180.0114   5  10   1.9493   1.3525   3.5135   0.7898  -1.0647  -1.3461   0.00    0.0
2019/01/19 02:22:30.000   47.480950184   19.056537146   180.5722   5  10   1.9444   1.3500   3.5224   0.7809  -1.0529  -1.3279   0.00    0.0
2019/01/19 02:23:00.000   47.480950143   19.056538756   181.1254   5  10   1.9396   1.3476   3.5315   0.7721  -1.0409  -1.3094   0.00    0.0
2019/01/19 02:23:30.000   47.480951213   19.056538883   181.4374   5  10   1.9350   1.3453   3.5409   0.7633  -1.0287  -1.2907   0.00    0.0
2019/01/19 02:24:00.000   47.480952071   19.056537981   181.3443   5  10   1.9305   1.3430   3.5505   0.7546  -1.0163  -1.2716   0.00    0.0
2019/01/19 02:24:30.000   47.480952378   19.056537619   181.1305   5  10   1.9262   1.3408   3.5603   0.7460  -1.0037  -1.2523   0.00    0.0
2019/01/19 02:25:00.000   47.480952129   19.056537203   180.7460   5  10   1.9220   1.3387   3.5703   0.7375  -0.9909  -1.2326   0.00    0.0
2019/01/19 02:25:30.000   47.480951677   19.056537682   180.4955   5  10   1.9179   1.3366   3.5805   0.7290  -0.9778  -1.2125   0.00    0.0
2019/01/19 02:26:00.000   47.480951626   19.056537711   180.1249   5  10   1.9140   1.3346   3.5909   0.7207  -0.9644  -1.1921   0.00    0.0
2019/01/19 02:26:30.000   47.480951522   19.056538019   179.9925   5  10   1.9103   1.3327   3.6016   0.7124  -0.9508  -1.1713   0.00    0.0
2019/01/19 02:27:00.000   47.480951439   19.056537474   179.8984   5  10   1.9067   1.3308   3.6124   0.7042  -0.9369  -1.1501   0.00    0.0
2019/01/19 02:27:30.000   47.480951335   19.056537369   180.2499   5  10   1.9032   1.3290   3.6235   0.6960  -0.9227  -1.1285   0.00    0.0
2019/01/19 02:28:00.000   47.480951309   19.056538307   180.6227   5  10   1.8999   1.3272   3.6347   0.6880  -0.9081  -1.1063   0.00    0.0
2019/01/19 02:28:30.000   47.480951842   19.056538462   180.7658   5  11   1.7111   1.3255   3.3502   0.6721  -0.8826   0.0574   0.00    0.0
2019/01/19 02:29:00.000   47.480952730   19.056538095   180.2702   5  11   1.7110   1.3239   3.3636   0.6679  -0.8720   0.2046   0.00    0.0
2019/01/19 02:29:30.000   47.480952805   19.056535961   179.6736   5  11   1.7109   1.3224   3.3771   0.6637  -0.8612   0.2842   0.00    0.0
2019/01/19 02:30:00.000   47.480951890   19.056535324   179.5424   5  11   1.7110   1.3209   3.3908   0.6596  -0.8500   0.3465   0.00    0.0
2019/01/19 02:30:30.000   47.480950427   19.056536357   179.7197   5  11   1.7112   1.3195   3.4046   0.6556  -0.8385   0.3996   0.00    0.0
2019/01/19 02:31:00.000   47.480949897   19.056537944   180.1810   5  11   1.7115   1.3181   3.4185   0.6517  -0.8267   0.4469   0.00    0.0
2019/01/19 02:31:30.000   47.480950214   19.056539620   180.7541   5  11   1.7119   1.3168   3.4326   0.6480  -0.8145   0.4900   0.00    0.0
2019/01/19 02:32:00.000   47.480950972   19.056539669   181.1885   5  11   1.7124   1.3155   3.4468   0.6443  -0.8019   0.5300   0.00    0.0
2019/01/19 02:32:30.000   47.480952426   19.056538123   181.0115   5  11   1.7130   1.3142   3.4611   0.6407  -0.7890   0.5675   0.00    0.0
2019/01/19 02:33:00.000   47.480952661   19.056537509   180.6881   5  11   1.7137   1.3130   3.4755   0.6372  -0.7756   0.6029   0.00    0.0
2019/01/19 02:33:30.000   47.480951952   19.056537928   180.4534   5  11   1.7145   1.3118   3.4900   0.6338  -0.7617   0.6367   0.00    0.0
2019/01/19 02:34:00.000   47.480950953   19.056538887   180.3948   5  11   1.7154   1.3107   3.5047   0.6306  -0.7474   0.6690   0.00    0.0
2019/01/19 02:34:30.000   47.480950930   19.056539321   180.6287   5  11   1.7165   1.3096   3.5194   0.6274  -0.7325   0.7001   0.00    0.0
2019/01/19 02:35:00.000   47.480951600   19.056538911   180.6541   5  11   1.7176   1.3086   3.5342   0.6244  -0.7171   0.7301   0.00    0.0
2019/01/19 02:35:30.000   47.480952800   19.056537960   180.6657   5  11   1.7188   1.3076   3.5492   0.6215  -0.7011   0.7592   0.00    0.0
2019/01/19 02:36:00.000   47.480954151   19.056537519   180.7807   5  11   1.7201   1.3067   3.5642   0.6187  -0.6845   0.7874   0.00    0.0
2019/01/19 02:36:30.000   47.480954805   19.056537705   181.0394   5  11   1.7215   1.3058   3.5793   0.6160  -0.6672   0.8149   0.00    0.0
2019/01/19 02:37:00.000   47.480955415   19.056538065   181.0404   5  11   1.7230   1.3050   3.5945   0.6135  -0.6491   0.8416   0.00    0.0
2019/01/19 02:37:30.000   47.480954178   19.056538535   181.2079   5  11   1.7246   1.3042   3.6097   0.6111  -0.6302   0.8677   0.00    0.0
2019/01/19 02:38:00.000   47.480951376   19.056539161   181.1997   5  11   1.7263   1.3035   3.6250   0.6088  -0.6105   0.8932   0.00    0.0
2019/01/19 02:38:30.000   47.480948977   19.056540729   181.0857   5  11   1.7281   1.3028   3.6403   0.6067  -0.5897   0.9182   0.00    0.0
2019/01/19 02:39:00.000   47.480948183   19.056541592   180.9205   5  11   1.7299   1.3022   3.6557   0.6047  -0.5679   0.9427   0.00    0.0
2019/01/19 02:39:30.000   47.480949387   19.056542399   180.8420   5  11   1.7319   1.3016   3.6712   0.6029  -0.5448   0.9667   0.00    0.0
2019/01/19 02:40:00.000   47.480950950   19.056541366   180.7946   5  11   1.7339   1.3011   3.6866   0.6012  -0.5203   0.9902   0.00    0.0
2019/01/19 02:40:30.000   47.480951800   19.056539996   180.9593   5  11   1.7361   1.3006   3.7021   0.5996  -0.4942   1.0133   0.00    0.0
2019/01/19 02:41:00.000   47.480951996   19.056538774   181.2583   5  11   1.7383   1.3002   3.7176   0.5982  -0.4662   1.0361   0.00    0.0
2019/01/19 02:41:30.000   47.480951515   19.056539159   181.5479   5  11   1.7406   1.2999   3.7331   0.5969  -0.4360   1.0584   0.00    0.0
2019/01/19 02:42:00.000   47.480951066   19.056539514   181.6523   5  11   1.7430   1.2996   3.7486   0.5958  -0.4030   1.0804   0.00    0.0
2019/01/19 02:42:30.000   47.480950397   19.056540707   181.4121   5  11   1.7455   1.2993   3.7641   0.5948  -0.3665   1.1020   0.00    0.0
2019/01/19 02:43:00.000   47.480951166   19.056540846   181.0695   5  11   1.7480   1.2992   3.7795   0.5940  -0.3254   1.1232   0.00    0.0
2019/01/19 02:43:30.000   47.480953159   19.056540942   180.6839   5  11   1.7506   1.2991   3.7950   0.5933  -0.2776   1.1442   0.00    0.0
2019/01/19 02:44:00.000   47.480954177   19.056540943   180.7001   5  11   1.7533   1.2990   3.8103   0.5928  -0.2187   1.1648   0.00    0.0
2019/01/19 02:44:30.000   47.480953375   19.056540030   180.7796   5  11   1.7561   1.2990   3.8256   0.5924  -0.1349   1.1850   0.00    0.0
2019/01/19 02:45:00.000   47.480951467   19.056537502   180.6454   5  11   1.7589   1.2991   3.8409   0.5921   0.1086   1.2050   0.00    0.0
2019/01/19 02:45:30.000   47.480950160   19.056536265   180.4719   5  11   1.7618   1.2992   3.8560   0.5921   0.2053   1.2246   0.00    0.0
2019/01/19 02:46:00.000   47.480949974   19.056536514   180.4909   5  11   1.7648   1.2994   3.8711   0.5921   0.2700   1.2439   0.00    0.0
2019/01/19 02:46:30.000   47.480951198   19.056537752   180.7469   5  11   1.7678   1.2997   3.8860   0.5923   0.3225   1.2629   0.00    0.0
2019/01/19 02:47:00.000   47.480952154   19.056537464   180.8617   5  11   1.7708   1.3001   3.9008   0.5927   0.3681   1.2815   0.00    0.0
2019/01/19 02:47:30.000   47.480952062   19.056537853   181.1144   5  11   1.7740   1.3005   3.9155   0.5932   0.4090   1.2999   0.00    0.0
2019/01/19 02:48:00.000   47.480950915   19.056538981   181.0752   5  11   1.7771   1.3009   3.9301   0.5938   0.4466   1.3179   0.00    0.0
2019/01/19 02:48:30.000   47.480951133   19.056540318   181.1856   5  11   1.7803   1.3015   3.9444   0.5946   0.4816   1.3356   0.00    0.0
2019/01/19 02:49:00.000   47.480952748   19.056541965   181.2325   5  11   1.7836   1.3021   3.9586   0.5955   0.5145   1.3530   0.00    0.0
2019/01/19 02:49:30.000   47.480954863   19.056542103   181.1158   5  11   1.7869   1.3027   3.9726   0.5966   0.5457   1.3701   0.00    0.0
2019/01/19 02:50:00.000   47.480957040   19.056541387   181.0387   5  11   1.7902   1.3035   3.9864   0.5977   0.5755   1.3868   0.00    0.0
2019/01/19 02:50:30.000   47.480957531   19.056540589   181.2231   5  11   1.7935   1.3043   4.0000   0.5990   0.6040   1.4032   0.00    0.0
2019/01/19 02:51:00.000   47.480957815   19.056537996   181.2661   5  11   1.7969   1.3052   4.0134   0.6005   0.6314   1.4193   0.00    0.0
2019/01/19 02:51:30.000   47.480958469   19.056536876   181.5594   5  11   1.8003   1.3061   4.0265   0.6020   0.6578   1.4350   0.00    0.0
2019/01/19 02:52:00.000   47.480958414   19.056537031   181.7919   5  11   1.8037   1.3071   4.0393   0.6036   0.6834   1.4503   0.00    0.0
2019/01/19 02:52:30.000   47.480957889   19.056537901   181.8190   5  11   1.8071   1.3082   4.0519   0.6053   0.7082   1.4653   0.00    0.0
2019/01/19 02:53:00.000   47.480957027   19.056538990   181.9252   5  11   1.8105   1.3094   4.0642   0.6072   0.7323   1.4799   0.00    0.0
2019/01/19 02:53:30.000   47.480956549   19.056537031   181.6053   5  11   1.8139   1.3106   4.0761   0.6091   0.7557   1.4942   0.00    0.0
2019/01/19 02:54:00.000   47.480955922   19.056535663   181.4923   5  11   1.8173   1.3119   4.0877   0.6111   0.7785   1.5081   0.00    0.0
2019/01/19 02:54:30.000   47.480956524   19.056535382   181.4210   5  11   1.8207   1.3132   4.0990   0.6131   0.8007   1.5216   0.00    0.0
2019/01/19 02:55:00.000   47.480957094   19.056536135   181.6459   5  11   1.8241   1.3147   4.1099   0.6153   0.8223   1.5347   0.00    0.0
2019/01/19 02:55:30.000   47.480958036   19.056536917   181.9732   5  11   1.8275   1.3161   4.1205   0.6175   0.8435   1.5474   0.00    0.0
2019/01/19 02:56:00.000   47.480958065   19.056537332   182.2695   5  11   1.8308   1.3177   4.1307   0.6197   0.8641   1.5597   0.00    0.0
2019/01/19 02:56:30.000   47.480958029   19.056537550   182.1628   5  11   1.8341   1.3193   4.1404   0.6220   0.8842   1.5716   0.00    0.0
2019/01/19 02:57:00.000   47.480958614   19.056537731   181.9063   5  11   1.8374   1.3210   4.1498   0.6243   0.9039   1.5831   0.00    0.0
2019/01/19 02:57:30.000   47.480958257   19.056538183   181.9897   5  11   1.8406   1.3227   4.1587   0.6267   0.9232   1.5941   0.00    0.0
2019/01/19 02:58:00.000   47.480957780   19.056539312   181.9419   5  11   1.8438   1.3245   4.1672   0.6291   0.9420   1.6047   0.00    0.0
2019/01/19 02:58:30.000   47.480957653   19.056540669   182.0012   5  11   1.8470   1.3264   4.1753   0.6314   0.9604   1.6149   0.00    0.0
2019/01/19 02:59:00.000   47.480958221   19.056540104   181.9515   5  11   1.8501   1.3283   4.1829   0.6338   0.9783   1.6246   0.00    0.0
2019/01/19 02:59:30.000   47.480959247   19.056540938   182.1903   5  11   1.8531   1.3303   4.1900   0.6362   0.9958   1.6338   0.00    0.0
2019/01/19 03:00:00.000   47.480960250   19.056543429   182.3527   5  11   1.8561   1.3323   4.1966   0.6386   1.0130   1.6426   0.00    0.0
2019/01/19 03:00:30.000   47.480959987   19.056544352   182.2818   5  11   1.8590   1.3344   4.2028   0.6409   1.0297   1.6509   0.00    0.0
2019/01/19 03:01:00.000   47.480959822   19.056544783   182.4050   5  11   1.8618   1.3366   4.2084   0.6433   1.0460   1.6588   0.00    0.0
2019/01/19 03:01:30.000   47.480959852   19.056543263   182.6182   5  11   1.8646   1.3388   4.2136   0.6455   1.0619   1.6661   0.00    0.0
2019/01/19 03:02:00.000   47.480960201   19.056540735   182.8524   5  11   1.8673   1.3410   4.2182   0.6478   1.0774   1.6730   0.00    0.0
2019/01/19 03:02:30.000   47.480960187   19.056539337   182.9732   5  11   1.8699   1.3433   4.2223   0.6499   1.0926   1.6793   0.00    0.0
2019/01/19 03:03:00.000   47.480959493   19.056538756   183.1069   5  11   1.8724   1.3456   4.2259   0.6520   1.1073   1.6852   0.00    0.0
2019/01/19 03:03:30.000   47.480958103   19.056538612   182.9961   5  11   1.8748   1.3480   4.2289   0.6541   1.1217   1.6906   0.00    0.0
2019/01/19 03:04:00.000   47.480958136   19.056537469   182.9250   5  11   1.8771   1.3504   4.2314   0.6560   1.1356   1.6954   0.00    0.0
2019/01/19 03:04:30.000   47.480958075   19.056537311   183.0391   5  11   1.8793   1.3529   4.2334   0.6579   1.1492   1.6998   0.00    0.0
2019/01/19 03:05:00.000   47.480957384   19.056536951   183.2330   5  11   1.8815   1.3554   4.2348   0.6597   1.1624   1.7036   0.00    0.0
2019/01/19 03:05:30.000   47.480957260   19.056536371   183.2706   5  11   1.8835   1.3579   4.2356   0.6613   1.1752   1.7069   0.00    0.0
2019/01/19 03:06:00.000   47.480957864   19.056535168   183.8291   5  11   1.8854   1.3604   4.2360   0.6629   1.1876   1.7097   0.00    0.0
2019/01/19 03:06:30.000   47.480959553   19.056534481   184.4593   5  11   1.8873   1.3630   4.2357   0.6643   1.1996   1.7120   0.00    0.0
2019/01/19 03:07:00.000   47.480959934   19.056533758   184.5263   5  11   1.8890   1.3656   4.2350   0.6656   1.2113   1.7137   0.00    0.0
2019/01/19 03:07:30.000   47.480960264   19.056536358   184.4301   5  11   1.8906   1.3683   4.2337   0.6668   1.2225   1.7149   0.00    0.0
2019/01/19 03:08:00.000   47.480951172   19.056529279   181.6771   5  12   1.6814   1.2404   3.2818  -0.2463  -0.1968   0.7908   0.00    0.0
2019/01/19 03:08:30.000   47.480954671   19.056537680   179.8164   5  11   1.8081   1.4736   4.0751   0.6791  -1.3949  -0.9827   0.00    0.0
2019/01/19 03:09:00.000   47.480955127   19.056537623   179.6860   5  11   1.8079   1.4712   4.0786   0.6711  -1.3871  -0.9762   0.00    0.0
2019/01/19 03:09:30.000   47.480956447   19.056535383   179.4632   5  11   1.8078   1.4687   4.0818   0.6631  -1.3791  -0.9698   0.00    0.0
2019/01/19 03:10:00.000   47.480956360   19.056534132   179.3605   5  11   1.8076   1.4663   4.0847   0.6551  -1.3709  -0.9635   0.00    0.0
2019/01/19 03:10:30.000   47.480956245   19.056534972   179.1909   5  11   1.8076   1.4639   4.0874   0.6470  -1.3625  -0.9572   0.00    0.0
2019/01/19 03:11:00.000   47.480956718   19.056535180   179.1742   5  11   1.8076   1.4616   4.0898   0.6389  -1.3539  -0.9511   0.00    0.0
2019/01/19 03:11:30.000   47.480957649   19.056534953   179.2969   5  11   1.8076   1.4592   4.0919   0.6308  -1.3451  -0.9450   0.00    0.0
2019/01/19 03:12:00.000   47.480957523   19.056535108   179.1463   5  11   1.8077   1.4569   4.0938   0.6227  -1.3360  -0.9391   0.00    0.0
2019/01/19 03:12:30.000   47.480956550   19.056535424   179.0465   5  11   1.8078   1.4546   4.0953   0.6145  -1.3268  -0.9333   0.00    0.0
2019/01/19 03:13:00.000   47.480955082   19.056535544   179.1031   5  11   1.8079   1.4524   4.0966   0.6063  -1.3173  -0.9276   0.00    0.0
2019/01/19 03:13:30.000   47.480954211   19.056536668   179.2850   5  11   1.8082   1.4502   4.0976   0.5980  -1.3076  -0.9220   0.00    0.0
2019/01/19 03:14:00.000   47.480954614   19.056538381   179.3146   5  11   1.8084   1.4480   4.0983   0.5897  -1.2977  -0.9165   0.00    0.0
2019/01/19 03:14:30.000   47.480955240   19.056538970   179.0935   5  11   1.8087   1.4458   4.0987   0.5814  -1.2875  -0.9113   0.00    0.0
2019/01/19 03:15:00.000   47.480954988   19.056539247   178.9568   5  11   1.8090   1.4437   4.0987   0.5730  -1.2771  -0.9062   0.00    0.0
2019/01/19 03:15:30.000   47.480954163   19.056538740   178.7919   5  11   1.8094   1.4416   4.0985   0.5645  -1.2665  -0.9012   0.00    0.0
2019/01/19 03:16:00.000   47.480953726   19.056538550   178.6719   5  11   1.8098   1.4396   4.0980   0.5560  -1.2557  -0.8964   0.00    0.0
2019/01/19 03:16:30.000   47.480954135   19.056539291   178.1002   5  11   1.8103   1.4375   4.0971   0.5475  -1.2447  -0.8918   0.00    0.0
2019/01/19 03:17:00.000   47.480955842   19.056538759   177.4297   5  11   1.8108   1.4356   4.0959   0.5388  -1.2334  -0.8875   0.00    0.0
2019/01/19 03:17:30.000   47.480957002   19.056538694   177.0182   5  11   1.8113   1.4336   4.0944   0.5302  -1.2220  -0.8833   0.00    0.0
2019/01/19 03:18:00.000   47.480955819   19.056539411   177.1382   5  11   1.8119   1.4317   4.0925   0.5214  -1.2103  -0.8794   0.00    0.0
2019/01/19 03:18:30.000   47.480954515   19.056540148   177.4970   5  11   1.8125   1.4299   4.0904   0.5125  -1.1984  -0.8757   0.00    0.0
2019/01/19 03:19:00.000   47.480953805   19.056540423   177.8423   5  11   1.8131   1.4281   4.0879   0.5036  -1.1862  -0.8722   0.00    0.0
2019/01/19 03:19:30.000   47.480955365   19.056541061   178.0314   5  11   1.8138   1.4263   4.0850   0.4945  -1.1738  -0.8690   0.00    0.0
2019/01/19 03:20:00.000   47.480956309   19.056540915   178.1840   5  11   1.8145   1.4246   4.0819   0.4854  -1.1613  -0.8660   0.00    0.0
2019/01/19 03:20:30.000   47.480956092   19.056540270   178.5752   5  11   1.8152   1.4229   4.0784   0.4761  -1.1484  -0.8632   0.00    0.0
2019/01/19 03:21:00.000   47.480954653   19.056539397   178.7910   5  11   1.8160   1.4212   4.0746   0.4667  -1.1354  -0.8607   0.00    0.0
2019/01/19 03:21:30.000   47.480953142   19.056539011   178.9130   5  11   1.8168   1.4196   4.0704   0.4572  -1.1221  -0.8585   0.00    0.0
2019/01/19 03:22:00.000   47.480952331   19.056539093   178.9282   5  11   1.8176   1.4181   4.0660   0.4476  -1.1086  -0.8566   0.00    0.0
2019/01/19 03:22:30.000   47.480952788   19.056540364   178.8809   5  11   1.8185   1.4166   4.0612   0.4377  -1.0949  -0.8549   0.00    0.0
2019/01/19 03:23:00.000   47.480953351   19.056541454   178.4413   5  11   1.8193   1.4151   4.0561   0.4278  -1.0810  -0.8534   0.00    0.0
2019/01/19 03:23:30.000   47.480953454   19.056540504   177.8346   5  11   1.8203   1.4137   4.0507   0.4176  -1.0668  -0.8523   0.00    0.0
2019/01/19 03:24:00.000   47.480953820   19.056539675   177.7098   5  11   1.8212   1.4124   4.0450   0.4072  -1.0524  -0.8514   0.00    0.0
2019/01/19 03:24:30.000   47.480954137   19.056538839   177.9878   5  11   1.8222   1.4111   4.0390   0.3966  -1.0377  -0.8508   0.00    0.0
2019/01/19 03:25:00.000   47.480954645   19.056539138   178.1686   5  11   1.8232   1.4099   4.0327   0.3858  -1.0228  -0.8505   0.00    0.0
2019/01/19 03:25:30.000   47.480954500   19.056539435   178.4865   5  11   1.8242   1.4087   4.0261   0.3746  -1.0077  -0.8504   0.00    0.0
2019/01/19 03:26:00.000   47.480955942   19.056540141   178.5017   5  11   1.8252   1.4075   4.0193   0.3632  -0.9923  -0.8506   0.00    0.0
2019/01/19 03:26:30.000   47.480957291   19.056540001   178.2085   5  11   1.8263   1.4064   4.0121   0.3515  -0.9766  -0.8511   0.00    0.0
2019/01/19 03:27:00.000   47.480956338   19.056540643   178.3330   5  11   1.8274   1.4054   4.0047   0.3393  -0.9608  -0.8518   0.00    0.0
2019/01/19 03:27:30.000   47.480955027   19.056540393   178.7084   5  11   1.8285   1.4044   3.9970   0.3268  -0.9446  -0.8528   0.00    0.0
2019/01/19 03:28:00.000   47.480954050   19.056542214   179.1311   5  11   1.8297   1.4035   3.9890   0.3138  -0.9282  -0.8540   0.00    0.0
2019/01/19 03:28:30.000   47.480953933   19.056545042   179.3293   5  11   1.8309   1.4026   3.9808   0.3003  -0.9115  -0.8555   0.00    0.0
2019/01/19 03:29:00.000   47.480954279   19.056545554   179.4629   5  11   1.8321   1.4018   3.9723   0.2861  -0.8946  -0.8573   0.00    0.0
2019/01/19 03:29:30.000   47.480954695   19.056544095   179.4909   5  11   1.8333   1.4010   3.9636   0.2712  -0.8773  -0.8593   0.00    0.0
