% program   : GINA 1.0
% inp file  : C:\Users\lus2bp\Source\Repos\GINA\70_EGNOS_Project\files\PositionComparisonInputFiles\bute0190\bute0190.19o
% inp file  : C:\Users\lus2bp\Source\Repos\GINA\70_EGNOS_Project\files\PositionComparisonInputFiles\bute0190\brdc0190.19n
% obs start : 2019/01/19 00:00:00.0 GPST (week2036 518400.0s)
% obs end   : 2019/01/19 23:59:30.0 GPST (week2036 604770.0s)
% pos mode  : single
% elev mask : 10.0 deg
% ionos opt : ems
% tropo opt : Saas
% ephemeris : broadcasted
% (lat/lon/height=WGS84/ellipsoidal,Q=1:fix,2:float,3:sbas,4:dgps,5:single,6:ppp,ns=# of satellites)
%  GPST                  latitude(deg) longitude(deg)  height(m)   Q  ns   sdn(m)   sde(m)   sdu(m)  sdne(m)  sdeu(m)  sdun(m) age(s)  ratio
2019/01/19 00:00:00.000   47.480967889   19.056569124   184.6131   5   8   1.2716   1.3180   0.8544   1.0729  -0.6494  -0.6409   0.00    0.0
2019/01/19 00:00:30.000   47.480969646   19.056568961   184.5891   5   8   1.2781   1.3231   0.8572   1.0897  -0.6552  -0.6499   0.00    0.0
2019/01/19 00:01:00.000   47.480971326   19.056569787   184.8354   5   8   1.2846   1.3281   0.8601   1.1064  -0.6610  -0.6589   0.00    0.0
2019/01/19 00:01:30.000   47.480971457   19.056571749   184.8392   5   8   1.2910   1.3330   0.8629   1.1230  -0.6666  -0.6678   0.00    0.0
2019/01/19 00:02:00.000   47.480971903   19.056570836   184.9517   5   8   1.2975   1.3377   0.8657   1.1395  -0.6722  -0.6768   0.00    0.0
2019/01/19 00:02:30.000   47.480972741   19.056569756   185.6662   5   8   1.3039   1.3424   0.8686   1.1558  -0.6777  -0.6858   0.00    0.0
2019/01/19 00:03:00.000   47.480972826   19.056568487   185.7964   5   8   1.3103   1.3470   0.8714   1.1721  -0.6832  -0.6947   0.00    0.0
2019/01/19 00:03:30.000   47.480973386   19.056564209   185.5122   5   8   1.3167   1.3515   0.8742   1.1882  -0.6885  -0.7036   0.00    0.0
2019/01/19 00:04:00.000   47.480973173   19.056561449   185.3635   5   8   1.3230   1.3558   0.8769   1.2041  -0.6937  -0.7125   0.00    0.0
2019/01/19 00:04:30.000   47.480972518   19.056562201   185.3300   5   8   1.3293   1.3600   0.8797   1.2198  -0.6988  -0.7213   0.00    0.0
2019/01/19 00:05:00.000   47.480970855   19.056561382   185.3138   5   8   1.3356   1.3641   0.8824   1.2353  -0.7037  -0.7301   0.00    0.0
2019/01/19 00:05:30.000   47.480968721   19.056563780   185.5318   5   8   1.3418   1.3681   0.8852   1.2506  -0.7086  -0.7388   0.00    0.0
2019/01/19 00:06:00.000   47.480967624   19.056566194   185.8831   5   8   1.3479   1.3718   0.8879   1.2656  -0.7132  -0.7474   0.00    0.0
2019/01/19 00:06:30.000   47.480967170   19.056566817   185.9614   5   8   1.3539   1.3755   0.8905   1.2803  -0.7178  -0.7560   0.00    0.0
2019/01/19 00:07:00.000   47.480967791   19.056567192   185.7584   5   8   1.3599   1.3790   0.8932   1.2947  -0.7221  -0.7644   0.00    0.0
2019/01/19 00:07:30.000   47.480969056   19.056564720   185.7467   5   8   1.3658   1.3823   0.8958   1.3088  -0.7263  -0.7728   0.00    0.0
2019/01/19 00:08:00.000   47.480969611   19.056562395   185.7533   5   8   1.3716   1.3854   0.8984   1.3225  -0.7302  -0.7810   0.00    0.0
2019/01/19 00:08:30.000   47.480969047   19.056562930   185.8466   5   8   1.3773   1.3884   0.9009   1.3359  -0.7340  -0.7892   0.00    0.0
2019/01/19 00:09:00.000   47.480968469   19.056562897   185.9164   5   8   1.3829   1.3911   0.9034   1.3489  -0.7376  -0.7971   0.00    0.0
2019/01/19 00:09:30.000   47.480968028   19.056563460   186.2219   5   8   1.3884   1.3937   0.9059   1.3614  -0.7410  -0.8050   0.00    0.0
2019/01/19 00:10:00.000   47.480967633   19.056564819   186.5532   5   8   1.3937   1.3961   0.9084   1.3735  -0.7441  -0.8127   0.00    0.0
2019/01/19 00:10:30.000   47.480968683   19.056564365   186.7463   5   8   1.3990   1.3983   0.9108   1.3852  -0.7470  -0.8202   0.00    0.0
2019/01/19 00:11:00.000   47.480969686   19.056562636   186.4103   5   8   1.4041   1.4003   0.9131   1.3964  -0.7497  -0.8276   0.00    0.0
2019/01/19 00:11:30.000   47.480969822   19.056563062   185.9498   5   8   1.4090   1.4020   0.9154   1.4071  -0.7521  -0.8348   0.00    0.0
2019/01/19 00:12:00.000   47.480969872   19.056564932   185.8532   5   8   1.4139   1.4036   0.9177   1.4173  -0.7542  -0.8418   0.00    0.0
2019/01/19 00:12:30.000   47.480969726   19.056565576   185.6565   5   8   1.4185   1.4049   0.9199   1.4269  -0.7561  -0.8486   0.00    0.0
2019/01/19 00:13:00.000   47.480969839   19.056567164   185.4769   5   8   1.4230   1.4061   0.9221   1.4360  -0.7577  -0.8552   0.00    0.0
2019/01/19 00:13:30.000   47.480969068   19.056571128   185.6835   5   8   1.4274   1.4069   0.9242   1.4446  -0.7591  -0.8616   0.00    0.0
2019/01/19 00:14:00.000   47.480969255   19.056572486   185.8303   5   8   1.4316   1.4076   0.9263   1.4525  -0.7602  -0.8678   0.00    0.0
2019/01/19 00:14:30.000   47.480970212   19.056572806   185.8812   5   8   1.4356   1.4080   0.9283   1.4599  -0.7609  -0.8737   0.00    0.0
2019/01/19 00:15:00.000   47.480970584   19.056572367   185.7779   5   8   1.4394   1.4082   0.9303   1.4666  -0.7614  -0.8794   0.00    0.0
2019/01/19 00:15:30.000   47.480970015   19.056570303   185.5092   5   8   1.4430   1.4082   0.9322   1.4728  -0.7616  -0.8849   0.00    0.0
2019/01/19 00:16:00.000   47.480970235   19.056568536   185.3549   5   8   1.4465   1.4079   0.9341   1.4783  -0.7615  -0.8901   0.00    0.0
2019/01/19 00:16:30.000   47.480970470   19.056566899   184.6332   5   8   1.4498   1.4074   0.9359   1.4831  -0.7611  -0.8951   0.00    0.0
2019/01/19 00:17:00.000   47.480968889   19.056568621   184.1601   5   8   1.4528   1.4066   0.9376   1.4873  -0.7603  -0.8998   0.00    0.0
2019/01/19 00:17:30.000   47.480967739   19.056568277   184.0962   5   8   1.4557   1.4056   0.9393   1.4909  -0.7593  -0.9042   0.00    0.0
2019/01/19 00:18:00.000   47.480967219   19.056568384   184.1179   5   8   1.4584   1.4044   0.9410   1.4938  -0.7580  -0.9084   0.00    0.0
2019/01/19 00:18:30.000   47.480966576   19.056569584   184.1931   5   8   1.4609   1.4029   0.9426   1.4960  -0.7563  -0.9123   0.00    0.0
2019/01/19 00:19:00.000   47.480965069   19.056569660   184.3248   5   8   1.4631   1.4012   0.9441   1.4976  -0.7544  -0.9160   0.00    0.0
2019/01/19 00:19:30.000   47.480964409   19.056567737   184.3040   5   8   1.4652   1.3993   0.9456   1.4985  -0.7522  -0.9193   0.00    0.0
2019/01/19 00:20:00.000   47.480964237   19.056566872   184.2173   5   8   1.4671   1.3971   0.9470   1.4987  -0.7496  -0.9224   0.00    0.0
2019/01/19 00:20:30.000   47.480964489   19.056566188   184.0827   5   8   1.4687   1.3947   0.9484   1.4983  -0.7468  -0.9253   0.00    0.0
2019/01/19 00:21:00.000   47.480964026   19.056566412   184.0937   5   8   1.4702   1.3921   0.9497   1.4972  -0.7436  -0.9278   0.00    0.0
2019/01/19 00:21:30.000   47.480962391   19.056568543   184.4898   5   8   1.4714   1.3892   0.9510   1.4955  -0.7402  -0.9301   0.00    0.0
2019/01/19 00:22:00.000   47.480961354   19.056569771   184.8050   5   8   1.4725   1.3861   0.9522   1.4931  -0.7365  -0.9322   0.00    0.0
2019/01/19 00:22:30.000   47.480960912   19.056571496   184.8542   5   8   1.4733   1.3828   0.9534   1.4901  -0.7325  -0.9339   0.00    0.0
2019/01/19 00:23:00.000   47.480961840   19.056569752   184.6145   5   8   1.4739   1.3793   0.9545   1.4865  -0.7282  -0.9354   0.00    0.0
2019/01/19 00:23:30.000   47.480962456   19.056567564   184.2815   5   8   1.4743   1.3756   0.9556   1.4822  -0.7236  -0.9366   0.00    0.0
2019/01/19 00:24:00.000   47.480962631   19.056566910   184.1944   5   8   1.4746   1.3716   0.9566   1.4773  -0.7188  -0.9376   0.00    0.0
2019/01/19 00:24:30.000   47.480962039   19.056567308   184.1066   5   8   1.4746   1.3675   0.9576   1.4719  -0.7137  -0.9383   0.00    0.0
2019/01/19 00:25:00.000   47.480960909   19.056570350   184.2580   5   8   1.4744   1.3632   0.9586   1.4659  -0.7084  -0.9388   0.00    0.0
2019/01/19 00:25:30.000   47.480960354   19.056573218   184.4877   5   8   1.4740   1.3587   0.9595   1.4593  -0.7028  -0.9391   0.00    0.0
2019/01/19 00:26:00.000   47.480959560   19.056573581   184.4426   5   8   1.4735   1.3540   0.9604   1.4522  -0.6970  -0.9391   0.00    0.0
2019/01/19 00:26:30.000   47.480959336   19.056570863   184.0771   5   8   1.4727   1.3492   0.9612   1.4445  -0.6910  -0.9389   0.00    0.0
2019/01/19 00:27:00.000   47.480958899   19.056567941   183.9078   5   8   1.4718   1.3441   0.9620   1.4364  -0.6848  -0.9384   0.00    0.0
2019/01/19 00:27:30.000   47.480958781   19.056567159   183.9981   5   8   1.4707   1.3390   0.9628   1.4277  -0.6783  -0.9378   0.00    0.0
2019/01/19 00:28:00.000   47.480959820   19.056565289   183.9448   5   8   1.4695   1.3336   0.9635   1.4186  -0.6717  -0.9369   0.00    0.0
2019/01/19 00:28:30.000   47.480960352   19.056564462   183.8122   5   8   1.4680   1.3281   0.9643   1.4090  -0.6648  -0.9358   0.00    0.0
2019/01/19 00:29:00.000   47.480961253   19.056562984   183.4668   5   8   1.4664   1.3225   0.9649   1.3990  -0.6578  -0.9346   0.00    0.0
2019/01/19 00:29:30.000   47.480962510   19.056563714   183.3229   5   8   1.4647   1.3167   0.9656   1.3885  -0.6506  -0.9331   0.00    0.0
2019/01/19 00:30:00.000   47.480963361   19.056564762   183.1785   5   8   1.4627   1.3108   0.9663   1.3777  -0.6433  -0.9315   0.00    0.0
2019/01/19 00:30:30.000   47.480962350   19.056566959   183.1432   5   8   1.4607   1.3048   0.9669   1.3665  -0.6358  -0.9297   0.00    0.0
2019/01/19 00:31:00.000   47.480960357   19.056569516   183.3308   5   8   1.4585   1.2987   0.9675   1.3550  -0.6282  -0.9278   0.00    0.0
2019/01/19 00:31:30.000   47.480961087   19.056565408   183.1725   5   8   1.4561   1.2925   0.9681   1.3431  -0.6204  -0.9257   0.00    0.0
2019/01/19 00:32:00.000   47.480959299   19.056565269   183.0585   5   8   1.4536   1.2861   0.9687   1.3309  -0.6125  -0.9234   0.00    0.0
2019/01/19 00:32:30.000   47.480956288   19.056567258   182.8292   5   8   1.4510   1.2797   0.9693   1.3184  -0.6045  -0.9210   0.00    0.0
2019/01/19 00:33:00.000   47.480953940   19.056569205   182.7404   5   8   1.4483   1.2732   0.9699   1.3057  -0.5964  -0.9185   0.00    0.0
2019/01/19 00:33:30.000   47.480953156   19.056571015   182.9038   5   8   1.4454   1.2666   0.9705   1.2927  -0.5882  -0.9159   0.00    0.0
2019/01/19 00:34:00.000   47.480953386   19.056571963   183.0426   5   8   1.4424   1.2600   0.9710   1.2794  -0.5800  -0.9132   0.00    0.0
2019/01/19 00:34:30.000   47.480954857   19.056569658   182.8718   5   8   1.4394   1.2533   0.9716   1.2660  -0.5716  -0.9104   0.00    0.0
2019/01/19 00:35:00.000   47.480955210   19.056568930   183.0561   5   8   1.4362   1.2465   0.9721   1.2523  -0.5632  -0.9074   0.00    0.0
2019/01/19 00:35:30.000   47.480954877   19.056568000   182.9960   5   8   1.4329   1.2397   0.9727   1.2385  -0.5547  -0.9044   0.00    0.0
2019/01/19 00:36:00.000   47.480954419   19.056566511   182.7275   5   8   1.4295   1.2328   0.9733   1.2245  -0.5461  -0.9013   0.00    0.0
2019/01/19 00:36:30.000   47.480954209   19.056564872   182.5077   5   8   1.4261   1.2259   0.9739   1.2104  -0.5375  -0.8982   0.00    0.0
2019/01/19 00:37:00.000   47.480953813   19.056563958   182.4450   5   8   1.4226   1.2189   0.9744   1.1961  -0.5289  -0.8949   0.00    0.0
2019/01/19 00:37:30.000   47.480953595   19.056563449   182.4743   5   8   1.4189   1.2119   0.9750   1.1818  -0.5202  -0.8916   0.00    0.0
2019/01/19 00:38:00.000   47.480953378   19.056566112   182.6533   5   8   1.4153   1.2049   0.9757   1.1673  -0.5115  -0.8883   0.00    0.0
2019/01/19 00:38:30.000   47.480954564   19.056567689   182.7790   5   8   1.4115   1.1979   0.9763   1.1528  -0.5028  -0.8849   0.00    0.0
2019/01/19 00:39:00.000   47.480954711   19.056567756   182.8317   5   8   1.4077   1.1909   0.9769   1.1382  -0.4940  -0.8815   0.00    0.0
2019/01/19 00:39:30.000   47.480953763   19.056566935   182.7349   5   8   1.4038   1.1838   0.9775   1.1236  -0.4853  -0.8781   0.00    0.0
2019/01/19 00:40:00.000   47.480954404   19.056564347   182.5099   5   8   1.3999   1.1768   0.9782   1.1089  -0.4765  -0.8746   0.00    0.0
2019/01/19 00:40:30.000   47.480954404   19.056564888   182.5811   5   8   1.3959   1.1698   0.9789   1.0942  -0.4678  -0.8711   0.00    0.0
2019/01/19 00:41:00.000   47.480954144   19.056568464   182.6393   5   8   1.3919   1.1627   0.9796   1.0795  -0.4591  -0.8676   0.00    0.0
2019/01/19 00:41:30.000   47.480954631   19.056568791   182.1957   5   8   1.3879   1.1557   0.9803   1.0648  -0.4503  -0.8641   0.00    0.0
2019/01/19 00:42:00.000   47.480952632   19.056570141   182.0505   5   8   1.3838   1.1487   0.9811   1.0501  -0.4416  -0.8605   0.00    0.0
2019/01/19 00:42:30.000   47.480951064   19.056570514   182.1396   5   8   1.3796   1.1418   0.9818   1.0355  -0.4329  -0.8570   0.00    0.0
2019/01/19 00:43:00.000   47.480951964   19.056569198   182.3424   5   8   1.3755   1.1348   0.9826   1.0208  -0.4243  -0.8535   0.00    0.0
2019/01/19 00:43:30.000   47.480955527   19.056569174   182.7572   5   8   1.3713   1.1279   0.9834   1.0062  -0.4156  -0.8500   0.00    0.0
2019/01/19 00:44:00.000   47.480958424   19.056566979   182.7127   5   8   1.3671   1.1210   0.9842   0.9917  -0.4070  -0.8465   0.00    0.0
2019/01/19 00:44:30.000   47.480959781   19.056564158   182.3756   5   8   1.3629   1.1141   0.9851   0.9772  -0.3985  -0.8430   0.00    0.0
2019/01/19 00:45:00.000   47.480958663   19.056565621   182.2360   5   8   1.3586   1.1073   0.9860   0.9628  -0.3899  -0.8395   0.00    0.0
2019/01/19 00:45:30.000   47.480957865   19.056567504   182.2500   5   8   1.3544   1.1005   0.9869   0.9485  -0.3814  -0.8361   0.00    0.0
2019/01/19 00:46:00.000   47.480958180   19.056568020   182.4435   5   8   1.3501   1.0937   0.9878   0.9342  -0.3730  -0.8326   0.00    0.0
2019/01/19 00:46:30.000   47.480957906   19.056568673   182.5292   5   8   1.3458   1.0870   0.9888   0.9201  -0.3646  -0.8292   0.00    0.0
2019/01/19 00:47:00.000   47.480957713   19.056557627   180.6018   5   9   1.1522   0.9949   0.6736   0.6166  -0.0508  -0.3276   0.00    0.0
2019/01/19 00:47:30.000   47.480957181   19.056557387   180.6956   5   9   1.1516   0.9922   0.6752   0.6130  -0.0502  -0.3296   0.00    0.0
2019/01/19 00:48:00.000   47.480957205   19.056556655   180.6759   5   9   1.1508   0.9895   0.6769   0.6092  -0.0496  -0.3316   0.00    0.0
2019/01/19 00:48:30.000   47.480958440   19.056554742   180.7236   5   9   1.1501   0.9866   0.6785   0.6053  -0.0490  -0.3336   0.00    0.0
2019/01/19 00:49:00.000   47.480959226   19.056555106   180.6737   5   9   1.1492   0.9838   0.6802   0.6012  -0.0484  -0.3356   0.00    0.0
2019/01/19 00:49:30.000   47.480959574   19.056556868   180.8011   5   9   1.1484   0.9809   0.6818   0.5971  -0.0478  -0.3376   0.00    0.0
2019/01/19 00:50:00.000   47.480958360   19.056557877   180.7962   5   9   1.1474   0.9779   0.6835   0.5929  -0.0471  -0.3396   0.00    0.0
2019/01/19 00:50:30.000   47.480957610   19.056559357   180.9710   5   9   1.1465   0.9749   0.6852   0.5886  -0.0464  -0.3415   0.00    0.0
2019/01/19 00:51:00.000   47.480957802   19.056559670   180.9679   5   9   1.1455   0.9719   0.6868   0.5842  -0.0457  -0.3434   0.00    0.0
2019/01/19 00:51:30.000   47.480957477   19.056560601   181.0855   5   9   1.1444   0.9689   0.6885   0.5797  -0.0450  -0.3453   0.00    0.0
2019/01/19 00:52:00.000   47.480955677   19.056561769   180.9685   5   9   1.1433   0.9658   0.6902   0.5751  -0.0443  -0.3472   0.00    0.0
2019/01/19 00:52:30.000   47.480954607   19.056561221   180.8451   5   9   1.1422   0.9626   0.6919   0.5705  -0.0436  -0.3491   0.00    0.0
2019/01/19 00:53:00.000   47.480953956   19.056560314   180.7062   5   9   1.1410   0.9595   0.6936   0.5658  -0.0428  -0.3510   0.00    0.0
2019/01/19 00:53:30.000   47.480955012   19.056559576   180.4901   5   9   1.1397   0.9563   0.6953   0.5610  -0.0420  -0.3528   0.00    0.0
2019/01/19 00:54:00.000   47.480956250   19.056560176   180.3365   5   9   1.1385   0.9531   0.6969   0.5562  -0.0412  -0.3547   0.00    0.0
2019/01/19 00:54:30.000   47.480956799   19.056561423   180.2841   5   9   1.1372   0.9498   0.6987   0.5512  -0.0404  -0.3565   0.00    0.0
2019/01/19 00:55:00.000   47.480955953   19.056561344   180.2962   5   9   1.1358   0.9465   0.7004   0.5463  -0.0396  -0.3583   0.00    0.0
2019/01/19 00:55:30.000   47.480955201   19.056559835   180.1173   5   9   1.1345   0.9432   0.7021   0.5413  -0.0387  -0.3601   0.00    0.0
2019/01/19 00:56:00.000   47.480954798   19.056559732   180.1786   5   9   1.1331   0.9399   0.7038   0.5362  -0.0378  -0.3618   0.00    0.0
2019/01/19 00:56:30.000   47.480953482   19.056558896   180.3848   5   9   1.1316   0.9366   0.7055   0.5311  -0.0370  -0.3636   0.00    0.0
2019/01/19 00:57:00.000   47.480953247   19.056558082   180.2736   5   9   1.1302   0.9333   0.7072   0.5259  -0.0361  -0.3653   0.00    0.0
2019/01/19 00:57:30.000   47.480954056   19.056558136   179.9409   5   9   1.1287   0.9299   0.7089   0.5207  -0.0352  -0.3671   0.00    0.0
2019/01/19 00:58:00.000   47.480954579   19.056557476   179.6278   5   9   1.1271   0.9265   0.7106   0.5155  -0.0342  -0.3688   0.00    0.0
2019/01/19 00:58:30.000   47.480954213   19.056556463   179.1728   5   9   1.1256   0.9232   0.7124   0.5103  -0.0333  -0.3704   0.00    0.0
2019/01/19 00:59:00.000   47.480953863   19.056555150   178.9289   5   9   1.1240   0.9198   0.7141   0.5050  -0.0324  -0.3721   0.00    0.0
2019/01/19 00:59:30.000   47.480955685   19.056555255   178.6196   5   9   1.1224   0.9164   0.7158   0.4997  -0.0314  -0.3738   0.00    0.0
2019/01/19 01:00:00.000   47.480956967   19.056554768   178.9300   5   9   1.1207   0.9130   0.7176   0.4944  -0.0304  -0.3754   0.00    0.0
2019/01/19 01:00:30.000   47.480958713   19.056553284   179.3247   5   9   1.1191   0.9095   0.7193   0.4890  -0.0295  -0.3770   0.00    0.0
2019/01/19 01:01:00.000   47.480961006   19.056551892   179.2980   5   9   1.1174   0.9061   0.7210   0.4837  -0.0285  -0.3786   0.00    0.0
2019/01/19 01:01:30.000   47.480961990   19.056550455   179.2855   5   9   1.1157   0.9027   0.7227   0.4783  -0.0275  -0.3802   0.00    0.0
2019/01/19 01:02:00.000   47.480961931   19.056550360   179.3666   5   9   1.1139   0.8993   0.7245   0.4729  -0.0265  -0.3817   0.00    0.0
2019/01/19 01:02:30.000   47.480961087   19.056550211   179.4289   5   9   1.1122   0.8959   0.7262   0.4675  -0.0254  -0.3833   0.00    0.0
2019/01/19 01:03:00.000   47.480960589   19.056550741   179.6632   5   9   1.1104   0.8925   0.7279   0.4622  -0.0244  -0.3848   0.00    0.0
2019/01/19 01:03:30.000   47.480959764   19.056553116   180.0059   5   9   1.1086   0.8891   0.7297   0.4568  -0.0234  -0.3863   0.00    0.0
2019/01/19 01:04:00.000   47.480960361   19.056553245   180.2947   5   9   1.1068   0.8856   0.7314   0.4514  -0.0223  -0.3878   0.00    0.0
2019/01/19 01:04:30.000   47.480960189   19.056552956   180.6545   5   9   1.1050   0.8822   0.7331   0.4460  -0.0212  -0.3893   0.00    0.0
2019/01/19 01:05:00.000   47.480958943   19.056552217   180.7074   5   9   1.1032   0.8788   0.7349   0.4406  -0.0202  -0.3907   0.00    0.0
2019/01/19 01:05:30.000   47.480959112   19.056549845   180.5865   5   9   1.1013   0.8755   0.7366   0.4353  -0.0191  -0.3922   0.00    0.0
2019/01/19 01:06:00.000   47.480960193   19.056546497   180.4610   5   9   1.0994   0.8721   0.7383   0.4299  -0.0180  -0.3936   0.00    0.0
2019/01/19 01:06:30.000   47.480960683   19.056544474   180.3813   5   9   1.0975   0.8687   0.7401   0.4246  -0.0169  -0.3949   0.00    0.0
2019/01/19 01:07:00.000   47.480961745   19.056544475   180.4308   5   9   1.0956   0.8653   0.7418   0.4193  -0.0158  -0.3963   0.00    0.0
2019/01/19 01:07:30.000   47.480961800   19.056544405   180.5862   5   9   1.0937   0.8620   0.7435   0.4140  -0.0147  -0.3977   0.00    0.0
2019/01/19 01:08:00.000   47.480962679   19.056544892   180.4520   5   9   1.0918   0.8587   0.7452   0.4087  -0.0136  -0.3990   0.00    0.0
2019/01/19 01:08:30.000   47.480963962   19.056544167   180.0672   5   9   1.0898   0.8553   0.7470   0.4034  -0.0125  -0.4003   0.00    0.0
2019/01/19 01:09:00.000   47.480966143   19.056543146   179.8785   5   9   1.0879   0.8520   0.7487   0.3982  -0.0114  -0.4016   0.00    0.0
2019/01/19 01:09:30.000   47.480967475   19.056542991   179.6742   5   9   1.0859   0.8487   0.7504   0.3929  -0.0103  -0.4028   0.00    0.0
2019/01/19 01:10:00.000   47.480967774   19.056543739   179.5305   5   9   1.0839   0.8454   0.7521   0.3877  -0.0092  -0.4041   0.00    0.0
2019/01/19 01:10:30.000   47.480967577   19.056545626   179.4332   5   9   1.0819   0.8422   0.7538   0.3826  -0.0080  -0.4053   0.00    0.0
2019/01/19 01:11:00.000   47.480965955   19.056549084   179.5723   5   9   1.0799   0.8389   0.7555   0.3774  -0.0069  -0.4065   0.00    0.0
2019/01/19 01:11:30.000   47.480963969   19.056549872   179.5677   5   9   1.0779   0.8357   0.7572   0.3723  -0.0058  -0.4077   0.00    0.0
2019/01/19 01:12:00.000   47.480963276   19.056548653   179.3249   5   9   1.0759   0.8325   0.7589   0.3672  -0.0046  -0.4088   0.00    0.0
2019/01/19 01:12:30.000   47.480962311   19.056547738   178.9210   5   9   1.0739   0.8293   0.7606   0.3622  -0.0035  -0.4100   0.00    0.0
2019/01/19 01:13:00.000   47.480961396   19.056546625   178.9363   5   9   1.0718   0.8261   0.7623   0.3572  -0.0024  -0.4111   0.00    0.0
2019/01/19 01:13:30.000   47.480962038   19.056546951   178.9974   5   9   1.0698   0.8230   0.7640   0.3522  -0.0012  -0.4122   0.00    0.0
2019/01/19 01:14:00.000   47.480962569   19.056546573   179.2532   5   9   1.0677   0.8199   0.7656   0.3472  -0.0001  -0.4132   0.00    0.0
2019/01/19 01:14:30.000   47.480964756   19.056545066   179.3890   5   9   1.0656   0.8167   0.7673   0.3423   0.0011  -0.4142   0.00    0.0
2019/01/19 01:15:00.000   47.480966474   19.056544716   179.5175   5   9   1.0636   0.8136   0.7690   0.3375   0.0022  -0.4153   0.00    0.0
2019/01/19 01:15:30.000   47.480966997   19.056546111   179.6569   5   9   1.0615   0.8106   0.7706   0.3326   0.0034  -0.4162   0.00    0.0
2019/01/19 01:16:00.000   47.480967266   19.056547888   179.7545   5   9   1.0594   0.8075   0.7723   0.3278   0.0045  -0.4172   0.00    0.0
2019/01/19 01:16:30.000   47.480968649   19.056548610   179.7110   5   9   1.0573   0.8045   0.7739   0.3231   0.0056  -0.4181   0.00    0.0
2019/01/19 01:17:00.000   47.480969252   19.056548248   179.8062   5   9   1.0552   0.8015   0.7756   0.3184   0.0068  -0.4190   0.00    0.0
2019/01/19 01:17:30.000   47.480970707   19.056548946   179.7670   5   9   1.0531   0.7985   0.7772   0.3137   0.0079  -0.4199   0.00    0.0
2019/01/19 01:18:00.000   47.480970846   19.056548462   179.7925   5   9   1.0510   0.7956   0.7788   0.3091   0.0091  -0.4208   0.00    0.0
2019/01/19 01:18:30.000   47.480971184   19.056548437   179.7758   5   9   1.0488   0.7926   0.7804   0.3045   0.0102  -0.4216   0.00    0.0
2019/01/19 01:19:00.000   47.480971413   19.056548755   179.6305   5   9   1.0467   0.7897   0.7821   0.2999   0.0113  -0.4224   0.00    0.0
2019/01/19 01:19:30.000   47.480972219   19.056545933   179.5210   5   9   1.0446   0.7868   0.7837   0.2954   0.0125  -0.4232   0.00    0.0
2019/01/19 01:20:00.000   47.480969623   19.056546488   179.3368   5  10   1.0133   0.6259   0.7752   0.1754  -0.0454  -0.4545   0.00    0.0
2019/01/19 01:20:30.000   47.480968531   19.056544671   179.3977   5  10   1.0126   0.6254   0.7763   0.1750  -0.0453  -0.4552   0.00    0.0
2019/01/19 01:21:00.000   47.480968067   19.056543308   179.5643   5  10   1.0119   0.6248   0.7774   0.1746  -0.0451  -0.4558   0.00    0.0
2019/01/19 01:21:30.000   47.480967459   19.056541798   179.7922   5  10   1.0112   0.6243   0.7784   0.1742  -0.0450  -0.4564   0.00    0.0
2019/01/19 01:22:00.000   47.480966724   19.056540505   179.8010   5  10   1.0104   0.6237   0.7794   0.1737  -0.0448  -0.4569   0.00    0.0
2019/01/19 01:22:30.000   47.480966224   19.056539347   179.8953   5  10   1.0095   0.6232   0.7804   0.1733  -0.0446  -0.4573   0.00    0.0
2019/01/19 01:23:00.000   47.480966271   19.056538191   179.8357   5  10   1.0086   0.6226   0.7814   0.1728  -0.0444  -0.4576   0.00    0.0
2019/01/19 01:23:30.000   47.480966651   19.056536407   179.7847   5  10   1.0076   0.6221   0.7823   0.1722  -0.0442  -0.4579   0.00    0.0
2019/01/19 01:24:00.000   47.480966788   19.056538297   179.8433   5  10   1.0067   0.6215   0.7833   0.1717  -0.0440  -0.4581   0.00    0.0
2019/01/19 01:24:30.000   47.480967952   19.056540647   179.7951   5  10   1.0056   0.6210   0.7842   0.1711  -0.0438  -0.4583   0.00    0.0
2019/01/19 01:25:00.000   47.480968713   19.056543455   179.6662   5  10   1.0045   0.6204   0.7850   0.1705  -0.0435  -0.4584   0.00    0.0
2019/01/19 01:25:30.000   47.480970309   19.056545344   179.2240   5  10   1.0034   0.6199   0.7859   0.1699  -0.0433  -0.4584   0.00    0.0
2019/01/19 01:26:00.000   47.480971042   19.056545548   178.8043   5  10   1.0022   0.6193   0.7867   0.1693  -0.0430  -0.4584   0.00    0.0
2019/01/19 01:26:30.000   47.480967305   19.056544269   179.4431   5   9   1.4867   0.6476   0.8690  -0.0417   0.0276  -0.8621   0.00    0.0
2019/01/19 01:27:00.000   47.480966492   19.056544859   179.5050   5   9   1.4878   0.6473   0.8716  -0.0438   0.0290  -0.8678   0.00    0.0
2019/01/19 01:27:30.000   47.480965747   19.056545727   179.5994   5   9   1.4887   0.6470   0.8742  -0.0459   0.0305  -0.8734   0.00    0.0
2019/01/19 01:28:00.000   47.480967305   19.056546494   179.5678   5   9   1.4896   0.6467   0.8767  -0.0480   0.0320  -0.8789   0.00    0.0
2019/01/19 01:28:30.000   47.480952106   19.056542093   177.9158   5   8   1.4956   0.7955   0.8969   0.0080  -0.0486  -0.9064   0.00    0.0
2019/01/19 01:29:00.000   47.480952541   19.056542175   178.0716   5   8   1.4969   0.7956   0.9001   0.0093  -0.0489  -0.9134   0.00    0.0
2019/01/19 01:29:30.000   47.480953225   19.056541348   178.0417   5   8   1.4981   0.7958   0.9033   0.0107  -0.0492  -0.9203   0.00    0.0
2019/01/19 01:30:00.000   47.480954211   19.056540985   177.9009   5   8   1.4993   0.7959   0.9065   0.0120  -0.0495  -0.9272   0.00    0.0
2019/01/19 01:30:30.000   47.480953769   19.056542471   177.8643   5   8   1.5004   0.7960   0.9096   0.0133  -0.0498  -0.9339   0.00    0.0
2019/01/19 01:31:00.000   47.480957365   19.056538355   177.0316   5   9   1.2194   0.7945   0.6190   0.0584  -0.0837  -0.3530   0.00    0.0
2019/01/19 01:31:30.000   47.480956716   19.056536660   177.0541   5   9   1.2199   0.7945   0.6208   0.0603  -0.0846  -0.3566   0.00    0.0
2019/01/19 01:32:00.000   47.480957768   19.056535700   177.0353   5   9   1.2204   0.7946   0.6225   0.0623  -0.0855  -0.3602   0.00    0.0
2019/01/19 01:32:30.000   47.480958905   19.056535294   177.0391   5   9   1.2209   0.7946   0.6243   0.0642  -0.0864  -0.3638   0.00    0.0
2019/01/19 01:33:00.000   47.480958204   19.056535754   177.2379   5   9   1.2213   0.7946   0.6261   0.0661  -0.0873  -0.3675   0.00    0.0
2019/01/19 01:33:30.000   47.480957878   19.056535593   177.0785   5   9   1.2217   0.7946   0.6279   0.0680  -0.0883  -0.3710   0.00    0.0
2019/01/19 01:34:00.000   47.480957030   19.056534291   176.8402   5   9   1.2221   0.7946   0.6297   0.0699  -0.0892  -0.3746   0.00    0.0
2019/01/19 01:34:30.000   47.480957113   19.056532340   176.6914   5   9   1.2225   0.7945   0.6315   0.0717  -0.0901  -0.3782   0.00    0.0
2019/01/19 01:35:00.000   47.480957584   19.056531586   176.5214   5   9   1.2229   0.7945   0.6333   0.0735  -0.0910  -0.3817   0.00    0.0
2019/01/19 01:35:30.000   47.480959754   19.056531036   176.2025   5   9   1.2232   0.7944   0.6351   0.0753  -0.0920  -0.3853   0.00    0.0
2019/01/19 01:36:00.000   47.480960387   19.056532219   176.1251   5   9   1.2235   0.7944   0.6369   0.0771  -0.0929  -0.3888   0.00    0.0
2019/01/19 01:36:30.000   47.480959937   19.056532962   176.4482   5   9   1.2237   0.7943   0.6388   0.0789  -0.0938  -0.3923   0.00    0.0
2019/01/19 01:37:00.000   47.480958596   19.056535051   176.6504   5   9   1.2240   0.7942   0.6406   0.0806  -0.0947  -0.3958   0.00    0.0
2019/01/19 01:37:30.000   47.480957420   19.056536105   176.7294   5   9   1.2242   0.7941   0.6425   0.0823  -0.0956  -0.3993   0.00    0.0
2019/01/19 01:38:00.000   47.480956764   19.056536075   176.5889   5   9   1.2244   0.7940   0.6444   0.0840  -0.0965  -0.4027   0.00    0.0
2019/01/19 01:38:30.000   47.480956886   19.056535371   176.3838   5   9   1.2245   0.7938   0.6462   0.0857  -0.0974  -0.4062   0.00    0.0
2019/01/19 01:39:00.000   47.480957101   19.056534667   176.3758   5   9   1.2246   0.7937   0.6481   0.0873  -0.0983  -0.4096   0.00    0.0
2019/01/19 01:39:30.000   47.480957747   19.056534182   176.2999   5   9   1.2247   0.7936   0.6500   0.0889  -0.0992  -0.4130   0.00    0.0
2019/01/19 01:40:00.000   47.480958497   19.056534133   176.3566   5   9   1.2248   0.7934   0.6519   0.0905  -0.1001  -0.4164   0.00    0.0
2019/01/19 01:40:30.000   47.480958000   19.056533653   176.3212   5   9   1.2248   0.7932   0.6538   0.0921  -0.1010  -0.4197   0.00    0.0
2019/01/19 01:41:00.000   47.480956864   19.056533446   176.2509   5   9   1.2248   0.7930   0.6557   0.0936  -0.1019  -0.4230   0.00    0.0
2019/01/19 01:41:30.000   47.480954874   19.056533875   176.5197   5   9   1.2248   0.7928   0.6576   0.0951  -0.1027  -0.4263   0.00    0.0
2019/01/19 01:42:00.000   47.480952974   19.056533768   176.7391   5   9   1.2247   0.7926   0.6595   0.0965  -0.1036  -0.4296   0.00    0.0
2019/01/19 01:42:30.000   47.480953350   19.056533517   176.6554   5   9   1.2246   0.7924   0.6614   0.0980  -0.1044  -0.4329   0.00    0.0
2019/01/19 01:43:00.000   47.480954095   19.056533077   176.5152   5   9   1.2245   0.7921   0.6633   0.0994  -0.1053  -0.4361   0.00    0.0
2019/01/19 01:43:30.000   47.480955203   19.056532384   176.2512   5   9   1.2243   0.7919   0.6653   0.1008  -0.1061  -0.4393   0.00    0.0
2019/01/19 01:44:00.000   47.480955528   19.056534123   176.2014   5   9   1.2241   0.7916   0.6672   0.1021  -0.1070  -0.4425   0.00    0.0
2019/01/19 01:44:30.000   47.480955195   19.056535881   176.2249   5   9   1.2239   0.7913   0.6691   0.1034  -0.1078  -0.4456   0.00    0.0
2019/01/19 01:45:00.000   47.480955233   19.056535686   176.2061   5   9   1.2236   0.7910   0.6710   0.1047  -0.1086  -0.4487   0.00    0.0
2019/01/19 01:45:30.000   47.480955879   19.056534801   176.1800   5   9   1.2233   0.7907   0.6730   0.1059  -0.1094  -0.4518   0.00    0.0
2019/01/19 01:46:00.000   47.480957854   19.056532515   175.9443   5   9   1.2229   0.7904   0.6749   0.1071  -0.1101  -0.4548   0.00    0.0
2019/01/19 01:46:30.000   47.480958269   19.056530732   175.7099   5   9   1.2225   0.7900   0.6768   0.1083  -0.1109  -0.4578   0.00    0.0
2019/01/19 01:47:00.000   47.480958158   19.056530483   175.8561   5   9   1.2221   0.7897   0.6788   0.1094  -0.1117  -0.4608   0.00    0.0
2019/01/19 01:47:30.000   47.480958409   19.056530030   175.8619   5   9   1.2216   0.7893   0.6807   0.1105  -0.1124  -0.4638   0.00    0.0
2019/01/19 01:48:00.000   47.480958750   19.056529883   175.8976   5   9   1.2211   0.7889   0.6827   0.1116  -0.1132  -0.4667   0.00    0.0
2019/01/19 01:48:30.000   47.480958095   19.056530097   175.8782   5   9   1.2206   0.7885   0.6846   0.1126  -0.1139  -0.4695   0.00    0.0
2019/01/19 01:49:00.000   47.480958111   19.056530903   175.6498   5   9   1.2200   0.7881   0.6865   0.1136  -0.1146  -0.4724   0.00    0.0
2019/01/19 01:49:30.000   47.480958060   19.056531006   175.4641   5   9   1.2194   0.7877   0.6885   0.1145  -0.1153  -0.4752   0.00    0.0
2019/01/19 01:50:00.000   47.480959673   19.056529608   175.2490   5   9   1.2188   0.7872   0.6904   0.1154  -0.1159  -0.4779   0.00    0.0
2019/01/19 01:50:30.000   47.480961071   19.056530395   175.2079   5   9   1.2181   0.7868   0.6924   0.1163  -0.1166  -0.4807   0.00    0.0
2019/01/19 01:51:00.000   47.480961167   19.056530566   175.1974   5   9   1.2174   0.7863   0.6943   0.1171  -0.1172  -0.4833   0.00    0.0
2019/01/19 01:51:30.000   47.480962122   19.056529001   175.0723   5   9   1.2166   0.7858   0.6962   0.1179  -0.1179  -0.4860   0.00    0.0
2019/01/19 01:52:00.000   47.480961309   19.056529043   175.1408   5   9   1.2158   0.7853   0.6982   0.1186  -0.1185  -0.4886   0.00    0.0
2019/01/19 01:52:30.000   47.480961333   19.056529770   175.2114   5   9   1.2150   0.7848   0.7001   0.1193  -0.1191  -0.4912   0.00    0.0
2019/01/19 01:53:00.000   47.480960929   19.056530078   175.4212   5  10   1.2025   0.6546   0.7014   0.0476  -0.1074  -0.4889   0.00    0.0
2019/01/19 01:53:30.000   47.480961045   19.056530350   175.3876   5  10   1.2020   0.6550   0.7034   0.0500  -0.1086  -0.4917   0.00    0.0
2019/01/19 01:54:00.000   47.480962867   19.056529389   175.3470   5  10   1.2015   0.6554   0.7054   0.0523  -0.1098  -0.4945   0.00    0.0
2019/01/19 01:54:30.000   47.480964351   19.056529284   175.3273   5  10   1.2010   0.6558   0.7074   0.0546  -0.1110  -0.4972   0.00    0.0
2019/01/19 01:55:00.000   47.480965697   19.056527890   175.2095   5  10   1.2004   0.6562   0.7093   0.0569  -0.1122  -0.4999   0.00    0.0
2019/01/19 01:55:30.000   47.480965424   19.056527516   175.1409   5  10   1.1998   0.6566   0.7113   0.0592  -0.1134  -0.5025   0.00    0.0
2019/01/19 01:56:00.000   47.480964425   19.056527279   175.1076   5  10   1.1992   0.6570   0.7133   0.0615  -0.1145  -0.5051   0.00    0.0
2019/01/19 01:56:30.000   47.480962762   19.056527411   175.1223   5  10   1.1985   0.6574   0.7152   0.0637  -0.1157  -0.5076   0.00    0.0
2019/01/19 01:57:00.000   47.480961766   19.056527992   175.3234   5  10   1.1977   0.6577   0.7171   0.0658  -0.1168  -0.5101   0.00    0.0
2019/01/19 01:57:30.000   47.480962085   19.056527597   175.4312   5  10   1.1969   0.6581   0.7191   0.0680  -0.1180  -0.5126   0.00    0.0
2019/01/19 01:58:00.000   47.480962214   19.056527905   175.8292   5  10   1.1961   0.6585   0.7210   0.0701  -0.1191  -0.5149   0.00    0.0
2019/01/19 01:58:30.000   47.480963001   19.056526371   176.0506   5  10   1.1952   0.6589   0.7229   0.0721  -0.1202  -0.5173   0.00    0.0
2019/01/19 01:59:00.000   47.480963088   19.056526447   176.1506   5  10   1.1943   0.6592   0.7248   0.0742  -0.1213  -0.5195   0.00    0.0
2019/01/19 01:59:30.000   47.480957850   19.056540452   178.3797   5  11   1.1097   0.6558   0.5771   0.0451  -0.0912  -0.3279   0.00    0.0
2019/01/19 02:00:00.000   47.480958309   19.056542370   178.2266   5  11   1.1088   0.6562   0.5786   0.0472  -0.0924  -0.3297   0.00    0.0
2019/01/19 02:00:30.000   47.480958107   19.056543347   178.0570   5  11   1.1078   0.6566   0.5801   0.0493  -0.0935  -0.3315   0.00    0.0
2019/01/19 02:01:00.000   47.480957154   19.056543942   178.0474   5  11   1.1068   0.6569   0.5816   0.0514  -0.0946  -0.3333   0.00    0.0
2019/01/19 02:01:30.000   47.480956298   19.056543676   178.0001   5  11   1.1058   0.6573   0.5831   0.0534  -0.0957  -0.3351   0.00    0.0
2019/01/19 02:02:00.000   47.480959235   19.056549610   177.0628   5  10   1.4250   0.6577   0.5854   0.0578  -0.0968  -0.3091   0.00    0.0
2019/01/19 02:02:30.000   47.480958576   19.056549028   177.1112   5  10   1.4238   0.6581   0.5867   0.0628  -0.0978  -0.3127   0.00    0.0
2019/01/19 02:03:00.000   47.480958983   19.056547195   176.9434   5  10   1.4225   0.6585   0.5881   0.0678  -0.0988  -0.3163   0.00    0.0
2019/01/19 02:03:30.000   47.480960126   19.056544569   176.7013   5  10   1.4212   0.6589   0.5895   0.0728  -0.0998  -0.3198   0.00    0.0
2019/01/19 02:04:00.000   47.480961140   19.056542631   176.5706   5  10   1.4199   0.6594   0.5909   0.0777  -0.1009  -0.3233   0.00    0.0
2019/01/19 02:04:30.000   47.480960220   19.056543886   176.6761   5  10   1.4185   0.6598   0.5923   0.0825  -0.1019  -0.3267   0.00    0.0
2019/01/19 02:05:00.000   47.480959069   19.056544764   177.0577   5  10   1.4171   0.6603   0.5938   0.0873  -0.1030  -0.3301   0.00    0.0
2019/01/19 02:05:30.000   47.480958494   19.056544629   177.4102   5  10   1.4156   0.6607   0.5952   0.0920  -0.1040  -0.3335   0.00    0.0
2019/01/19 02:06:00.000   47.480958773   19.056544480   177.6003   5  10   1.4141   0.6612   0.5966   0.0967  -0.1051  -0.3368   0.00    0.0
2019/01/19 02:06:30.000   47.480960650   19.056543387   177.1240   5  10   1.4125   0.6617   0.5981   0.1013  -0.1062  -0.3401   0.00    0.0
2019/01/19 02:07:00.000   47.480961818   19.056540434   176.4312   5  10   1.4109   0.6622   0.5995   0.1058  -0.1072  -0.3433   0.00    0.0
2019/01/19 02:07:30.000   47.480960253   19.056539351   176.1273   5  10   1.4092   0.6627   0.6010   0.1103  -0.1083  -0.3465   0.00    0.0
2019/01/19 02:08:00.000   47.480956732   19.056542261   176.6117   5  10   1.4075   0.6632   0.6024   0.1147  -0.1094  -0.3497   0.00    0.0
2019/01/19 02:08:30.000   47.480954094   19.056546670   177.2897   5  10   1.4057   0.6637   0.6039   0.1190  -0.1104  -0.3528   0.00    0.0
2019/01/19 02:09:00.000   47.480952577   19.056549068   177.9212   5  10   1.4039   0.6642   0.6054   0.1233  -0.1115  -0.3558   0.00    0.0
2019/01/19 02:09:30.000   47.480952401   19.056549040   178.0830   5  10   1.4020   0.6647   0.6068   0.1275  -0.1126  -0.3588   0.00    0.0
2019/01/19 02:10:00.000   47.480954925   19.056546010   177.5704   5  10   1.4001   0.6653   0.6083   0.1316  -0.1137  -0.3618   0.00    0.0
2019/01/19 02:10:30.000   47.480956728   19.056542825   177.0641   5  10   1.3982   0.6658   0.6098   0.1357  -0.1147  -0.3647   0.00    0.0
2019/01/19 02:11:00.000   47.480955948   19.056542562   177.0854   5  10   1.3962   0.6663   0.6113   0.1397  -0.1158  -0.3675   0.00    0.0
2019/01/19 02:11:30.000   47.480954012   19.056542906   177.2150   5  10   1.3941   0.6668   0.6127   0.1436  -0.1169  -0.3704   0.00    0.0
2019/01/19 02:12:00.000   47.480951816   19.056544341   177.7107   5  10   1.3920   0.6674   0.6142   0.1474  -0.1179  -0.3731   0.00    0.0
2019/01/19 02:12:30.000   47.480951476   19.056545076   177.8809   5  10   1.3898   0.6679   0.6157   0.1511  -0.1190  -0.3758   0.00    0.0
2019/01/19 02:13:00.000   47.480952759   19.056544119   177.7790   5  10   1.3876   0.6684   0.6172   0.1548  -0.1200  -0.3785   0.00    0.0
2019/01/19 02:13:30.000   47.480952781   19.056541051   177.1714   5  11   1.3824   0.6100   0.5725   0.1336  -0.0566  -0.3598   0.00    0.0
2019/01/19 02:14:00.000   47.480955352   19.056540144   176.6778   5  11   1.3801   0.6108   0.5738   0.1372  -0.0576  -0.3624   0.00    0.0
2019/01/19 02:14:30.000   47.480955597   19.056540398   176.4430   5  11   1.3778   0.6116   0.5752   0.1407  -0.0586  -0.3649   0.00    0.0
2019/01/19 02:15:00.000   47.480954440   19.056541179   176.4243   5  11   1.3754   0.6123   0.5766   0.1442  -0.0596  -0.3674   0.00    0.0
2019/01/19 02:15:30.000   47.480954055   19.056541485   176.3857   5  11   1.3729   0.6131   0.5780   0.1476  -0.0605  -0.3698   0.00    0.0
2019/01/19 02:16:00.000   47.480955084   19.056539537   176.1482   5  11   1.3705   0.6139   0.5793   0.1510  -0.0615  -0.3722   0.00    0.0
2019/01/19 02:16:30.000   47.480955577   19.056538425   176.0765   5  11   1.3679   0.6147   0.5807   0.1542  -0.0625  -0.3745   0.00    0.0
2019/01/19 02:17:00.000   47.480955560   19.056538916   176.0535   5  11   1.3654   0.6155   0.5821   0.1574  -0.0634  -0.3768   0.00    0.0
2019/01/19 02:17:30.000   47.480954989   19.056539251   176.1722   5  11   1.3627   0.6163   0.5835   0.1605  -0.0644  -0.3790   0.00    0.0
2019/01/19 02:18:00.000   47.480954058   19.056538902   175.8897   5  10   1.3661   0.7388   0.6001   0.2156  -0.1200  -0.3985   0.00    0.0
2019/01/19 02:18:30.000   47.480953870   19.056539026   175.5811   5  10   1.3647   0.7419   0.6024   0.2244  -0.1232  -0.4029   0.00    0.0
2019/01/19 02:19:00.000   47.480954707   19.056538808   175.1423   5  10   1.3633   0.7450   0.6047   0.2332  -0.1264  -0.4074   0.00    0.0
2019/01/19 02:19:30.000   47.480954292   19.056540455   174.9787   5  10   1.3620   0.7482   0.6070   0.2420  -0.1297  -0.4119   0.00    0.0
2019/01/19 02:20:00.000   47.480953982   19.056540690   174.9808   5  10   1.3608   0.7515   0.6094   0.2508  -0.1331  -0.4165   0.00    0.0
2019/01/19 02:20:30.000   47.480954491   19.056538967   175.1249   5  10   1.3596   0.7549   0.6118   0.2597  -0.1366  -0.4211   0.00    0.0
2019/01/19 02:21:00.000   47.480955557   19.056536622   175.3764   5  10   1.3586   0.7582   0.6143   0.2687  -0.1401  -0.4259   0.00    0.0
2019/01/19 02:21:30.000   47.480955734   19.056537257   175.6154   5  10   1.3576   0.7617   0.6168   0.2776  -0.1437  -0.4306   0.00    0.0
2019/01/19 02:22:00.000   47.480956320   19.056538728   175.9785   5  10   1.3566   0.7652   0.6193   0.2866  -0.1473  -0.4355   0.00    0.0
2019/01/19 02:22:30.000   47.480956202   19.056539728   176.5105   5  10   1.3558   0.7688   0.6219   0.2957  -0.1511  -0.4404   0.00    0.0
2019/01/19 02:23:00.000   47.480956050   19.056541242   177.0396   5  10   1.3550   0.7724   0.6245   0.3048  -0.1549  -0.4454   0.00    0.0
2019/01/19 02:23:30.000   47.480957007   19.056541233   177.3261   5  10   1.3543   0.7761   0.6271   0.3139  -0.1587  -0.4504   0.00    0.0
2019/01/19 02:24:00.000   47.480957688   19.056540153   177.2048   5  10   1.3536   0.7799   0.6298   0.3231  -0.1627  -0.4555   0.00    0.0
2019/01/19 02:24:30.000   47.480957787   19.056539550   176.9578   5  10   1.3530   0.7837   0.6325   0.3323  -0.1667  -0.4607   0.00    0.0
2019/01/19 02:25:00.000   47.480957324   19.056538901   176.5437   5  10   1.3525   0.7875   0.6353   0.3416  -0.1708  -0.4660   0.00    0.0
2019/01/19 02:25:30.000   47.480956686   19.056539156   176.2661   5  10   1.3521   0.7915   0.6381   0.3509  -0.1750  -0.4713   0.00    0.0
2019/01/19 02:26:00.000   47.480956521   19.056538969   175.8643   5  10   1.3517   0.7954   0.6410   0.3603  -0.1793  -0.4767   0.00    0.0
2019/01/19 02:26:30.000   47.480956282   19.056539074   175.6952   5  10   1.3514   0.7995   0.6438   0.3697  -0.1836  -0.4822   0.00    0.0
2019/01/19 02:27:00.000   47.480956056   19.056538342   175.5617   5  10   1.3512   0.8036   0.6468   0.3792  -0.1880  -0.4878   0.00    0.0
2019/01/19 02:27:30.000   47.480955753   19.056538066   175.8756   5  10   1.3510   0.8077   0.6498   0.3887  -0.1925  -0.4934   0.00    0.0
2019/01/19 02:28:00.000   47.480955520   19.056538830   176.2133   5  10   1.3509   0.8119   0.6528   0.3983  -0.1971  -0.4991   0.00    0.0
2019/01/19 02:28:30.000   47.480955638   19.056538798   176.3637   5  10   1.3509   0.8162   0.6558   0.4080  -0.2018  -0.5049   0.00    0.0
2019/01/19 02:29:00.000   47.480958357   19.056538305   175.4345   5  11   1.1227   0.8170   0.5908   0.4742  -0.2285  -0.2916   0.00    0.0
2019/01/19 02:29:30.000   47.480958895   19.056535969   174.6791   5  11   1.1250   0.8216   0.5933   0.4819  -0.2328  -0.2969   0.00    0.0
2019/01/19 02:30:00.000   47.480957361   19.056535111   174.6105   5  11   1.1273   0.8263   0.5957   0.4896  -0.2371  -0.3022   0.00    0.0
2019/01/19 02:30:30.000   47.480954909   19.056535901   174.9208   5  11   1.1296   0.8310   0.5982   0.4974  -0.2416  -0.3075   0.00    0.0
2019/01/19 02:31:00.000   47.480953680   19.056537278   175.4530   5  11   1.1319   0.8357   0.6007   0.5053  -0.2461  -0.3130   0.00    0.0
2019/01/19 02:31:30.000   47.480953546   19.056538768   176.0388   5  11   1.1343   0.8405   0.6033   0.5133  -0.2507  -0.3184   0.00    0.0
2019/01/19 02:32:00.000   47.480954226   19.056538628   176.4184   5  11   1.1366   0.8453   0.6059   0.5213  -0.2553  -0.3240   0.00    0.0
2019/01/19 02:32:30.000   47.480955988   19.056536887   176.1243   5  11   1.1390   0.8501   0.6086   0.5294  -0.2601  -0.3296   0.00    0.0
2019/01/19 02:33:00.000   47.480956396   19.056536072   175.7093   5  11   1.1413   0.8550   0.6112   0.5376  -0.2649  -0.3352   0.00    0.0
2019/01/19 02:33:30.000   47.480955641   19.056536295   175.4157   5  11   1.1437   0.8600   0.6140   0.5458  -0.2698  -0.3409   0.00    0.0
2019/01/19 02:34:00.000   47.480954376   19.056537062   175.3374   5  11   1.1461   0.8649   0.6167   0.5541  -0.2748  -0.3467   0.00    0.0
2019/01/19 02:34:30.000   47.480953779   19.056537334   175.6194   5  11   1.1484   0.8699   0.6195   0.5624  -0.2798  -0.3525   0.00    0.0
2019/01/19 02:35:00.000   47.480954273   19.056536706   175.6164   5  11   1.1508   0.8749   0.6223   0.5708  -0.2850  -0.3584   0.00    0.0
2019/01/19 02:35:30.000   47.480955482   19.056535552   175.5714   5  11   1.1532   0.8800   0.6252   0.5793  -0.2902  -0.3643   0.00    0.0
2019/01/19 02:36:00.000   47.480957062   19.056534891   175.5819   5  11   1.1556   0.8851   0.6281   0.5878  -0.2954  -0.3702   0.00    0.0
2019/01/19 02:36:30.000   47.480957623   19.056534896   175.8005   5  11   1.1580   0.8902   0.6310   0.5963  -0.3008  -0.3762   0.00    0.0
2019/01/19 02:37:00.000   47.480958059   19.056535057   175.7743   5  11   1.1603   0.8953   0.6340   0.6049  -0.3062  -0.3823   0.00    0.0
2019/01/19 02:37:30.000   47.480956344   19.056535347   175.9740   5  11   1.1627   0.9005   0.6370   0.6136  -0.3117  -0.3884   0.00    0.0
2019/01/19 02:38:00.000   47.480953107   19.056535782   175.9943   5  11   1.1651   0.9057   0.6400   0.6222  -0.3173  -0.3946   0.00    0.0
2019/01/19 02:38:30.000   47.480950284   19.056537197   175.9128   5  11   1.1674   0.9109   0.6431   0.6309  -0.3229  -0.4008   0.00    0.0
2019/01/19 02:39:00.000   47.480949449   19.056537822   175.6895   5  11   1.1698   0.9161   0.6462   0.6397  -0.3286  -0.4070   0.00    0.0
2019/01/19 02:39:30.000   47.480950905   19.056538303   175.4811   5  11   1.1721   0.9214   0.6493   0.6484  -0.3344  -0.4133   0.00    0.0
2019/01/19 02:40:00.000   47.480952579   19.056536959   175.3390   5  11   1.1744   0.9266   0.6524   0.6572  -0.3402  -0.4196   0.00    0.0
2019/01/19 02:40:30.000   47.480953175   19.056535399   175.4944   5  11   1.1768   0.9319   0.6556   0.6660  -0.3461  -0.4259   0.00    0.0
2019/01/19 02:41:00.000   47.480952733   19.056534132   175.8823   5  11   1.1790   0.9372   0.6588   0.6748  -0.3521  -0.4323   0.00    0.0
2019/01/19 02:41:30.000   47.480951780   19.056534448   176.2175   5  11   1.1813   0.9425   0.6621   0.6836  -0.3581  -0.4387   0.00    0.0
2019/01/19 02:42:00.000   47.480951285   19.056534584   176.2725   5  11   1.1835   0.9478   0.6653   0.6924  -0.3642  -0.4451   0.00    0.0
2019/01/19 02:42:30.000   47.480950897   19.056535387   175.8992   5  11   1.1858   0.9530   0.6686   0.7012  -0.3703  -0.4515   0.00    0.0
2019/01/19 02:43:00.000   47.480951744   19.056535160   175.4712   5  11   1.1879   0.9583   0.6719   0.7100  -0.3765  -0.4580   0.00    0.0
2019/01/19 02:43:30.000   47.480953751   19.056534892   175.0163   5  11   1.1901   0.9636   0.6752   0.7187  -0.3827  -0.4644   0.00    0.0
2019/01/19 02:44:00.000   47.480954447   19.056534688   175.0369   5  11   1.1922   0.9689   0.6785   0.7274  -0.3890  -0.4709   0.00    0.0
2019/01/19 02:44:30.000   47.480953391   19.056533571   175.0978   5  11   1.1943   0.9741   0.6819   0.7361  -0.3953  -0.4774   0.00    0.0
2019/01/19 02:45:00.000   47.480951007   19.056530974   175.0104   5  11   1.1964   0.9794   0.6853   0.7448  -0.4016  -0.4838   0.00    0.0
2019/01/19 02:45:30.000   47.480949459   19.056529555   174.8267   5  11   1.1984   0.9846   0.6886   0.7533  -0.4080  -0.4903   0.00    0.0
2019/01/19 02:46:00.000   47.480949061   19.056529598   174.8363   5  11   1.2003   0.9898   0.6920   0.7619  -0.4144  -0.4967   0.00    0.0
2019/01/19 02:46:30.000   47.480950228   19.056530533   175.0447   5  11   1.2022   0.9950   0.6954   0.7703  -0.4208  -0.5032   0.00    0.0
2019/01/19 02:47:00.000   47.480950975   19.056530016   175.1557   5  11   1.2041   1.0001   0.6989   0.7787  -0.4272  -0.5096   0.00    0.0
2019/01/19 02:47:30.000   47.480950625   19.056530245   175.4279   5  11   1.2059   1.0052   0.7023   0.7870  -0.4337  -0.5160   0.00    0.0
2019/01/19 02:48:00.000   47.480949190   19.056531252   175.4219   5  11   1.2076   1.0102   0.7057   0.7951  -0.4401  -0.5224   0.00    0.0
2019/01/19 02:48:30.000   47.480949319   19.056532331   175.5134   5  11   1.2093   1.0153   0.7091   0.8032  -0.4465  -0.5287   0.00    0.0
2019/01/19 02:49:00.000   47.480951028   19.056533549   175.4741   5  11   1.2109   1.0202   0.7125   0.8112  -0.4530  -0.5350   0.00    0.0
2019/01/19 02:49:30.000   47.480953197   19.056533261   175.2869   5  11   1.2125   1.0251   0.7159   0.8190  -0.4594  -0.5412   0.00    0.0
2019/01/19 02:50:00.000   47.480955456   19.056532112   175.1420   5  11   1.2139   1.0300   0.7193   0.8267  -0.4658  -0.5474   0.00    0.0
2019/01/19 02:50:30.000   47.480955483   19.056531301   175.4097   5  11   1.2153   1.0348   0.7227   0.8342  -0.4722  -0.5535   0.00    0.0
2019/01/19 02:51:00.000   47.480955351   19.056528681   175.5291   5  11   1.2166   1.0395   0.7261   0.8416  -0.4785  -0.5595   0.00    0.0
2019/01/19 02:51:30.000   47.480955860   19.056527364   175.8169   5  11   1.2179   1.0441   0.7295   0.8488  -0.4848  -0.5655   0.00    0.0
2019/01/19 02:52:00.000   47.480955857   19.056527190   175.9829   5  11   1.2190   1.0487   0.7328   0.8558  -0.4910  -0.5714   0.00    0.0
2019/01/19 02:52:30.000   47.480955116   19.056527928   176.0371   5  11   1.2201   1.0532   0.7361   0.8627  -0.4972  -0.5772   0.00    0.0
2019/01/19 02:53:00.000   47.480953819   19.056529085   176.2362   5  11   1.2210   1.0576   0.7394   0.8693  -0.5034  -0.5828   0.00    0.0
2019/01/19 02:53:30.000   47.480953273   19.056526847   175.9137   5  11   1.2219   1.0619   0.7427   0.8757  -0.5094  -0.5884   0.00    0.0
2019/01/19 02:54:00.000   47.480952470   19.056525324   175.8261   5  11   1.2227   1.0662   0.7460   0.8819  -0.5154  -0.5939   0.00    0.0
2019/01/19 02:54:30.000   47.480953055   19.056524794   175.7380   5  11   1.2233   1.0703   0.7492   0.8878  -0.5213  -0.5992   0.00    0.0
2019/01/19 02:55:00.000   47.480953734   19.056525175   175.9017   5  11   1.2239   1.0743   0.7523   0.8935  -0.5271  -0.6045   0.00    0.0
2019/01/19 02:55:30.000   47.480954501   19.056525857   176.2689   5  11   1.2243   1.0782   0.7555   0.8990  -0.5328  -0.6096   0.00    0.0
2019/01/19 02:56:00.000   47.480954215   19.056526326   176.6535   5  11   1.2246   1.0820   0.7586   0.9041  -0.5383  -0.6145   0.00    0.0
2019/01/19 02:56:30.000   47.480954181   19.056526278   176.5333   5  11   1.2248   1.0856   0.7616   0.9090  -0.5438  -0.6193   0.00    0.0
2019/01/19 02:57:00.000   47.480954982   19.056525937   176.2070   5  11   1.2249   1.0892   0.7646   0.9136  -0.5491  -0.6240   0.00    0.0
2019/01/19 02:57:30.000   47.480954519   19.056526181   176.3264   5  11   1.2249   1.0926   0.7676   0.9179  -0.5543  -0.6285   0.00    0.0
2019/01/19 02:58:00.000   47.480954079   19.056526932   176.2720   5  11   1.2247   1.0958   0.7705   0.9219  -0.5593  -0.6328   0.00    0.0
2019/01/19 02:58:30.000   47.480953976   19.056527924   176.3346   5  11   1.2245   1.0990   0.7733   0.9256  -0.5642  -0.6369   0.00    0.0
2019/01/19 02:59:00.000   47.480954544   19.056527029   176.3023   5  11   1.2240   1.1020   0.7761   0.9289  -0.5689  -0.6409   0.00    0.0
2019/01/19 02:59:30.000   47.480955495   19.056527659   176.5803   5  11   1.2235   1.1048   0.7788   0.9319  -0.5734  -0.6446   0.00    0.0
2019/01/19 03:00:00.000   47.480956141   19.056529205   176.7209   5  11   1.2228   1.1075   0.7815   0.9346  -0.5778  -0.6482   0.00    0.0
2019/01/19 03:00:30.000   47.480955841   19.056529929   176.7161   5  11   1.2220   1.1101   0.7841   0.9369  -0.5820  -0.6516   0.00    0.0
2019/01/19 03:01:00.000   47.480955550   19.056530401   176.9335   5  11   1.2210   1.1125   0.7866   0.9389  -0.5860  -0.6548   0.00    0.0
2019/01/19 03:01:30.000   47.480955332   19.056529123   177.2903   5  11   1.2199   1.1147   0.7890   0.9405  -0.5897  -0.6577   0.00    0.0
2019/01/19 03:02:00.000   47.480955428   19.056526840   177.6841   5  11   1.2187   1.1168   0.7914   0.9417  -0.5933  -0.6605   0.00    0.0
2019/01/19 03:02:30.000   47.480955356   19.056525426   177.9099   5  11   1.2173   1.1187   0.7937   0.9425  -0.5967  -0.6630   0.00    0.0
2019/01/19 03:03:00.000   47.480954850   19.056524411   178.0645   5  11   1.2158   1.1204   0.7959   0.9430  -0.5998  -0.6653   0.00    0.0
2019/01/19 03:03:30.000   47.480953731   19.056523743   177.9358   5  11   1.2142   1.1220   0.7980   0.9431  -0.6027  -0.6674   0.00    0.0
2019/01/19 03:04:00.000   47.480954100   19.056521976   177.8340   5  11   1.2124   1.1234   0.8001   0.9428  -0.6054  -0.6693   0.00    0.0
2019/01/19 03:04:30.000   47.480954372   19.056521247   177.9180   5  11   1.2104   1.1246   0.8021   0.9422  -0.6079  -0.6709   0.00    0.0
2019/01/19 03:05:00.000   47.480953822   19.056520598   178.1730   5  11   1.2083   1.1256   0.8039   0.9411  -0.6101  -0.6723   0.00    0.0
2019/01/19 03:05:30.000   47.480953829   19.056519797   178.2702   5  11   1.2061   1.1265   0.8057   0.9397  -0.6120  -0.6735   0.00    0.0
2019/01/19 03:06:00.000   47.480954513   19.056518470   178.9117   5  11   1.2038   1.1272   0.8074   0.9379  -0.6138  -0.6744   0.00    0.0
2019/01/19 03:06:30.000   47.480956481   19.056517357   179.5442   5  11   1.2013   1.1277   0.8090   0.9357  -0.6152  -0.6751   0.00    0.0
2019/01/19 03:07:00.000   47.480957080   19.056516258   179.6640   5  11   1.1986   1.1280   0.8106   0.9332  -0.6164  -0.6756   0.00    0.0
2019/01/19 03:07:30.000   47.480966779   19.056526314   182.2731   5  12   1.0293   0.8262   0.6049   0.4625  -0.2012  -0.3460   0.00    0.0
2019/01/19 03:08:00.000   47.480965471   19.056527256   182.4009   5  12   1.0279   0.8278   0.6063   0.4628  -0.2026  -0.3476   0.00    0.0
2019/01/19 03:08:30.000   47.480964733   19.056530040   182.0444   5  11   1.3976   0.8505   0.6080   0.6423  -0.2074  -0.3670   0.00    0.0
2019/01/19 03:09:00.000   47.480965048   19.056529840   181.9542   5  11   1.3981   0.8526   0.6096   0.6458  -0.2093  -0.3712   0.00    0.0
2019/01/19 03:09:30.000   47.480966827   19.056527517   181.7179   5  11   1.3985   0.8547   0.6111   0.6492  -0.2111  -0.3753   0.00    0.0
2019/01/19 03:10:00.000   47.480966824   19.056526152   181.6395   5  11   1.3987   0.8567   0.6126   0.6524  -0.2128  -0.3793   0.00    0.0
2019/01/19 03:10:30.000   47.480966905   19.056526855   181.4495   5  11   1.3989   0.8587   0.6141   0.6554  -0.2145  -0.3833   0.00    0.0
2019/01/19 03:11:00.000   47.480967298   19.056526934   181.4774   5  11   1.3989   0.8605   0.6155   0.6582  -0.2162  -0.3872   0.00    0.0
2019/01/19 03:11:30.000   47.480968118   19.056526623   181.6960   5  11   1.3989   0.8623   0.6170   0.6608  -0.2179  -0.3910   0.00    0.0
2019/01/19 03:12:00.000   47.480968315   19.056526700   181.5624   5  11   1.3987   0.8641   0.6185   0.6633  -0.2195  -0.3948   0.00    0.0
2019/01/19 03:12:30.000   47.480967926   19.056526924   181.4264   5  11   1.3985   0.8658   0.6200   0.6655  -0.2210  -0.3985   0.00    0.0
2019/01/19 03:13:00.000   47.480966572   19.056526951   181.5151   5  11   1.3981   0.8674   0.6214   0.6676  -0.2225  -0.4021   0.00    0.0
2019/01/19 03:13:30.000   47.480965519   19.056527952   181.7380   5  11   1.3977   0.8690   0.6229   0.6694  -0.2240  -0.4056   0.00    0.0
2019/01/19 03:14:00.000   47.480965881   19.056529535   181.7890   5  11   1.3971   0.8704   0.6243   0.6711  -0.2253  -0.4090   0.00    0.0
2019/01/19 03:14:30.000   47.480966121   19.056530015   181.6508   5  11   1.3964   0.8719   0.6257   0.6725  -0.2267  -0.4123   0.00    0.0
2019/01/19 03:15:00.000   47.480965465   19.056530179   181.5871   5  11   1.3956   0.8732   0.6272   0.6738  -0.2280  -0.4155   0.00    0.0
2019/01/19 03:15:30.000   47.480964365   19.056529573   181.4914   5  11   1.3947   0.8745   0.6286   0.6748  -0.2292  -0.4187   0.00    0.0
2019/01/19 03:16:00.000   47.480963780   19.056529323   181.4526   5  11   1.3937   0.8757   0.6299   0.6756  -0.2304  -0.4217   0.00    0.0
2019/01/19 03:16:30.000   47.480964326   19.056529979   180.9081   5  11   1.3926   0.8768   0.6313   0.6762  -0.2315  -0.4247   0.00    0.0
2019/01/19 03:17:00.000   47.480966342   19.056529335   180.2338   5  11   1.3914   0.8778   0.6327   0.6766  -0.2325  -0.4275   0.00    0.0
2019/01/19 03:17:30.000   47.480967707   19.056529180   179.8448   5  11   1.3900   0.8788   0.6340   0.6768  -0.2335  -0.4303   0.00    0.0
2019/01/19 03:18:00.000   47.480966782   19.056529823   179.9839   5  11   1.3886   0.8797   0.6353   0.6767  -0.2344  -0.4329   0.00    0.0
2019/01/19 03:18:30.000   47.480965653   19.056530490   180.3615   5  11   1.3870   0.8805   0.6366   0.6765  -0.2352  -0.4355   0.00    0.0
2019/01/19 03:19:00.000   47.480964976   19.056530713   180.7455   5  11   1.3854   0.8812   0.6379   0.6760  -0.2360  -0.4379   0.00    0.0
2019/01/19 03:19:30.000   47.480967056   19.056531145   180.8497   5  11   1.3836   0.8819   0.6392   0.6753  -0.2367  -0.4403   0.00    0.0
2019/01/19 03:20:00.000   47.480968148   19.056530856   180.9964   5  11   1.3817   0.8825   0.6404   0.6744  -0.2373  -0.4425   0.00    0.0
2019/01/19 03:20:30.000   47.480967760   19.056530157   181.4528   5  11   1.3797   0.8830   0.6416   0.6733  -0.2379  -0.4446   0.00    0.0
2019/01/19 03:21:00.000   47.480966330   19.056529222   181.7148   5  11   1.3777   0.8834   0.6428   0.6719  -0.2383  -0.4466   0.00    0.0
2019/01/19 03:21:30.000   47.480964665   19.056528787   181.8935   5  11   1.3755   0.8838   0.6440   0.6704  -0.2388  -0.4485   0.00    0.0
2019/01/19 03:22:00.000   47.480963915   19.056528748   181.9192   5  11   1.3732   0.8840   0.6452   0.6686  -0.2391  -0.4503   0.00    0.0
2019/01/19 03:22:30.000   47.480964342   19.056529921   181.8991   5  11   1.3708   0.8842   0.6463   0.6667  -0.2393  -0.4520   0.00    0.0
2019/01/19 03:23:00.000   47.480964796   19.056530956   181.5125   5  11   1.3683   0.8844   0.6474   0.6645  -0.2395  -0.4536   0.00    0.0
2019/01/19 03:23:30.000   47.480964709   19.056530001   180.9820   5  11   1.3657   0.8844   0.6485   0.6622  -0.2396  -0.4551   0.00    0.0
2019/01/19 03:24:00.000   47.480964980   19.056529173   180.9162   5  11   1.3630   0.8844   0.6496   0.6596  -0.2397  -0.4564   0.00    0.0
2019/01/19 03:24:30.000   47.480965489   19.056528278   181.2074   5  11   1.3603   0.8843   0.6506   0.6568  -0.2396  -0.4577   0.00    0.0
2019/01/19 03:25:00.000   47.480966253   19.056528459   181.3761   5  11   1.3574   0.8841   0.6516   0.6539  -0.2395  -0.4588   0.00    0.0
2019/01/19 03:25:30.000   47.480966027   19.056528775   181.7594   5  11   1.3544   0.8838   0.6526   0.6507  -0.2393  -0.4599   0.00    0.0
2019/01/19 03:26:00.000   47.480967441   19.056529478   181.8251   5  11   1.3514   0.8835   0.6536   0.6474  -0.2390  -0.4608   0.00    0.0
2019/01/19 03:26:30.000   47.480969075   19.056529219   181.5185   5  11   1.3483   0.8831   0.6546   0.6439  -0.2387  -0.4617   0.00    0.0
2019/01/19 03:27:00.000   47.480968425   19.056529750   181.6261   5  11   1.3450   0.8826   0.6555   0.6402  -0.2383  -0.4624   0.00    0.0
2019/01/19 03:27:30.000   47.480967347   19.056529390   181.9904   5  11   1.3418   0.8821   0.6564   0.6364  -0.2378  -0.4631   0.00    0.0
2019/01/19 03:28:00.000   47.480966360   19.056531179   182.4466   5  11   1.3384   0.8815   0.6573   0.6324  -0.2372  -0.4636   0.00    0.0
2019/01/19 03:28:30.000   47.480966241   19.056533939   182.6623   5  11   1.3349   0.8808   0.6581   0.6282  -0.2366  -0.4640   0.00    0.0
2019/01/19 03:29:00.000   47.480966815   19.056534315   182.7759   5  11   1.3314   0.8801   0.6590   0.6238  -0.2358  -0.4644   0.00    0.0
2019/01/19 03:29:30.000   47.480967814   19.056532572   182.7098   5  11   1.3278   0.8793   0.6598   0.6193  -0.2351  -0.4646   0.00    0.0
