% program   : GINA 1.0
% inp file  : C:\Users\lus2bp\Source\Repos\GINA\70_EGNOS_Project\files\PositionComparisonInputFiles\bute0190\bute0190.19o
% inp file  : C:\Users\lus2bp\Source\Repos\GINA\70_EGNOS_Project\files\PositionComparisonInputFiles\bute0190\brdc0190.19n
% obs start : 2019/01/19 00:00:00.0 GPST (week2036 518400.0s)
% obs end   : 2019/01/19 23:59:30.0 GPST (week2036 604770.0s)
% pos mode  : single
% elev mask : 20.0 deg
% ionos opt : ems
% tropo opt : Neill
% ephemeris : broadcasted
% (lat/lon/height=WGS84/ellipsoidal,Q=1:fix,2:float,3:sbas,4:dgps,5:single,6:ppp,ns=# of satellites)
%  GPST                  latitude(deg) longitude(deg)  height(m)   Q  ns   sdn(m)   sde(m)   sdu(m)  sdne(m)  sdeu(m)  sdun(m) age(s)  ratio
2019/01/19 00:00:00.000   47.480955280   19.056545195   198.9670   5   6   4.4268   2.0334   1.9175   7.6338  -3.0369  -7.0509   0.00    0.0
2019/01/19 00:00:30.000   47.480955937   19.056546024   200.5771   5   6   4.4688   2.0554   1.9386   7.8207  -3.1162  -7.2328   0.00    0.0
2019/01/19 00:01:00.000   47.480958085   19.056548332   200.5931   5   6   4.5099   2.0768   1.9595   8.0053  -3.1950  -7.4139   0.00    0.0
2019/01/19 00:01:30.000   47.480959007   19.056551179   199.9450   5   6   4.5500   2.0976   1.9802   8.1868  -3.2729  -7.5932   0.00    0.0
2019/01/19 00:02:00.000   47.480960524   19.056550196   199.0373   5   6   4.5888   2.1179   2.0005   8.3641  -3.3496  -7.7700   0.00    0.0
2019/01/19 00:02:30.000   47.480961733   19.056548060   199.5865   5   6   4.6263   2.1373   2.0203   8.5364  -3.4247  -7.9435   0.00    0.0
2019/01/19 00:03:00.000   47.480960675   19.056545481   201.4549   5   6   4.6621   2.1560   2.0397   8.7025  -3.4976  -8.1127   0.00    0.0
2019/01/19 00:03:30.000   47.480959616   19.056544644   203.3876   5   6   4.6961   2.1736   2.0585   8.8614  -3.5680  -8.2767   0.00    0.0
2019/01/19 00:04:00.000   47.480958573   19.056545166   204.4374   5   6   4.7281   2.1903   2.0767   9.0120  -3.6354  -8.4346   0.00    0.0
2019/01/19 00:04:30.000   47.480958341   19.056546282   204.0816   5   6   4.7580   2.2058   2.0941   9.1533  -3.6994  -8.5854   0.00    0.0
2019/01/19 00:05:00.000   47.480957661   19.056546657   202.9472   5   6   4.7854   2.2201   2.1107   9.2840  -3.7594  -8.7281   0.00    0.0
2019/01/19 00:05:30.000   47.480956345   19.056548774   202.3001   5   6   4.8102   2.2331   2.1264   9.4033  -3.8149  -8.8618   0.00    0.0
2019/01/19 00:06:00.000   47.480956506   19.056550638   201.2058   5   6   4.8323   2.2447   2.1411   9.5101  -3.8656  -8.9856   0.00    0.0
2019/01/19 00:06:30.000   47.480957064   19.056551718   200.0694   5   6   4.8514   2.2548   2.1548   9.6035  -3.9111  -9.0985   0.00    0.0
2019/01/19 00:07:00.000   47.480957984   19.056551729   199.6248   5   6   4.8675   2.2633   2.1673   9.6826  -3.9508  -9.1997   0.00    0.0
2019/01/19 00:07:30.000   47.480959302   19.056549181   199.6570   5   6   4.8804   2.2703   2.1787   9.7467  -3.9845  -9.2886   0.00    0.0
2019/01/19 00:08:00.000   47.480959610   19.056546675   200.0983   5   6   4.8901   2.2756   2.1888   9.7953  -4.0118  -9.3644   0.00    0.0
2019/01/19 00:08:30.000   47.480958656   19.056545002   200.9932   5   6   4.8963   2.2792   2.1977   9.8278  -4.0326  -9.4267   0.00    0.0
2019/01/19 00:09:00.000   47.480957888   19.056543189   201.5656   5   6   4.8991   2.2811   2.2053   9.8438  -4.0466  -9.4750   0.00    0.0
2019/01/19 00:09:30.000   47.480957593   19.056543953   201.7219   5   6   4.8984   2.2813   2.2116   9.8432  -4.0537  -9.5092   0.00    0.0
2019/01/19 00:10:00.000   47.480957591   19.056546112   201.4935   5   6   4.8942   2.2797   2.2165   9.8260  -4.0538  -9.5291   0.00    0.0
2019/01/19 00:10:30.000   47.480959577   19.056545813   200.4832   5   6   4.8866   2.2764   2.2202   9.7922  -4.0468  -9.5346   0.00    0.0
2019/01/19 00:11:00.000   47.480960997   19.056545847   199.4057   5   6   4.8756   2.2714   2.2224   9.7422  -4.0330  -9.5259   0.00    0.0
2019/01/19 00:11:30.000   47.480960963   19.056547349   199.0104   5   6   4.8612   2.2647   2.2234   9.6764  -4.0123  -9.5032   0.00    0.0
2019/01/19 00:12:00.000   47.480960462   19.056550808   199.3593   5   6   4.8435   2.2564   2.2231   9.5954  -3.9851  -9.4671   0.00    0.0
2019/01/19 00:12:30.000   47.480959861   19.056552860   199.4681   5   6   4.8227   2.2466   2.2216   9.4999  -3.9514  -9.4179   0.00    0.0
2019/01/19 00:13:00.000   47.480968479   19.056547668   189.7404   5   7   2.4865   1.6409   0.9290   3.1608  -0.8533  -1.0856   0.00    0.0
2019/01/19 00:13:30.000   47.480967639   19.056550248   190.2925   5   7   2.4920   1.6436   0.9318   3.1800  -0.8601  -1.1046   0.00    0.0
2019/01/19 00:14:00.000   47.480967907   19.056552707   190.2320   5   7   2.4970   1.6458   0.9347   3.1972  -0.8666  -1.1231   0.00    0.0
2019/01/19 00:14:30.000   47.480968933   19.056554038   190.0910   5   7   2.5015   1.6475   0.9374   3.2122  -0.8725  -1.1410   0.00    0.0
2019/01/19 00:15:00.000   47.480969376   19.056554742   189.7613   5   7   2.5055   1.6488   0.9402   3.2252  -0.8780  -1.1583   0.00    0.0
2019/01/19 00:15:30.000   47.480968899   19.056554230   189.1673   5   7   2.5089   1.6496   0.9429   3.2359  -0.8830  -1.1749   0.00    0.0
2019/01/19 00:16:00.000   47.480969213   19.056554119   188.6577   5   7   2.5117   1.6499   0.9455   3.2444  -0.8874  -1.1908   0.00    0.0
2019/01/19 00:16:30.000   47.480969480   19.056553161   187.8018   5   7   2.5140   1.6497   0.9480   3.2507  -0.8913  -1.2060   0.00    0.0
2019/01/19 00:17:00.000   47.480967815   19.056553734   187.6220   5   7   2.5157   1.6490   0.9506   3.2547  -0.8947  -1.2205   0.00    0.0
2019/01/19 00:17:30.000   47.480966661   19.056553615   187.5293   5   7   2.5169   1.6478   0.9530   3.2564  -0.8976  -1.2343   0.00    0.0
2019/01/19 00:18:00.000   47.480966177   19.056554609   187.3635   5   7   2.5174   1.6461   0.9554   3.2559  -0.8998  -1.2474   0.00    0.0
2019/01/19 00:18:30.000   47.480965580   19.056556870   187.2058   5   7   2.5174   1.6440   0.9577   3.2531  -0.9015  -1.2597   0.00    0.0
2019/01/19 00:19:00.000   47.480964040   19.056556853   187.3797   5   7   2.5168   1.6414   0.9599   3.2480  -0.9027  -1.2712   0.00    0.0
2019/01/19 00:19:30.000   47.480963370   19.056555208   187.3108   5   7   2.5156   1.6383   0.9621   3.2407  -0.9032  -1.2820   0.00    0.0
2019/01/19 00:20:00.000   47.480963089   19.056553314   187.4943   5   7   2.5139   1.6347   0.9642   3.2313  -0.9032  -1.2919   0.00    0.0
2019/01/19 00:20:30.000   47.480963294   19.056552538   187.4018   5   7   2.5116   1.6306   0.9662   3.2197  -0.9026  -1.3012   0.00    0.0
2019/01/19 00:21:00.000   47.480962800   19.056552915   187.3941   5   7   2.5088   1.6261   0.9681   3.2059  -0.9015  -1.3096   0.00    0.0
2019/01/19 00:21:30.000   47.480961053   19.056554272   188.0016   5   7   2.5054   1.6212   0.9700   3.1902  -0.8998  -1.3173   0.00    0.0
2019/01/19 00:22:00.000   47.480959838   19.056554071   188.6938   5   7   2.5015   1.6158   0.9717   3.1724  -0.8975  -1.3243   0.00    0.0
2019/01/19 00:22:30.000   47.480959190   19.056554241   189.1546   5   7   2.4970   1.6101   0.9735   3.1528  -0.8947  -1.3305   0.00    0.0
2019/01/19 00:23:00.000   47.480959956   19.056551581   189.1683   5   7   2.4921   1.6039   0.9751   3.1312  -0.8913  -1.3360   0.00    0.0
2019/01/19 00:23:30.000   47.480960480   19.056549312   188.8784   5   7   2.4867   1.5973   0.9767   3.1080  -0.8874  -1.3408   0.00    0.0
2019/01/19 00:24:00.000   47.480960684   19.056549797   188.5225   5   7   2.4808   1.5903   0.9782   3.0830  -0.8831  -1.3449   0.00    0.0
2019/01/19 00:24:30.000   47.480960200   19.056551995   187.9933   5   7   2.4744   1.5830   0.9796   3.0564  -0.8782  -1.3483   0.00    0.0
2019/01/19 00:25:00.000   47.480958998   19.056555150   188.1333   5   7   2.4676   1.5754   0.9810   3.0283  -0.8729  -1.3512   0.00    0.0
2019/01/19 00:25:30.000   47.480958308   19.056557626   188.4817   5   7   2.4604   1.5674   0.9823   2.9988  -0.8672  -1.3534   0.00    0.0
2019/01/19 00:26:00.000   47.480957423   19.056558023   188.4453   5   7   2.4529   1.5591   0.9835   2.9679  -0.8610  -1.3550   0.00    0.0
2019/01/19 00:26:30.000   47.480957344   19.056557140   187.6173   5   7   2.4449   1.5505   0.9847   2.9358  -0.8543  -1.3560   0.00    0.0
2019/01/19 00:27:00.000   47.480956977   19.056555381   187.1576   5   7   2.4366   1.5417   0.9858   2.9025  -0.8473  -1.3565   0.00    0.0
2019/01/19 00:27:30.000   47.480956664   19.056553860   187.4558   5   7   2.4279   1.5326   0.9869   2.8682  -0.8399  -1.3564   0.00    0.0
2019/01/19 00:28:00.000   47.480957674   19.056552435   187.2986   5   7   2.4190   1.5233   0.9879   2.8329  -0.8322  -1.3559   0.00    0.0
2019/01/19 00:28:30.000   47.480958082   19.056551438   187.2243   5   7   2.4097   1.5137   0.9889   2.7967  -0.8241  -1.3550   0.00    0.0
2019/01/19 00:29:00.000   47.480958931   19.056550256   186.8131   5   7   2.4002   1.5039   0.9898   2.7597  -0.8157  -1.3536   0.00    0.0
2019/01/19 00:29:30.000   47.480960210   19.056551689   186.4938   5   7   2.3904   1.4940   0.9907   2.7219  -0.8071  -1.3518   0.00    0.0
2019/01/19 00:30:00.000   47.480961017   19.056553045   186.2788   5   7   2.3804   1.4839   0.9916   2.6836  -0.7982  -1.3497   0.00    0.0
2019/01/19 00:30:30.000   47.480959642   19.056553886   186.6208   5   7   2.3702   1.4736   0.9924   2.6447  -0.7890  -1.3473   0.00    0.0
2019/01/19 00:31:00.000   47.480957359   19.056555587   187.0537   5   7   2.3599   1.4632   0.9932   2.6054  -0.7796  -1.3445   0.00    0.0
2019/01/19 00:31:30.000   47.480958354   19.056553342   186.4034   5   7   2.3493   1.4527   0.9940   2.5657  -0.7700  -1.3414   0.00    0.0
2019/01/19 00:32:00.000   47.480956614   19.056553937   186.1014   5   7   2.3386   1.4420   0.9948   2.5256  -0.7602  -1.3381   0.00    0.0
2019/01/19 00:32:30.000   47.480953454   19.056555764   185.9279   5   7   2.3278   1.4313   0.9956   2.4853  -0.7502  -1.3346   0.00    0.0
2019/01/19 00:33:00.000   47.480950844   19.056557102   186.0186   5   7   2.3169   1.4205   0.9963   2.4449  -0.7401  -1.3309   0.00    0.0
2019/01/19 00:33:30.000   47.480949664   19.056557837   186.4919   5   7   2.3059   1.4097   0.9971   2.4043  -0.7298  -1.3270   0.00    0.0
2019/01/19 00:34:00.000   47.480949493   19.056557788   186.9218   5   7   2.2948   1.3988   0.9978   2.3636  -0.7194  -1.3230   0.00    0.0
2019/01/19 00:34:30.000   47.480950884   19.056555760   186.6899   5   7   2.2836   1.3879   0.9985   2.3230  -0.7090  -1.3189   0.00    0.0
2019/01/19 00:35:00.000   47.480950799   19.056554038   187.1680   5   7   2.2724   1.3769   0.9993   2.2824  -0.6984  -1.3146   0.00    0.0
2019/01/19 00:35:30.000   47.480950219   19.056552854   187.1974   5   7   2.2612   1.3659   1.0000   2.2419  -0.6877  -1.3103   0.00    0.0
2019/01/19 00:36:00.000   47.480949582   19.056551367   186.9467   5   7   2.2500   1.3550   1.0007   2.2015  -0.6770  -1.3059   0.00    0.0
2019/01/19 00:36:30.000   47.480949183   19.056549716   186.7495   5   7   2.2388   1.3440   1.0015   2.1613  -0.6663  -1.3015   0.00    0.0
2019/01/19 00:37:00.000   47.480948465   19.056548401   186.8208   5   7   2.2276   1.3331   1.0023   2.1213  -0.6555  -1.2970   0.00    0.0
2019/01/19 00:37:30.000   47.480948009   19.056547779   186.9039   5   7   2.2164   1.3222   1.0031   2.0816  -0.6446  -1.2926   0.00    0.0
2019/01/19 00:38:00.000   47.480947455   19.056550078   187.2102   5   7   2.2052   1.3113   1.0039   2.0422  -0.6338  -1.2882   0.00    0.0
2019/01/19 00:38:30.000   47.480948522   19.056551919   187.2835   5   7   2.1941   1.3005   1.0047   2.0031  -0.6229  -1.2838   0.00    0.0
2019/01/19 00:39:00.000   47.480948629   19.056552452   187.2249   5   7   2.1831   1.2897   1.0056   1.9643  -0.6121  -1.2795   0.00    0.0
2019/01/19 00:39:30.000   47.480947623   19.056552035   187.0346   5   7   2.1721   1.2790   1.0065   1.9259  -0.6013  -1.2752   0.00    0.0
2019/01/19 00:40:00.000   47.480948538   19.056550640   186.4835   5   7   2.1613   1.2684   1.0074   1.8879  -0.5904  -1.2710   0.00    0.0
2019/01/19 00:40:30.000   47.480948526   19.056551637   186.4440   5   7   2.1504   1.2578   1.0083   1.8503  -0.5796  -1.2669   0.00    0.0
2019/01/19 00:41:00.000   47.480948200   19.056555529   186.4326   5   7   2.1397   1.2473   1.0093   1.8131  -0.5689  -1.2629   0.00    0.0
2019/01/19 00:41:30.000   47.480949153   19.056557321   185.5743   5   7   2.1291   1.2369   1.0104   1.7764  -0.5581  -1.2590   0.00    0.0
2019/01/19 00:42:00.000   47.480947094   19.056558942   185.3705   5   7   2.1186   1.2266   1.0114   1.7401  -0.5474  -1.2553   0.00    0.0
2019/01/19 00:42:30.000   47.480945112   19.056558856   185.6227   5   7   2.1082   1.2164   1.0125   1.7043  -0.5368  -1.2516   0.00    0.0
2019/01/19 00:43:00.000   47.480945660   19.056557249   185.9406   5   7   2.0980   1.2063   1.0137   1.6689  -0.5262  -1.2481   0.00    0.0
2019/01/19 00:43:30.000   47.480948610   19.056556466   186.6178   5   7   2.0878   1.1963   1.0149   1.6340  -0.5156  -1.2448   0.00    0.0
2019/01/19 00:44:00.000   47.480951599   19.056554868   186.4187   5   7   2.0778   1.1864   1.0161   1.5996  -0.5051  -1.2416   0.00    0.0
2019/01/19 00:44:30.000   47.480953154   19.056552807   185.8739   5   7   2.0680   1.1766   1.0174   1.5657  -0.4947  -1.2386   0.00    0.0
2019/01/19 00:45:00.000   47.480951633   19.056553962   185.8626   5   7   2.0582   1.1669   1.0187   1.5323  -0.4843  -1.2357   0.00    0.0
2019/01/19 00:45:30.000   47.480950725   19.056556054   185.8432   5   7   2.0486   1.1574   1.0201   1.4993  -0.4740  -1.2330   0.00    0.0
2019/01/19 00:46:00.000   47.480951080   19.056557017   185.9267   5   7   2.0392   1.1479   1.0216   1.4669  -0.4637  -1.2305   0.00    0.0
2019/01/19 00:46:30.000   47.480950934   19.056558238   185.8621   5   7   2.0299   1.1386   1.0230   1.4349  -0.4535  -1.2282   0.00    0.0
2019/01/19 00:47:00.000   47.480951144   19.056556499   185.7616   5   7   2.0207   1.1294   1.0246   1.4034  -0.4434  -1.2261   0.00    0.0
2019/01/19 00:47:30.000   47.480949966   19.056556467   186.1479   5   7   2.0117   1.1204   1.0262   1.3724  -0.4333  -1.2241   0.00    0.0
2019/01/19 00:48:00.000   47.480949938   19.056556941   186.1444   5   7   2.0029   1.1114   1.0278   1.3419  -0.4233  -1.2224   0.00    0.0
2019/01/19 00:48:30.000   47.480951371   19.056555722   185.9071   5   7   1.9942   1.1026   1.0296   1.3119  -0.4133  -1.2209   0.00    0.0
2019/01/19 00:49:00.000   47.480951593   19.056554700   185.7279   5   7   1.9857   1.0939   1.0313   1.2823  -0.4034  -1.2195   0.00    0.0
2019/01/19 00:49:30.000   47.480951537   19.056555021   185.6258   5   7   1.9773   1.0854   1.0332   1.2532  -0.3936  -1.2184   0.00    0.0
2019/01/19 00:50:00.000   47.480950231   19.056555776   185.4218   5   7   1.9691   1.0769   1.0351   1.2245  -0.3838  -1.2175   0.00    0.0
2019/01/19 00:50:30.000   47.480949402   19.056557218   185.4414   5   7   1.9610   1.0686   1.0370   1.1963  -0.3741  -1.2168   0.00    0.0
2019/01/19 00:51:00.000   47.480949649   19.056557716   185.2504   5   7   1.9531   1.0605   1.0390   1.1686  -0.3645  -1.2163   0.00    0.0
2019/01/19 00:51:30.000   47.480949177   19.056557956   185.1806   5   7   1.9454   1.0524   1.0411   1.1413  -0.3549  -1.2160   0.00    0.0
2019/01/19 00:52:00.000   47.480946789   19.056559877   185.3320   5   7   1.9378   1.0446   1.0432   1.1144  -0.3453  -1.2160   0.00    0.0
2019/01/19 00:52:30.000   47.480945747   19.056560705   185.2132   5   7   1.9304   1.0368   1.0455   1.0880  -0.3359  -1.2162   0.00    0.0
2019/01/19 00:53:00.000   47.480945473   19.056561750   184.9680   5   7   1.9232   1.0292   1.0477   1.0619  -0.3264  -1.2165   0.00    0.0
2019/01/19 00:53:30.000   47.480946696   19.056563087   184.7618   5   7   1.9161   1.0217   1.0501   1.0363  -0.3170  -1.2172   0.00    0.0
2019/01/19 00:54:00.000   47.480947874   19.056564396   184.5630   5   7   1.9092   1.0143   1.0525   1.0111  -0.3077  -1.2180   0.00    0.0
2019/01/19 00:54:30.000   47.480948526   19.056566189   184.3739   5   7   1.9025   1.0071   1.0550   0.9862  -0.2984  -1.2190   0.00    0.0
2019/01/19 00:55:00.000   47.480948220   19.056567848   184.1843   5   7   1.8959   0.9999   1.0575   0.9617  -0.2892  -1.2203   0.00    0.0
2019/01/19 00:55:30.000   47.480947326   19.056566882   183.9860   5   7   1.8894   0.9930   1.0601   0.9377  -0.2799  -1.2218   0.00    0.0
2019/01/19 00:56:00.000   47.480946200   19.056565662   184.1154   5   7   1.8832   0.9861   1.0628   0.9139  -0.2708  -1.2236   0.00    0.0
2019/01/19 00:56:30.000   47.480944476   19.056564223   184.3074   5   7   1.8770   0.9794   1.0655   0.8906  -0.2616  -1.2255   0.00    0.0
2019/01/19 00:57:00.000   47.480944179   19.056563686   184.1227   5   7   1.8711   0.9729   1.0684   0.8676  -0.2525  -1.2277   0.00    0.0
2019/01/19 00:57:30.000   47.480945413   19.056563306   183.4756   5   7   1.8653   0.9664   1.0713   0.8449  -0.2435  -1.2301   0.00    0.0
2019/01/19 00:58:00.000   47.480946408   19.056563179   182.9227   5   7   1.8596   0.9601   1.0742   0.8225  -0.2344  -1.2328   0.00    0.0
2019/01/19 00:58:30.000   47.480945912   19.056564277   182.5744   5   7   1.8542   0.9539   1.0773   0.8005  -0.2254  -1.2356   0.00    0.0
2019/01/19 00:59:00.000   47.480945478   19.056564643   182.3796   5   7   1.8488   0.9479   1.0804   0.7787  -0.2164  -1.2387   0.00    0.0
2019/01/19 00:59:30.000   47.480946548   19.056563878   182.1714   5   7   1.8436   0.9419   1.0836   0.7573  -0.2074  -1.2421   0.00    0.0
2019/01/19 01:00:00.000   47.480948398   19.056565134   182.3031   5   7   1.8386   0.9361   1.0868   0.7362  -0.1984  -1.2456   0.00    0.0
2019/01/19 01:00:30.000   47.480950659   19.056565688   182.5593   5   7   1.8337   0.9305   1.0901   0.7153  -0.1895  -1.2494   0.00    0.0
2019/01/19 01:01:00.000   47.480952548   19.056565917   182.6670   5   7   1.8290   0.9249   1.0936   0.6947  -0.1805  -1.2535   0.00    0.0
2019/01/19 01:01:30.000   47.480953487   19.056566270   182.6752   5   7   1.8244   0.9195   1.0970   0.6744  -0.1716  -1.2577   0.00    0.0
2019/01/19 01:02:00.000   47.480953458   19.056566211   182.6538   5   7   1.8200   0.9142   1.1006   0.6544  -0.1626  -1.2622   0.00    0.0
2019/01/19 01:02:30.000   47.480951864   19.056566108   182.8551   5   7   1.8157   0.9091   1.1042   0.6346  -0.1537  -1.2669   0.00    0.0
2019/01/19 01:03:00.000   47.480950798   19.056563415   183.0070   5   7   1.8115   0.9040   1.1079   0.6150  -0.1448  -1.2719   0.00    0.0
2019/01/19 01:03:30.000   47.480949676   19.056564227   183.2782   5   7   1.8075   0.8991   1.1117   0.5957  -0.1358  -1.2771   0.00    0.0
2019/01/19 01:04:00.000   47.480950012   19.056563383   183.5190   5   7   1.8037   0.8943   1.1156   0.5766  -0.1269  -1.2825   0.00    0.0
2019/01/19 01:04:30.000   47.480925717   19.056557195   178.1371   5   6   2.0338   1.5263   1.2596   1.7320  -0.8340  -1.8347   0.00    0.0
2019/01/19 01:05:00.000   47.480923297   19.056557453   178.5240   5   6   2.0251   1.5136   1.2611   1.6870  -0.8122  -1.8295   0.00    0.0
2019/01/19 01:05:30.000   47.480923246   19.056556841   178.6945   5   6   2.0167   1.5011   1.2627   1.6430  -0.7907  -1.8247   0.00    0.0
2019/01/19 01:06:00.000   47.480925404   19.056555822   178.8143   5   6   2.0085   1.4889   1.2645   1.5998  -0.7695  -1.8205   0.00    0.0
2019/01/19 01:06:30.000   47.480926513   19.056555828   178.9375   5   6   2.0005   1.4768   1.2664   1.5574  -0.7485  -1.8168   0.00    0.0
2019/01/19 01:07:00.000   47.480927658   19.056556362   179.2222   5   6   1.9928   1.4650   1.2684   1.5159  -0.7278  -1.8135   0.00    0.0
2019/01/19 01:07:30.000   47.480928328   19.056557248   179.4924   5   6   1.9854   1.4534   1.2705   1.4752  -0.7073  -1.8108   0.00    0.0
2019/01/19 01:08:00.000   47.480927987   19.056558338   179.4615   5   6   1.9782   1.4420   1.2727   1.4353  -0.6871  -1.8086   0.00    0.0
2019/01/19 01:08:30.000   47.480927342   19.056558452   179.1018   5   6   1.9712   1.4309   1.2751   1.3962  -0.6671  -1.8068   0.00    0.0
2019/01/19 01:09:00.000   47.480928614   19.056558047   178.9718   5   6   1.9645   1.4199   1.2776   1.3578  -0.6473  -1.8055   0.00    0.0
2019/01/19 01:09:30.000   47.480929538   19.056557863   178.8467   5   6   1.9579   1.4092   1.2802   1.3201  -0.6277  -1.8047   0.00    0.0
2019/01/19 01:10:00.000   47.480929020   19.056557097   178.6875   5   6   1.9516   1.3986   1.2830   1.2832  -0.6083  -1.8044   0.00    0.0
2019/01/19 01:10:30.000   47.480928411   19.056557148   178.5553   5   6   1.9456   1.3883   1.2859   1.2469  -0.5891  -1.8045   0.00    0.0
2019/01/19 01:11:00.000   47.480926578   19.056558497   178.5327   5   6   1.9397   1.3782   1.2889   1.2113  -0.5701  -1.8051   0.00    0.0
2019/01/19 01:11:30.000   47.480923416   19.056559066   178.4130   5   6   1.9341   1.3683   1.2921   1.1763  -0.5512  -1.8062   0.00    0.0
2019/01/19 01:12:00.000   47.480922312   19.056557524   177.8825   5   6   1.9286   1.3586   1.2953   1.1419  -0.5325  -1.8077   0.00    0.0
2019/01/19 01:12:30.000   47.480920622   19.056556874   177.4716   5   6   1.9234   1.3491   1.2987   1.1082  -0.5140  -1.8096   0.00    0.0
2019/01/19 01:13:00.000   47.480920548   19.056556220   177.3119   5   6   1.9184   1.3398   1.3022   1.0750  -0.4957  -1.8120   0.00    0.0
2019/01/19 01:13:30.000   47.480922483   19.056555673   177.4511   5   6   1.9136   1.3307   1.3059   1.0424  -0.4774  -1.8149   0.00    0.0
2019/01/19 01:14:00.000   47.480924181   19.056556872   178.0205   5   6   1.9090   1.3218   1.3097   1.0103  -0.4594  -1.8182   0.00    0.0
2019/01/19 01:14:30.000   47.480926722   19.056556724   178.1869   5   6   1.9046   1.3131   1.3136   0.9788  -0.4414  -1.8219   0.00    0.0
2019/01/19 01:15:00.000   47.480930307   19.056550003   176.9164   5   7   1.5668   1.2550   0.8102   0.5647  -0.0534  -0.7087   0.00    0.0
2019/01/19 01:15:30.000   47.480929802   19.056551302   177.0828   5   7   1.5651   1.2509   0.8133   0.5530  -0.0514  -0.7150   0.00    0.0
2019/01/19 01:16:00.000   47.480927755   19.056553057   177.1715   5   7   1.5634   1.2467   0.8164   0.5414  -0.0494  -0.7214   0.00    0.0
2019/01/19 01:16:30.000   47.480925864   19.056553478   177.2443   5   7   1.5618   1.2425   0.8195   0.5299  -0.0474  -0.7277   0.00    0.0
2019/01/19 01:17:00.000   47.480926030   19.056553312   177.2508   5   7   1.5602   1.2383   0.8226   0.5184  -0.0453  -0.7341   0.00    0.0
2019/01/19 01:17:30.000   47.480926034   19.056553823   177.2970   5   7   1.5586   1.2341   0.8258   0.5069  -0.0431  -0.7405   0.00    0.0
2019/01/19 01:18:00.000   47.480925482   19.056553555   177.2226   5   7   1.5570   1.2298   0.8290   0.4955  -0.0410  -0.7469   0.00    0.0
2019/01/19 01:18:30.000   47.480926596   19.056553533   177.2066   5   7   1.5555   1.2256   0.8321   0.4842  -0.0387  -0.7533   0.00    0.0
2019/01/19 01:19:00.000   47.480927728   19.056553477   177.2479   5   7   1.5540   1.2213   0.8354   0.4729  -0.0365  -0.7597   0.00    0.0
2019/01/19 01:19:30.000   47.480930579   19.056550869   177.0247   5   7   1.5526   1.2171   0.8386   0.4617  -0.0342  -0.7661   0.00    0.0
2019/01/19 01:20:00.000   47.480931770   19.056549161   177.1235   5   7   1.5511   1.2128   0.8419   0.4506  -0.0319  -0.7725   0.00    0.0
2019/01/19 01:20:30.000   47.480932407   19.056547493   177.1423   5   7   1.5497   1.2086   0.8451   0.4395  -0.0296  -0.7789   0.00    0.0
2019/01/19 01:21:00.000   47.480933519   19.056546625   177.2215   5   7   1.5484   1.2043   0.8484   0.4285  -0.0272  -0.7854   0.00    0.0
2019/01/19 01:21:30.000   47.480934423   19.056545832   177.2901   5   7   1.5470   1.2001   0.8517   0.4176  -0.0248  -0.7918   0.00    0.0
2019/01/19 01:22:00.000   47.480933724   19.056544909   177.3154   5   7   1.5457   1.1958   0.8551   0.4068  -0.0224  -0.7983   0.00    0.0
2019/01/19 01:22:30.000   47.480933190   19.056543264   177.4354   5   7   1.5444   1.1916   0.8584   0.3961  -0.0199  -0.8047   0.00    0.0
2019/01/19 01:23:00.000   47.480933228   19.056541418   177.3865   5   7   1.5431   1.1873   0.8618   0.3855  -0.0175  -0.8112   0.00    0.0
2019/01/19 01:23:30.000   47.480933466   19.056539247   177.2818   5   7   1.5419   1.1831   0.8652   0.3749  -0.0150  -0.8177   0.00    0.0
2019/01/19 01:24:00.000   47.480934023   19.056540470   177.5774   5   7   1.5407   1.1789   0.8686   0.3644  -0.0124  -0.8242   0.00    0.0
2019/01/19 01:24:30.000   47.480935424   19.056542180   177.7969   5   7   1.5395   1.1746   0.8720   0.3540  -0.0099  -0.8307   0.00    0.0
2019/01/19 01:25:00.000   47.480938047   19.056544237   177.7594   5   7   1.5383   1.1704   0.8754   0.3437  -0.0073  -0.8371   0.00    0.0
2019/01/19 01:25:30.000   47.480940245   19.056545420   177.3354   5   7   1.5372   1.1662   0.8789   0.3336  -0.0047  -0.8436   0.00    0.0
2019/01/19 01:26:00.000   47.480939490   19.056545826   176.7940   5   7   1.5360   1.1621   0.8823   0.3235  -0.0021  -0.8501   0.00    0.0
2019/01/19 01:26:30.000   47.480938886   19.056545839   176.4002   5   7   1.5349   1.1579   0.8858   0.3135   0.0005  -0.8566   0.00    0.0
2019/01/19 01:27:00.000   47.480935812   19.056547690   176.1870   5   7   1.5338   1.1537   0.8893   0.3036   0.0031  -0.8631   0.00    0.0
2019/01/19 01:27:30.000   47.480934237   19.056549417   176.1705   5   7   1.5327   1.1496   0.8928   0.2938   0.0058  -0.8696   0.00    0.0
2019/01/19 01:28:00.000   47.480935754   19.056550246   176.1195   5   7   1.5317   1.1455   0.8963   0.2841   0.0085  -0.8761   0.00    0.0
2019/01/19 01:28:30.000   47.480936764   19.056550906   176.2772   5   7   1.5306   1.1414   0.8999   0.2745   0.0112  -0.8826   0.00    0.0
2019/01/19 01:29:00.000   47.480936881   19.056551159   176.4356   5   7   1.5296   1.1373   0.9034   0.2650   0.0139  -0.8891   0.00    0.0
2019/01/19 01:29:30.000   47.480938701   19.056549660   176.5545   5   7   1.5286   1.1332   0.9070   0.2556   0.0166  -0.8956   0.00    0.0
2019/01/19 01:30:00.000   47.480940841   19.056548618   176.5592   5   7   1.5276   1.1292   0.9105   0.2463   0.0193  -0.9020   0.00    0.0
2019/01/19 01:30:30.000   47.480941164   19.056549653   176.6258   5   7   1.5266   1.1251   0.9141   0.2372   0.0221  -0.9085   0.00    0.0
2019/01/19 01:31:00.000   47.480940959   19.056549113   176.6952   5   7   1.5256   1.1211   0.9177   0.2281   0.0248  -0.9149   0.00    0.0
2019/01/19 01:31:30.000   47.480940614   19.056547076   176.6192   5   7   1.5246   1.1171   0.9213   0.2192   0.0276  -0.9214   0.00    0.0
2019/01/19 01:32:00.000   47.480940893   19.056546770   176.7267   5   7   1.5236   1.1132   0.9249   0.2103   0.0303  -0.9278   0.00    0.0
2019/01/19 01:32:30.000   47.480948689   19.056570833   172.1296   5   6   2.5947   1.2508   0.9291   1.4158   0.0154  -0.9985   0.00    0.0
2019/01/19 01:33:00.000   47.480949498   19.056569909   171.9263   5   6   2.5818   1.2448   0.9328   1.3874   0.0170  -1.0093   0.00    0.0
2019/01/19 01:33:30.000   47.480949432   19.056568545   171.8216   5   6   2.5690   1.2390   0.9365   1.3593   0.0187  -1.0198   0.00    0.0
2019/01/19 01:34:00.000   47.480949971   19.056567053   171.5051   5   6   2.5562   1.2332   0.9402   1.3316   0.0205  -1.0299   0.00    0.0
2019/01/19 01:34:30.000   47.480951229   19.056565151   171.2804   5   6   2.5434   1.2274   0.9440   1.3042   0.0224  -1.0399   0.00    0.0
2019/01/19 01:35:00.000   47.480952147   19.056564196   171.2931   5   6   2.5306   1.2216   0.9477   1.2772   0.0243  -1.0495   0.00    0.0
2019/01/19 01:35:30.000   47.480954759   19.056562748   171.1462   5   6   2.5179   1.2160   0.9515   1.2505   0.0263  -1.0589   0.00    0.0
2019/01/19 01:36:00.000   47.480955720   19.056563397   171.2075   5   6   2.5051   1.2103   0.9552   1.2242   0.0284  -1.0680   0.00    0.0
2019/01/19 01:36:30.000   47.480955834   19.056564228   171.2978   5   6   2.4924   1.2047   0.9590   1.1982   0.0305  -1.0769   0.00    0.0
2019/01/19 01:37:00.000   47.480954248   19.056565742   171.6622   5   6   2.4796   1.1992   0.9628   1.1727   0.0327  -1.0855   0.00    0.0
2019/01/19 01:37:30.000   47.480953276   19.056566493   171.8070   5   6   2.4670   1.1938   0.9665   1.1475   0.0349  -1.0938   0.00    0.0
2019/01/19 01:38:00.000   47.480951464   19.056567515   171.7740   5   6   2.4543   1.1883   0.9703   1.1226   0.0372  -1.1019   0.00    0.0
2019/01/19 01:38:30.000   47.480949800   19.056566888   171.9757   5   6   2.4417   1.1830   0.9741   1.0982   0.0396  -1.1097   0.00    0.0
2019/01/19 01:39:00.000   47.480949918   19.056564478   172.0789   5   6   2.4291   1.1777   0.9778   1.0741   0.0420  -1.1173   0.00    0.0
2019/01/19 01:39:30.000   47.480949822   19.056563530   172.2525   5   6   2.4165   1.1724   0.9816   1.0504   0.0445  -1.1246   0.00    0.0
2019/01/19 01:40:00.000   47.480950220   19.056563727   172.2662   5   6   2.4040   1.1672   0.9854   1.0271   0.0470  -1.1317   0.00    0.0
2019/01/19 01:40:30.000   47.480949696   19.056562286   172.4911   5   6   2.3915   1.1621   0.9891   1.0041   0.0495  -1.1386   0.00    0.0
2019/01/19 01:41:00.000   47.480947288   19.056561323   172.8371   5   6   2.3791   1.1570   0.9929   0.9816   0.0521  -1.1452   0.00    0.0
2019/01/19 01:41:30.000   47.480946808   19.056558673   172.9844   5   6   2.3667   1.1520   0.9966   0.9594   0.0548  -1.1516   0.00    0.0
2019/01/19 01:42:00.000   47.480945118   19.056557727   172.9613   5   6   2.3543   1.1470   1.0004   0.9376   0.0574  -1.1577   0.00    0.0
2019/01/19 01:42:30.000   47.480943727   19.056558736   173.2800   5   6   2.3420   1.1421   1.0041   0.9161   0.0601  -1.1637   0.00    0.0
2019/01/19 01:43:00.000   47.480943405   19.056558843   173.5655   5   6   2.3298   1.1372   1.0078   0.8951   0.0629  -1.1694   0.00    0.0
2019/01/19 01:43:30.000   47.480943328   19.056558931   173.8079   5   6   2.3175   1.1324   1.0116   0.8744   0.0657  -1.1749   0.00    0.0
2019/01/19 01:44:00.000   47.480944678   19.056560074   173.7686   5   6   2.3054   1.1277   1.0153   0.8540   0.0685  -1.1802   0.00    0.0
2019/01/19 01:44:30.000   47.480945864   19.056561494   173.2398   5   6   2.2933   1.1230   1.0190   0.8341   0.0713  -1.1853   0.00    0.0
2019/01/19 01:45:00.000   47.480946382   19.056561077   173.0163   5   6   2.2812   1.1183   1.0227   0.8145   0.0742  -1.1902   0.00    0.0
2019/01/19 01:45:30.000   47.480946771   19.056559682   173.0746   5   6   2.2692   1.1138   1.0264   0.7952   0.0771  -1.1948   0.00    0.0
2019/01/19 01:46:00.000   47.480948631   19.056556072   173.1555   5   6   2.2573   1.1092   1.0301   0.7763   0.0800  -1.1993   0.00    0.0
2019/01/19 01:46:30.000   47.480957805   19.056534727   175.5653   5   7   2.0687   0.7947   1.0171   0.0878  -0.0590  -1.3650   0.00    0.0
2019/01/19 01:47:00.000   47.480961221   19.056532943   174.9028   5   7   2.0658   0.7947   1.0197   0.0933  -0.0595  -1.3699   0.00    0.0
2019/01/19 01:47:30.000   47.480963708   19.056532240   174.3782   5   7   2.0627   0.7946   1.0222   0.0986  -0.0601  -1.3744   0.00    0.0
2019/01/19 01:48:00.000   47.480964157   19.056532352   174.3754   5   7   2.0594   0.7945   1.0247   0.1038  -0.0606  -1.3785   0.00    0.0
2019/01/19 01:48:30.000   47.480964943   19.056529807   174.0646   5   7   2.0558   0.7945   1.0271   0.1090  -0.0611  -1.3823   0.00    0.0
2019/01/19 01:49:00.000   47.480963398   19.056530699   174.2015   5   7   2.0521   0.7944   1.0294   0.1140  -0.0615  -1.3856   0.00    0.0
2019/01/19 01:49:30.000   47.480961404   19.056532855   174.4271   5   7   2.0481   0.7944   1.0317   0.1189  -0.0620  -1.3886   0.00    0.0
2019/01/19 01:50:00.000   47.480962106   19.056533378   174.3764   5   7   2.0440   0.7944   1.0340   0.1236  -0.0624  -1.3913   0.00    0.0
2019/01/19 01:50:30.000   47.480963722   19.056536804   174.2047   5   7   2.0397   0.7943   1.0362   0.1282  -0.0627  -1.3935   0.00    0.0
2019/01/19 01:51:00.000   47.480965384   19.056538057   173.7726   5   7   2.0351   0.7943   1.0383   0.1327  -0.0631  -1.3954   0.00    0.0
2019/01/19 01:51:30.000   47.480967017   19.056537574   173.4368   5   7   2.0304   0.7943   1.0403   0.1371  -0.0634  -1.3969   0.00    0.0
2019/01/19 01:52:00.000   47.480966302   19.056537885   173.4569   5   7   2.0255   0.7942   1.0423   0.1414  -0.0637  -1.3980   0.00    0.0
2019/01/19 01:52:30.000   47.480966664   19.056537278   173.4699   5   7   2.0204   0.7942   1.0443   0.1455  -0.0639  -1.3988   0.00    0.0
2019/01/19 01:53:00.000   47.480966422   19.056535943   173.4626   5   7   2.0151   0.7942   1.0461   0.1495  -0.0641  -1.3992   0.00    0.0
2019/01/19 01:53:30.000   47.480970613   19.056540027   174.3653   5   6   2.0117   1.1341   1.1295   0.2275  -0.4053  -1.4379   0.00    0.0
2019/01/19 01:54:00.000   47.480970775   19.056539552   174.7998   5   6   2.0075   1.1386   1.1357   0.2541  -0.4181  -1.4506   0.00    0.0
2019/01/19 01:54:30.000   47.480969608   19.056540604   175.1839   5   6   2.0035   1.1434   1.1420   0.2809  -0.4312  -1.4636   0.00    0.0
2019/01/19 01:55:00.000   47.480969796   19.056540248   175.0948   5   6   1.9997   1.1482   1.1485   0.3079  -0.4446  -1.4769   0.00    0.0
2019/01/19 01:55:30.000   47.480970903   19.056540119   174.6345   5   6   1.9962   1.1533   1.1550   0.3351  -0.4583  -1.4905   0.00    0.0
2019/01/19 01:56:00.000   47.480971099   19.056540238   174.2262   5   6   1.9928   1.1585   1.1616   0.3624  -0.4724  -1.5045   0.00    0.0
2019/01/19 01:56:30.000   47.480971422   19.056539003   173.8253   5   6   1.9896   1.1639   1.1684   0.3900  -0.4869  -1.5189   0.00    0.0
2019/01/19 01:57:00.000   47.480971763   19.056539022   173.7515   5   6   1.9867   1.1694   1.1753   0.4179  -0.5017  -1.5336   0.00    0.0
2019/01/19 01:57:30.000   47.480972639   19.056538310   173.9019   5   6   1.9840   1.1752   1.1823   0.4459  -0.5169  -1.5487   0.00    0.0
2019/01/19 01:58:00.000   47.480972430   19.056538409   174.5075   5   6   1.9816   1.1810   1.1894   0.4743  -0.5325  -1.5642   0.00    0.0
2019/01/19 01:58:30.000   47.480971282   19.056536226   174.7594   5   7   1.6115   1.1709   0.7763   0.2783  -0.3705  -0.5337   0.00    0.0
2019/01/19 01:59:00.000   47.480970064   19.056535933   174.8004   5   7   1.6095   1.1760   0.7805   0.2986  -0.3788  -0.5436   0.00    0.0
2019/01/19 01:59:30.000   47.480969461   19.056536420   174.6526   5   7   1.6077   1.1811   0.7847   0.3191  -0.3872  -0.5537   0.00    0.0
2019/01/19 02:00:00.000   47.480970548   19.056538750   174.0874   5   7   1.6061   1.1864   0.7890   0.3398  -0.3959  -0.5640   0.00    0.0
2019/01/19 02:00:30.000   47.480971260   19.056540532   174.1365   5   7   1.6046   1.1919   0.7934   0.3607  -0.4049  -0.5745   0.00    0.0
2019/01/19 02:01:00.000   47.480971349   19.056540814   174.3850   5   7   1.6033   1.1975   0.7979   0.3818  -0.4141  -0.5852   0.00    0.0
2019/01/19 02:01:30.000   47.480969963   19.056540461   174.3452   5   7   1.6021   1.2032   0.8025   0.4032  -0.4236  -0.5961   0.00    0.0
2019/01/19 02:02:00.000   47.480967909   19.056539960   173.9456   5   7   1.6011   1.2090   0.8072   0.4248  -0.4334  -0.6072   0.00    0.0
2019/01/19 02:02:30.000   47.480966289   19.056539093   173.6196   5   7   1.6003   1.2150   0.8120   0.4466  -0.4434  -0.6185   0.00    0.0
2019/01/19 02:03:00.000   47.480965531   19.056537728   173.4267   5   7   1.5997   1.2212   0.8169   0.4686  -0.4537  -0.6301   0.00    0.0
2019/01/19 02:03:30.000   47.480965574   19.056535499   173.3543   5   7   1.5992   1.2274   0.8219   0.4909  -0.4643  -0.6419   0.00    0.0
2019/01/19 02:04:00.000   47.480965570   19.056533726   173.4544   5   7   1.5989   1.2339   0.8270   0.5135  -0.4752  -0.6539   0.00    0.0
2019/01/19 02:04:30.000   47.480964721   19.056535057   173.8305   5   7   1.5988   1.2404   0.8322   0.5364  -0.4864  -0.6662   0.00    0.0
2019/01/19 02:05:00.000   47.480963520   19.056535022   174.1181   5   7   1.5989   1.2471   0.8375   0.5596  -0.4980  -0.6788   0.00    0.0
2019/01/19 02:05:30.000   47.480964243   19.056533227   174.0038   5   7   1.5991   1.2540   0.8429   0.5831  -0.5098  -0.6916   0.00    0.0
2019/01/19 02:06:00.000   47.480965451   19.056532636   173.9184   5   7   1.5995   1.2610   0.8484   0.6068  -0.5220  -0.7047   0.00    0.0
2019/01/19 02:06:30.000   47.480967093   19.056533196   173.8067   5   7   1.6002   1.2682   0.8541   0.6310  -0.5345  -0.7181   0.00    0.0
2019/01/19 02:07:00.000   47.480966354   19.056532234   173.5783   5   7   1.6010   1.2755   0.8599   0.6554  -0.5474  -0.7318   0.00    0.0
2019/01/19 02:07:30.000   47.480962716   19.056531455   173.4256   5   7   1.6020   1.2830   0.8658   0.6802  -0.5607  -0.7458   0.00    0.0
2019/01/19 02:08:00.000   47.480958387   19.056531972   173.4895   5   7   1.6032   1.2906   0.8718   0.7054  -0.5743  -0.7602   0.00    0.0
2019/01/19 02:08:30.000   47.480956669   19.056533556   173.7883   5   7   1.6046   1.2984   0.8779   0.7309  -0.5883  -0.7749   0.00    0.0
2019/01/19 02:09:00.000   47.480957264   19.056534437   174.2525   5   7   1.6062   1.3063   0.8842   0.7568  -0.6027  -0.7899   0.00    0.0
2019/01/19 02:09:30.000   47.480958560   19.056534754   174.5129   5   7   1.6080   1.3144   0.8906   0.7831  -0.6175  -0.8053   0.00    0.0
2019/01/19 02:10:00.000   47.480960191   19.056532937   174.1999   5   7   1.6100   1.3227   0.8971   0.8098  -0.6327  -0.8210   0.00    0.0
2019/01/19 02:10:30.000   47.480960424   19.056531597   174.1396   5   7   1.6122   1.3311   0.9038   0.8370  -0.6483  -0.8372   0.00    0.0
2019/01/19 02:11:00.000   47.480959375   19.056531491   174.2854   5   7   1.6146   1.3397   0.9106   0.8646  -0.6644  -0.8537   0.00    0.0
2019/01/19 02:11:30.000   47.480958033   19.056530642   174.3454   5   7   1.6172   1.3485   0.9176   0.8926  -0.6809  -0.8706   0.00    0.0
2019/01/19 02:12:00.000   47.480956237   19.056530912   174.6506   5   7   1.6201   1.3574   0.9247   0.9211  -0.6979  -0.8880   0.00    0.0
2019/01/19 02:12:30.000   47.480954989   19.056531529   174.6439   5   7   1.6231   1.3665   0.9319   0.9501  -0.7153  -0.9058   0.00    0.0
2019/01/19 02:13:00.000   47.480954263   19.056530775   174.2755   5   7   1.6264   1.3757   0.9393   0.9795  -0.7333  -0.9240   0.00    0.0
2019/01/19 02:13:30.000   47.480954654   19.056530058   173.7925   5   7   1.6298   1.3852   0.9469   1.0095  -0.7517  -0.9427   0.00    0.0
2019/01/19 02:14:00.000   47.480956172   19.056528842   172.9913   5   7   1.6335   1.3948   0.9546   1.0399  -0.7707  -0.9618   0.00    0.0
2019/01/19 02:14:30.000   47.480956885   19.056528849   172.6493   5   7   1.6374   1.4045   0.9625   1.0709  -0.7901  -0.9815   0.00    0.0
2019/01/19 02:15:00.000   47.480956698   19.056529291   172.6436   5   7   1.6416   1.4145   0.9705   1.1025  -0.8101  -1.0016   0.00    0.0
2019/01/19 02:15:30.000   47.480956109   19.056529767   172.6441   5   7   1.6459   1.4246   0.9787   1.1345  -0.8307  -1.0223   0.00    0.0
2019/01/19 02:16:00.000   47.480956300   19.056528785   172.7069   5   7   1.6505   1.4349   0.9871   1.1672  -0.8518  -1.0434   0.00    0.0
2019/01/19 02:16:30.000   47.480957374   19.056526964   172.6893   5   7   1.6553   1.4453   0.9956   1.2004  -0.8735  -1.0651   0.00    0.0
2019/01/19 02:17:00.000   47.480958556   19.056526428   172.7515   5   7   1.6603   1.4559   1.0043   1.2342  -0.8957  -1.0874   0.00    0.0
2019/01/19 02:17:30.000   47.480960148   19.056524727   172.8303   5   7   1.6655   1.4667   1.0132   1.2687  -0.9186  -1.1102   0.00    0.0
2019/01/19 02:18:00.000   47.480961433   19.056523712   172.7247   5   7   1.6710   1.4777   1.0223   1.3037  -0.9421  -1.1336   0.00    0.0
2019/01/19 02:18:30.000   47.480960780   19.056524555   172.4278   5   8   1.5165   0.9768   0.9574   0.5356  -0.5347  -0.8829   0.00    0.0
2019/01/19 02:19:00.000   47.480961230   19.056524244   171.9884   5   8   1.5185   0.9833   0.9645   0.5545  -0.5472  -0.8983   0.00    0.0
2019/01/19 02:19:30.000   47.480960889   19.056526292   171.9114   5   8   1.5207   0.9900   0.9717   0.5737  -0.5601  -0.9141   0.00    0.0
2019/01/19 02:20:00.000   47.480960426   19.056525754   171.7710   5   8   1.5231   0.9968   0.9791   0.5932  -0.5733  -0.9303   0.00    0.0
2019/01/19 02:20:30.000   47.480960169   19.056523392   171.8106   5   8   1.5257   1.0038   0.9866   0.6130  -0.5869  -0.9468   0.00    0.0
2019/01/19 02:21:00.000   47.480960479   19.056520110   171.8945   5   8   1.5285   1.0109   0.9942   0.6332  -0.6009  -0.9638   0.00    0.0
2019/01/19 02:21:30.000   47.480960236   19.056519913   171.9788   5   8   1.5314   1.0181   1.0020   0.6537  -0.6152  -0.9811   0.00    0.0
2019/01/19 02:22:00.000   47.480960094   19.056520254   172.1298   5   8   1.5345   1.0256   1.0099   0.6746  -0.6300  -0.9989   0.00    0.0
2019/01/19 02:22:30.000   47.480959258   19.056519967   172.4149   5   8   1.5378   1.0331   1.0180   0.6958  -0.6451  -1.0171   0.00    0.0
2019/01/19 02:23:00.000   47.480957731   19.056519729   172.6070   5   8   1.5413   1.0409   1.0262   0.7175  -0.6607  -1.0357   0.00    0.0
2019/01/19 02:23:30.000   47.480957705   19.056518745   172.7039   5   8   1.5449   1.0488   1.0346   0.7395  -0.6767  -1.0548   0.00    0.0
2019/01/19 02:24:00.000   47.480958257   19.056516834   172.4134   5   8   1.5488   1.0568   1.0432   0.7619  -0.6931  -1.0744   0.00    0.0
2019/01/19 02:24:30.000   47.480959025   19.056516547   172.2252   5   8   1.5528   1.0650   1.0519   0.7847  -0.7100  -1.0944   0.00    0.0
2019/01/19 02:25:00.000   47.480959344   19.056515819   171.7926   5   8   1.5570   1.0734   1.0607   0.8079  -0.7274  -1.1149   0.00    0.0
2019/01/19 02:25:30.000   47.480959264   19.056515941   171.4891   5   8   1.5615   1.0819   1.0698   0.8316  -0.7452  -1.1359   0.00    0.0
2019/01/19 02:26:00.000   47.480958588   19.056516958   171.3329   5   8   1.5661   1.0906   1.0789   0.8557  -0.7635  -1.1575   0.00    0.0
2019/01/19 02:26:30.000   47.480958011   19.056518136   171.3822   5   8   1.5709   1.0994   1.0883   0.8803  -0.7823  -1.1795   0.00    0.0
2019/01/19 02:27:00.000   47.480957361   19.056518391   171.4488   5   8   1.5758   1.1085   1.0978   0.9053  -0.8016  -1.2021   0.00    0.0
2019/01/19 02:27:30.000   47.480958548   19.056540824   176.3846   5   9   1.3867   1.0196   0.7807   0.5832  -0.4618  -0.6287   0.00    0.0
2019/01/19 02:28:00.000   47.480958869   19.056542089   176.8359   5   9   1.3884   1.0263   0.7861   0.5996  -0.4721  -0.6396   0.00    0.0
2019/01/19 02:28:30.000   47.480959590   19.056542605   177.1120   5   9   1.3903   1.0332   0.7916   0.6162  -0.4826  -0.6507   0.00    0.0
2019/01/19 02:29:00.000   47.480959422   19.056542887   177.1262   5   9   1.3923   1.0401   0.7973   0.6330  -0.4934  -0.6620   0.00    0.0
2019/01/19 02:29:30.000   47.480958364   19.056540729   176.7641   5   9   1.3944   1.0472   0.8030   0.6501  -0.5045  -0.6735   0.00    0.0
2019/01/19 02:30:00.000   47.480957814   19.056539593   176.3664   5   9   1.3966   1.0544   0.8088   0.6673  -0.5158  -0.6853   0.00    0.0
2019/01/19 02:30:30.000   47.480957576   19.056540238   176.1756   5   9   1.3989   1.0616   0.8147   0.6848  -0.5273  -0.6973   0.00    0.0
2019/01/19 02:31:00.000   47.480958140   19.056541883   176.4835   5   9   1.4014   1.0690   0.8207   0.7025  -0.5391  -0.7096   0.00    0.0
2019/01/19 02:31:30.000   47.480959610   19.056544217   177.1390   5   9   1.4039   1.0764   0.8268   0.7204  -0.5512  -0.7220   0.00    0.0
2019/01/19 02:32:00.000   47.480960124   19.056544216   177.6181   5   9   1.4066   1.0840   0.8330   0.7386  -0.5635  -0.7348   0.00    0.0
2019/01/19 02:32:30.000   47.480959747   19.056541771   177.4164   5   9   1.4094   1.0916   0.8393   0.7570  -0.5761  -0.7477   0.00    0.0
2019/01/19 02:33:00.000   47.480958512   19.056540375   177.0468   5   9   1.4123   1.0994   0.8457   0.7756  -0.5889  -0.7609   0.00    0.0
2019/01/19 02:33:30.000   47.480957615   19.056540863   176.8864   5   9   1.4153   1.1072   0.8522   0.7944  -0.6020  -0.7744   0.00    0.0
2019/01/19 02:34:00.000   47.480957021   19.056542059   176.8695   5   9   1.4184   1.1151   0.8588   0.8134  -0.6154  -0.7880   0.00    0.0
2019/01/19 02:34:30.000   47.480957766   19.056542466   176.9830   5   9   1.4217   1.1231   0.8655   0.8327  -0.6291  -0.8020   0.00    0.0
2019/01/19 02:35:00.000   47.480958128   19.056541650   176.9252   5   9   1.4250   1.1312   0.8722   0.8522  -0.6430  -0.8162   0.00    0.0
2019/01/19 02:35:30.000   47.480958025   19.056539713   176.7696   5   9   1.4284   1.1394   0.8791   0.8719  -0.6572  -0.8306   0.00    0.0
2019/01/19 02:36:00.000   47.480957941   19.056538680   176.8862   5   9   1.4320   1.1476   0.8861   0.8919  -0.6717  -0.8453   0.00    0.0
2019/01/19 02:36:30.000   47.480957820   19.056538276   177.0378   5   9   1.4356   1.1559   0.8931   0.9120  -0.6865  -0.8602   0.00    0.0
2019/01/19 02:37:00.000   47.480957891   19.056538084   176.9175   5   9   1.4393   1.1643   0.9003   0.9323  -0.7015  -0.8754   0.00    0.0
2019/01/19 02:37:30.000   47.480957547   19.056538720   177.0482   5   9   1.4431   1.1728   0.9076   0.9529  -0.7168  -0.8908   0.00    0.0
2019/01/19 02:38:00.000   47.480955231   19.056539113   176.9172   5   9   1.4470   1.1813   0.9149   0.9736  -0.7324  -0.9064   0.00    0.0
2019/01/19 02:38:30.000   47.480952916   19.056540053   176.5783   5   9   1.4510   1.1898   0.9223   0.9945  -0.7482  -0.9223   0.00    0.0
2019/01/19 02:39:00.000   47.480948680   19.056537820   175.7066   5  10   1.3630   0.9165   0.7306   0.6222  -0.3201  -0.6454   0.00    0.0
2019/01/19 02:39:30.000   47.480948885   19.056538632   175.7907   5  10   1.3640   0.9217   0.7346   0.6329  -0.3267  -0.6530   0.00    0.0
2019/01/19 02:40:00.000   47.480949726   19.056537545   175.8492   5  10   1.3651   0.9269   0.7387   0.6435  -0.3334  -0.6606   0.00    0.0
2019/01/19 02:40:30.000   47.480950608   19.056535945   175.9445   5  10   1.3662   0.9321   0.7428   0.6542  -0.3402  -0.6683   0.00    0.0
2019/01/19 02:41:00.000   47.480951588   19.056534283   176.0005   5  10   1.3674   0.9373   0.7470   0.6648  -0.3470  -0.6761   0.00    0.0
2019/01/19 02:41:30.000   47.480951522   19.056534330   176.1259   5  10   1.3685   0.9425   0.7512   0.6755  -0.3540  -0.6839   0.00    0.0
2019/01/19 02:42:00.000   47.480950705   19.056534578   176.2610   5  10   1.3697   0.9478   0.7554   0.6862  -0.3610  -0.6918   0.00    0.0
2019/01/19 02:42:30.000   47.480947669   19.056534377   176.5249   5   9   1.9455   0.9531   0.7663   0.6992  -0.3682  -0.8381   0.00    0.0
2019/01/19 02:43:00.000   47.480949046   19.056535899   175.9897   5   9   1.9501   0.9584   0.7714   0.7221  -0.3763  -0.8552   0.00    0.0
2019/01/19 02:43:30.000   47.480951922   19.056537508   175.3363   5   9   1.9548   0.9638   0.7766   0.7452  -0.3846  -0.8727   0.00    0.0
2019/01/19 02:44:00.000   47.480953509   19.056537816   175.1375   5   9   1.9596   0.9693   0.7819   0.7685  -0.3931  -0.8904   0.00    0.0
2019/01/19 02:44:30.000   47.480952105   19.056536123   175.2850   5   9   1.9646   0.9749   0.7873   0.7920  -0.4017  -0.9085   0.00    0.0
2019/01/19 02:45:00.000   47.480949894   19.056532406   175.1525   5   9   1.9698   0.9805   0.7928   0.8158  -0.4106  -0.9268   0.00    0.0
2019/01/19 02:45:30.000   47.480947923   19.056530215   175.0814   5   9   1.9751   0.9863   0.7984   0.8398  -0.4197  -0.9454   0.00    0.0
2019/01/19 02:46:00.000   47.480947575   19.056530104   175.0829   5   9   1.9805   0.9920   0.8040   0.8639  -0.4289  -0.9643   0.00    0.0
2019/01/19 02:46:30.000   47.480948611   19.056531413   175.3310   5   9   1.9861   0.9979   0.8098   0.8883  -0.4384  -0.9836   0.00    0.0
2019/01/19 02:47:00.000   47.480949869   19.056531240   175.3067   5   9   1.9918   1.0038   0.8156   0.9128  -0.4480  -1.0031   0.00    0.0
2019/01/19 02:47:30.000   47.480950043   19.056531479   175.4372   5   9   1.9977   1.0098   0.8216   0.9376  -0.4578  -1.0230   0.00    0.0
2019/01/19 02:48:00.000   47.480949155   19.056532299   175.2798   5   9   2.0036   1.0159   0.8276   0.9625  -0.4679  -1.0431   0.00    0.0
2019/01/19 02:48:30.000   47.480949657   19.056534015   175.2587   5   9   2.0097   1.0220   0.8337   0.9876  -0.4781  -1.0636   0.00    0.0
2019/01/19 02:49:00.000   47.480951153   19.056536380   175.2655   5   9   2.0159   1.0282   0.8399   1.0129  -0.4885  -1.0843   0.00    0.0
2019/01/19 02:49:30.000   47.480953574   19.056537607   174.9818   5   9   2.0221   1.0344   0.8462   1.0383  -0.4991  -1.1054   0.00    0.0
2019/01/19 02:50:00.000   47.480956008   19.056537938   174.7565   5   9   2.0285   1.0406   0.8526   1.0639  -0.5099  -1.1267   0.00    0.0
2019/01/19 02:50:30.000   47.480957163   19.056536787   174.6760   5   9   2.0350   1.0469   0.8590   1.0896  -0.5209  -1.1483   0.00    0.0
2019/01/19 02:51:00.000   47.480957922   19.056533667   174.5125   5   9   2.0416   1.0533   0.8656   1.1155  -0.5320  -1.1702   0.00    0.0
2019/01/19 02:51:30.000   47.480958044   19.056531875   174.9092   5   9   2.0482   1.0596   0.8722   1.1414  -0.5434  -1.1924   0.00    0.0
2019/01/19 02:52:00.000   47.480956603   19.056531054   175.5268   5   9   2.0549   1.0660   0.8789   1.1675  -0.5549  -1.2149   0.00    0.0
2019/01/19 02:52:30.000   47.480955953   19.056531326   175.5511   5   9   2.0616   1.0724   0.8857   1.1936  -0.5665  -1.2376   0.00    0.0
2019/01/19 02:53:00.000   47.480955202   19.056531265   175.5889   5   9   2.0684   1.0788   0.8925   1.2198  -0.5784  -1.2605   0.00    0.0
2019/01/19 02:53:30.000   47.480954788   19.056529327   175.2025   5   9   2.0753   1.0852   0.8994   1.2460  -0.5903  -1.2837   0.00    0.0
2019/01/19 02:54:00.000   47.480954039   19.056527396   175.0939   5   9   2.0822   1.0916   0.9064   1.2722  -0.6025  -1.3072   0.00    0.0
2019/01/19 02:54:30.000   47.480953925   19.056526411   175.2479   5   9   2.0891   1.0981   0.9135   1.2984  -0.6147  -1.3308   0.00    0.0
2019/01/19 02:55:00.000   47.480953345   19.056526532   175.8555   5   9   2.0960   1.1045   0.9206   1.3246  -0.6271  -1.3546   0.00    0.0
2019/01/19 02:55:30.000   47.480954101   19.056526591   176.2471   5   9   2.1029   1.1108   0.9277   1.3507  -0.6396  -1.3786   0.00    0.0
2019/01/19 02:56:00.000   47.480954205   19.056525971   176.5282   5   9   2.1098   1.1172   0.9350   1.3767  -0.6522  -1.4028   0.00    0.0
2019/01/19 02:56:30.000   47.480953420   19.056525499   176.7039   5   9   2.1166   1.1235   0.9422   1.4026  -0.6648  -1.4271   0.00    0.0
2019/01/19 02:57:00.000   47.480953325   19.056525861   176.6970   5   9   2.1235   1.1297   0.9496   1.4284  -0.6776  -1.4516   0.00    0.0
2019/01/19 02:57:30.000   47.480953318   19.056526450   176.6380   5   9   2.1303   1.1359   0.9569   1.4540  -0.6904  -1.4761   0.00    0.0
2019/01/19 02:58:00.000   47.480952962   19.056528034   176.5230   5   9   2.1370   1.1421   0.9643   1.4793  -0.7033  -1.5008   0.00    0.0
2019/01/19 02:58:30.000   47.480953026   19.056529817   176.4895   5   9   2.1436   1.1481   0.9717   1.5044  -0.7162  -1.5254   0.00    0.0
2019/01/19 02:59:00.000   47.480953878   19.056529642   176.3102   5   9   2.1502   1.1541   0.9792   1.5292  -0.7291  -1.5501   0.00    0.0
2019/01/19 02:59:30.000   47.480954960   19.056530310   176.5310   5   9   2.1566   1.1600   0.9866   1.5537  -0.7420  -1.5749   0.00    0.0
2019/01/19 03:00:00.000   47.480955753   19.056532213   176.5897   5   9   2.1630   1.1658   0.9941   1.5778  -0.7549  -1.5995   0.00    0.0
2019/01/19 03:00:30.000   47.480956087   19.056533390   176.2827   5   9   2.1692   1.1714   1.0016   1.6015  -0.7678  -1.6241   0.00    0.0
2019/01/19 03:01:00.000   47.480955852   19.056532815   176.5231   5   9   2.1752   1.1770   1.0090   1.6247  -0.7806  -1.6487   0.00    0.0
2019/01/19 03:01:30.000   47.480956109   19.056530013   176.7453   5   9   2.1811   1.1824   1.0165   1.6475  -0.7933  -1.6730   0.00    0.0
2019/01/19 03:02:00.000   47.480957175   19.056526655   176.7492   5   9   2.1868   1.1877   1.0239   1.6697  -0.8059  -1.6973   0.00    0.0
2019/01/19 03:02:30.000   47.480957723   19.056525073   176.6803   5   9   2.1923   1.1929   1.0313   1.6913  -0.8184  -1.7213   0.00    0.0
2019/01/19 03:03:00.000   47.480957355   19.056525275   176.6707   5   9   2.1976   1.1978   1.0387   1.7123  -0.8307  -1.7451   0.00    0.0
2019/01/19 03:03:30.000   47.480955561   19.056525486   176.7864   5   9   2.2027   1.2026   1.0461   1.7326  -0.8429  -1.7686   0.00    0.0
2019/01/19 03:04:00.000   47.480955186   19.056524928   176.9484   5   9   2.2076   1.2073   1.0534   1.7522  -0.8548  -1.7919   0.00    0.0
2019/01/19 03:04:30.000   47.480954397   19.056524975   177.4947   5   9   2.2121   1.2117   1.0606   1.7711  -0.8666  -1.8148   0.00    0.0
2019/01/19 03:05:00.000   47.480953964   19.056524893   177.6393   5   9   2.2165   1.2160   1.0678   1.7891  -0.8781  -1.8373   0.00    0.0
2019/01/19 03:05:30.000   47.480953736   19.056524133   177.8443   5   9   2.2205   1.2200   1.0750   1.8063  -0.8893  -1.8593   0.00    0.0
2019/01/19 03:06:00.000   47.480954396   19.056522635   178.5026   5   9   2.2243   1.2238   1.0820   1.8226  -0.9002  -1.8810   0.00    0.0
2019/01/19 03:06:30.000   47.480955324   19.056521786   179.6682   5   9   2.2277   1.2274   1.0890   1.8380  -0.9108  -1.9021   0.00    0.0
2019/01/19 03:07:00.000   47.480955824   19.056521438   179.7811   5   9   2.2308   1.2307   1.0958   1.8524  -0.9211  -1.9227   0.00    0.0
2019/01/19 03:07:30.000   47.480955831   19.056523418   180.0620   5   9   2.2336   1.2338   1.1026   1.8658  -0.9310  -1.9427   0.00    0.0
2019/01/19 03:08:00.000   47.480956275   19.056524763   179.8828   5   9   2.2361   1.2367   1.1093   1.8782  -0.9405  -1.9621   0.00    0.0
2019/01/19 03:08:30.000   47.480957235   19.056525406   179.4477   5   9   2.2381   1.2393   1.1158   1.8894  -0.9496  -1.9809   0.00    0.0
2019/01/19 03:09:00.000   47.480958136   19.056525539   179.5662   5   9   2.2399   1.2416   1.1222   1.8996  -0.9582  -1.9990   0.00    0.0
2019/01/19 03:09:30.000   47.480958417   19.056522615   179.1497   5   9   2.2412   1.2437   1.1285   1.9086  -0.9664  -2.0164   0.00    0.0
2019/01/19 03:10:00.000   47.480958198   19.056521176   179.0872   5   9   2.2422   1.2455   1.1347   1.9165  -0.9741  -2.0330   0.00    0.0
2019/01/19 03:10:30.000   47.480957858   19.056522334   179.3779   5   9   2.2428   1.2470   1.1407   1.9232  -0.9813  -2.0489   0.00    0.0
2019/01/19 03:11:00.000   47.480958553   19.056522534   179.4733   5   9   2.2430   1.2483   1.1466   1.9287  -0.9880  -2.0640   0.00    0.0
2019/01/19 03:11:30.000   47.480959517   19.056521345   179.0151   5   9   2.2427   1.2492   1.1524   1.9330  -0.9941  -2.0783   0.00    0.0
2019/01/19 03:12:00.000   47.480958585   19.056520582   178.4729   5   9   2.2421   1.2499   1.1580   1.9361  -0.9997  -2.0917   0.00    0.0
2019/01/19 03:12:30.000   47.480956273   19.056520042   178.1232   5   9   2.2411   1.2502   1.1634   1.9380  -1.0048  -2.1043   0.00    0.0
2019/01/19 03:13:00.000   47.480954502   19.056519525   177.9349   5   9   2.2397   1.2503   1.1686   1.9386  -1.0093  -2.1160   0.00    0.0
2019/01/19 03:13:30.000   47.480954228   19.056521100   178.5058   5   9   2.2378   1.2501   1.1738   1.9379  -1.0132  -2.1269   0.00    0.0
2019/01/19 03:14:00.000   47.480954940   19.056523237   178.9390   5   9   2.2356   1.2495   1.1787   1.9361  -1.0165  -2.1368   0.00    0.0
2019/01/19 03:14:30.000   47.480956662   19.056524412   179.1136   5   9   2.2330   1.2487   1.1835   1.9330  -1.0192  -2.1458   0.00    0.0
2019/01/19 03:15:00.000   47.480957691   19.056525770   179.6541   5   9   2.2299   1.2476   1.1880   1.9287  -1.0213  -2.1540   0.00    0.0
2019/01/19 03:15:30.000   47.480957741   19.056525820   179.8650   5   9   2.2265   1.2462   1.1925   1.9232  -1.0228  -2.1612   0.00    0.0
2019/01/19 03:16:00.000   47.480957652   19.056525125   179.5164   5   9   2.2226   1.2446   1.1967   1.9165  -1.0237  -2.1675   0.00    0.0
2019/01/19 03:16:30.000   47.480957820   19.056525410   178.8239   5   9   2.2184   1.2426   1.2008   1.9087  -1.0240  -2.1729   0.00    0.0
2019/01/19 03:17:00.000   47.480958898   19.056524374   178.0574   5   9   2.2138   1.2404   1.2047   1.8997  -1.0237  -2.1774   0.00    0.0
2019/01/19 03:17:30.000   47.480959620   19.056523567   177.3973   5   9   2.2088   1.2379   1.2084   1.8896  -1.0228  -2.1811   0.00    0.0
2019/01/19 03:18:00.000   47.480957840   19.056523215   177.1051   5   9   2.2035   1.2351   1.2120   1.8785  -1.0214  -2.1838   0.00    0.0
2019/01/19 03:18:30.000   47.480956248   19.056523383   177.3062   5   9   2.1978   1.2321   1.2154   1.8663  -1.0193  -2.1857   0.00    0.0
2019/01/19 03:19:00.000   47.480955589   19.056523275   177.5676   5   9   2.1917   1.2288   1.2186   1.8531  -1.0167  -2.1868   0.00    0.0
2019/01/19 03:19:30.000   47.480956345   19.056524788   178.4295   5   9   2.1854   1.2253   1.2217   1.8389  -1.0135  -2.1871   0.00    0.0
2019/01/19 03:20:00.000   47.480957236   19.056525256   179.0306   5   9   2.1787   1.2215   1.2246   1.8238  -1.0098  -2.1865   0.00    0.0
2019/01/19 03:20:30.000   47.480957620   19.056524880   179.6181   5   9   2.1717   1.2175   1.2274   1.8079  -1.0055  -2.1852   0.00    0.0
2019/01/19 03:21:00.000   47.480956300   19.056523621   179.7425   5   9   2.1644   1.2133   1.2300   1.7911  -1.0007  -2.1831   0.00    0.0
2019/01/19 03:21:30.000   47.480955471   19.056523930   180.2495   5   9   2.1568   1.2089   1.2324   1.7734  -0.9955  -2.1803   0.00    0.0
2019/01/19 03:22:00.000   47.480954909   19.056525049   180.8393   5   9   2.1490   1.2042   1.2347   1.7551  -0.9897  -2.1769   0.00    0.0
2019/01/19 03:22:30.000   47.480955799   19.056527490   181.3896   5   9   2.1409   1.1994   1.2369   1.7360  -0.9835  -2.1727   0.00    0.0
2019/01/19 03:23:00.000   47.480956867   19.056529243   181.2883   5   9   2.1325   1.1944   1.2390   1.7162  -0.9768  -2.1680   0.00    0.0
2019/01/19 03:23:30.000   47.480957622   19.056528623   180.8453   5   9   2.1240   1.1892   1.2409   1.6958  -0.9696  -2.1626   0.00    0.0
2019/01/19 03:24:00.000   47.480958395   19.056527896   180.7872   5   9   2.1152   1.1838   1.2427   1.6749  -0.9621  -2.1567   0.00    0.0
2019/01/19 03:24:30.000   47.480958393   19.056526441   180.8775   5   9   2.1063   1.1783   1.2444   1.6534  -0.9542  -2.1502   0.00    0.0
2019/01/19 03:25:00.000   47.480958554   19.056526964   181.2359   5   9   2.0971   1.1727   1.2460   1.6315  -0.9459  -2.1433   0.00    0.0
2019/01/19 03:25:30.000   47.480958778   19.056526919   181.4437   5   9   2.0878   1.1669   1.2475   1.6091  -0.9372  -2.1359   0.00    0.0
2019/01/19 03:26:00.000   47.480960491   19.056527516   181.4533   5   9   2.0783   1.1610   1.2489   1.5863  -0.9283  -2.1280   0.00    0.0
2019/01/19 03:26:30.000   47.480961377   19.056527195   181.1794   5   9   2.0687   1.1550   1.2502   1.5632  -0.9190  -2.1198   0.00    0.0
2019/01/19 03:27:00.000   47.480959891   19.056527354   181.2063   5   9   2.0590   1.1488   1.2514   1.5398  -0.9094  -2.1112   0.00    0.0
2019/01/19 03:27:30.000   47.480958221   19.056527017   181.6265   5   9   2.0492   1.1426   1.2526   1.5161  -0.8995  -2.1022   0.00    0.0
2019/01/19 03:28:00.000   47.480957426   19.056529025   182.1609   5   9   2.0392   1.1363   1.2536   1.4921  -0.8894  -2.0930   0.00    0.0
2019/01/19 03:28:30.000   47.480957524   19.056533018   182.8139   5   9   2.0292   1.1299   1.2547   1.4680  -0.8790  -2.0834   0.00    0.0
2019/01/19 03:29:00.000   47.480957542   19.056534082   183.2025   5   9   2.0191   1.1234   1.2556   1.4437  -0.8684  -2.0737   0.00    0.0
2019/01/19 03:29:30.000   47.480956852   19.056533223   183.5373   5   9   2.0090   1.1169   1.2565   1.4193  -0.8576  -2.0637   0.00    0.0
