% program   : GINA 1.0 gpstk's raw solution
% inp file  : C:\Users\lus2bp\Source\Repos\GINA\70_EGNOS_Project\files\PositionComparisonInputFiles\bute0190\bute0190.19o
% inp file  : C:\Users\lus2bp\Source\Repos\GINA\70_EGNOS_Project\files\PositionComparisonInputFiles\bute0190\brdc0190.19n
% obs start : 2019/01/19 00:00:00.0 GPST (week2036 518400.0s)
% obs end   : 2019/01/19 23:59:30.0 GPST (week2036 604770.0s)
% pos mode  : single
% elev mask : 10.0 deg
% ionos opt : EGNOS brdc iono modell
% tropo opt : Saas
% ephemeris : broadcasted
% (lat/lon/height=WGS84/ellipsoidal,Q=1:fix,2:float,3:sbas,4:dgps,5:single,6:ppp,ns=# of satellites)
%  GPST                  latitude(deg) longitude(deg)  height(m)   Q  ns   sdn(m)   sde(m)   sdu(m)  sdne(m)  sdeu(m)  sdun(m) age(s)  ratio
2019/01/19 00:00:00.000   47.480973458   19.056564661   182.0312   5  10   0.7050   0.5181   0.2734   0.2685   0.2685   0.4970   0.00    0.0
2019/01/19 00:00:30.000   47.480969647   19.056568961   184.5892   5   8   0.9666   0.9199   0.4588   0.8464   0.8464   0.9343   0.00    0.0
2019/01/19 00:01:00.000   47.480971326   19.056569787   184.8355   5   8   0.9693   0.9279   0.4625   0.8611   0.8611   0.9395   0.00    0.0
2019/01/19 00:01:30.000   47.480971457   19.056571750   184.8393   5   8   0.9720   0.9358   0.4662   0.8759   0.8759   0.9448   0.00    0.0
2019/01/19 00:02:00.000   47.480971904   19.056570836   184.9518   5   8   0.9748   0.9436   0.4700   0.8906   0.8906   0.9502   0.00    0.0
2019/01/19 00:02:30.000   47.480972742   19.056569756   185.6663   5   8   0.9776   0.9514   0.4737   0.9054   0.9054   0.9557   0.00    0.0
2019/01/19 00:03:00.000   47.480971827   19.056577680   185.5257   5   8   0.9804   0.9592   0.4774   0.9202   0.9202   0.9612   0.00    0.0
2019/01/19 00:03:30.000   47.480972364   19.056573386   185.2405   5   8   0.9833   0.9668   0.4811   0.9349   0.9349   0.9669   0.00    0.0
2019/01/19 00:04:00.000   47.480972130   19.056570610   185.0905   5   8   0.9862   0.9744   0.4847   0.9496   0.9496   0.9726   0.00    0.0
2019/01/19 00:04:30.000   47.480972371   19.056566131   184.1109   5   8   0.9891   0.9819   0.4884   0.9643   0.9643   0.9783   0.00    0.0
2019/01/19 00:05:00.000   47.480970700   19.056565306   184.0980   5   8   0.9920   0.9893   0.4920   0.9788   0.9788   0.9841   0.00    0.0
2019/01/19 00:05:30.000   47.480968616   19.056568032   184.2661   5   8   0.9950   0.9966   0.4956   0.9933   0.9933   0.9900   0.00    0.0
2019/01/19 00:06:00.000   47.480967634   19.056571150   184.5064   5   8   0.9980   1.0038   0.4992   1.0077   1.0077   0.9959   0.00    0.0
2019/01/19 00:06:30.000   47.480967249   19.056572228   184.5119   5   8   1.0009   1.0108   0.5028   1.0219   1.0219   1.0019   0.00    0.0
2019/01/19 00:07:00.000   47.480967856   19.056572584   184.3120   5   8   1.0039   1.0178   0.5064   1.0360   1.0360   1.0078   0.00    0.0
2019/01/19 00:07:30.000   47.480969107   19.056570093   184.3034   5   8   1.0069   1.0246   0.5099   1.0500   1.0500   1.0138   0.00    0.0
2019/01/19 00:08:00.000   47.480969650   19.056567749   184.3131   5   8   1.0099   1.0313   0.5134   1.0637   1.0637   1.0198   0.00    0.0
2019/01/19 00:08:30.000   47.480969073   19.056568265   184.4095   5   8   1.0128   1.0379   0.5169   1.0773   1.0773   1.0258   0.00    0.0
2019/01/19 00:09:00.000   47.480968452   19.056568193   184.4767   5   8   1.0158   1.0443   0.5203   1.0907   1.0907   1.0319   0.00    0.0
2019/01/19 00:09:30.000   47.480967887   19.056568658   184.7644   5   8   1.0187   1.0505   0.5237   1.1038   1.1038   1.0378   0.00    0.0
2019/01/19 00:10:00.000   47.480967368   19.056569916   185.0776   5   8   1.0217   1.0566   0.5271   1.1167   1.1167   1.0438   0.00    0.0
2019/01/19 00:10:30.000   47.480968392   19.056569430   185.2706   5   8   1.0246   1.0626   0.5305   1.1293   1.1293   1.0497   0.00    0.0
2019/01/19 00:11:00.000   47.480969385   19.056567679   184.9373   5   8   1.0275   1.0683   0.5338   1.1416   1.1416   1.0557   0.00    0.0
2019/01/19 00:11:30.000   47.480969510   19.056568084   184.4794   5   8   1.0303   1.0740   0.5370   1.1536   1.1536   1.0615   0.00    0.0
2019/01/19 00:12:00.000   47.480969549   19.056569933   184.3853   5   8   1.0331   1.0794   0.5403   1.1653   1.1653   1.0673   0.00    0.0
2019/01/19 00:12:30.000   47.480969316   19.056570465   184.1615   5   8   1.0359   1.0846   0.5435   1.1766   1.1766   1.0731   0.00    0.0
2019/01/19 00:13:00.000   47.480969256   19.056571837   183.9204   5   8   1.0386   1.0897   0.5466   1.1876   1.1876   1.0787   0.00    0.0
2019/01/19 00:13:30.000   47.480968366   19.056575651   184.0869   5   8   1.0413   1.0945   0.5497   1.1982   1.1982   1.0843   0.00    0.0
2019/01/19 00:14:00.000   47.480968544   19.056576990   184.2361   5   8   1.0440   1.0992   0.5528   1.2084   1.2084   1.0899   0.00    0.0
2019/01/19 00:14:30.000   47.480969493   19.056577290   184.2895   5   8   1.0466   1.1036   0.5558   1.2183   1.2183   1.0953   0.00    0.0
2019/01/19 00:15:00.000   47.480969863   19.056576961   184.1591   5   8   1.0491   1.1079   0.5588   1.2277   1.2277   1.1006   0.00    0.0
2019/01/19 00:15:30.000   47.480969294   19.056575012   183.8620   5   8   1.0515   1.1120   0.5617   1.2367   1.2367   1.1057   0.00    0.0
2019/01/19 00:16:00.000   47.480969507   19.056573242   183.7058   5   8   1.0539   1.1158   0.5645   1.2452   1.2452   1.1108   0.00    0.0
2019/01/19 00:16:30.000   47.480969734   19.056571571   182.9879   5   8   1.0563   1.1194   0.5674   1.2533   1.2533   1.1157   0.00    0.0
2019/01/19 00:17:00.000   47.480968151   19.056573245   182.5165   5   8   1.0586   1.1228   0.5702   1.2609   1.2609   1.1205   0.00    0.0
2019/01/19 00:17:30.000   47.480966998   19.056572854   182.4543   5   8   1.0608   1.1260   0.5729   1.2680   1.2680   1.1252   0.00    0.0
2019/01/19 00:18:00.000   47.480966641   19.056572876   182.4754   5   8   1.0629   1.1289   0.5756   1.2747   1.2747   1.1298   0.00    0.0
2019/01/19 00:18:30.000   47.480966402   19.056573932   182.5453   5   8   1.0650   1.1317   0.5782   1.2808   1.2808   1.1341   0.00    0.0
2019/01/19 00:19:00.000   47.480965099   19.056573963   182.6649   5   8   1.0669   1.1342   0.5808   1.2865   1.2865   1.1384   0.00    0.0
2019/01/19 00:19:30.000   47.480964309   19.056572177   182.6245   5   8   1.0688   1.1365   0.5833   1.2917   1.2917   1.1424   0.00    0.0
2019/01/19 00:20:00.000   47.480964024   19.056571439   182.5239   5   8   1.0707   1.1385   0.5858   1.2963   1.2963   1.1463   0.00    0.0
2019/01/19 00:20:30.000   47.480964267   19.056570727   182.3934   5   8   1.0724   1.1403   0.5883   1.3005   1.3005   1.1500   0.00    0.0
2019/01/19 00:21:00.000   47.480963795   19.056570923   182.4085   5   8   1.0740   1.1419   0.5906   1.3041   1.3041   1.1536   0.00    0.0
2019/01/19 00:21:30.000   47.480962041   19.056572952   182.7692   5   8   1.0756   1.1433   0.5930   1.3073   1.3073   1.1569   0.00    0.0
2019/01/19 00:22:00.000   47.480960889   19.056574079   183.0493   5   8   1.0771   1.1444   0.5953   1.3099   1.3099   1.1601   0.00    0.0
2019/01/19 00:22:30.000   47.480960415   19.056575758   183.0922   5   8   1.0785   1.1453   0.5975   1.3120   1.3120   1.1631   0.00    0.0
2019/01/19 00:23:00.000   47.480961339   19.056573988   182.8568   5   8   1.0798   1.1461   0.5997   1.3136   1.3136   1.1659   0.00    0.0
2019/01/19 00:23:30.000   47.480961952   19.056571775   182.5281   5   8   1.0810   1.1465   0.6018   1.3147   1.3147   1.1685   0.00    0.0
2019/01/19 00:24:00.000   47.480962123   19.056571095   182.4452   5   8   1.0821   1.1468   0.6039   1.3153   1.3153   1.1710   0.00    0.0
2019/01/19 00:24:30.000   47.480961527   19.056571469   182.3616   5   8   1.0832   1.1469   0.6060   1.3154   1.3154   1.1732   0.00    0.0
2019/01/19 00:25:00.000   47.480960271   19.056574108   182.5617   5   8   1.0841   1.1467   0.6080   1.3151   1.3151   1.1753   0.00    0.0
2019/01/19 00:25:30.000   47.480959476   19.056576238   182.8797   5   8   1.0850   1.1463   0.6100   1.3142   1.3142   1.1772   0.00    0.0
2019/01/19 00:26:00.000   47.480958531   19.056576144   182.8898   5   8   1.0858   1.1457   0.6119   1.3129   1.3129   1.1789   0.00    0.0
2019/01/19 00:26:30.000   47.480958296   19.056573397   182.5292   5   8   1.0864   1.1450   0.6138   1.3112   1.3112   1.1804   0.00    0.0
2019/01/19 00:27:00.000   47.480957848   19.056570446   182.3646   5   8   1.0870   1.1440   0.6156   1.3090   1.3090   1.1817   0.00    0.0
2019/01/19 00:27:30.000   47.480957719   19.056569635   182.4595   5   8   1.0876   1.1429   0.6174   1.3063   1.3063   1.1828   0.00    0.0
2019/01/19 00:28:00.000   47.480958747   19.056567737   182.4107   5   8   1.0880   1.1415   0.6192   1.3033   1.3033   1.1838   0.00    0.0
2019/01/19 00:28:30.000   47.480959260   19.056566448   182.4120   5   8   1.0884   1.1400   0.6209   1.2998   1.2998   1.1845   0.00    0.0
2019/01/19 00:29:00.000   47.480960140   19.056564526   182.1976   5   8   1.0886   1.1383   0.6226   1.2959   1.2959   1.1851   0.00    0.0
2019/01/19 00:29:30.000   47.480961384   19.056565233   182.0592   5   8   1.0888   1.1364   0.6243   1.2917   1.2917   1.1856   0.00    0.0
2019/01/19 00:30:00.000   47.480962222   19.056566271   181.9159   5   8   1.0890   1.1344   0.6259   1.2870   1.2870   1.1859   0.00    0.0
2019/01/19 00:30:30.000   47.480961198   19.056568459   181.8816   5   8   1.0890   1.1322   0.6275   1.2820   1.2820   1.1860   0.00    0.0
2019/01/19 00:31:00.000   47.480959191   19.056571007   182.0702   5   8   1.0890   1.1298   0.6291   1.2767   1.2767   1.1859   0.00    0.0
2019/01/19 00:31:30.000   47.480959873   19.056566807   181.9047   5   8   1.0889   1.1274   0.6307   1.2711   1.2711   1.1857   0.00    0.0
2019/01/19 00:32:00.000   47.480958000   19.056566478   181.7746   5   8   1.0887   1.1247   0.6322   1.2651   1.2651   1.1853   0.00    0.0
2019/01/19 00:32:30.000   47.480954933   19.056568343   181.5364   5   8   1.0885   1.1219   0.6337   1.2588   1.2588   1.1848   0.00    0.0
2019/01/19 00:33:00.000   47.480952574   19.056570276   181.4488   5   8   1.0882   1.1190   0.6351   1.2523   1.2523   1.1842   0.00    0.0
2019/01/19 00:33:30.000   47.480951777   19.056572072   181.6132   5   8   1.0878   1.1159   0.6366   1.2454   1.2454   1.1834   0.00    0.0
2019/01/19 00:34:00.000   47.480951995   19.056573007   181.7531   5   8   1.0874   1.1128   0.6380   1.2384   1.2384   1.1825   0.00    0.0
2019/01/19 00:34:30.000   47.480953444   19.056570663   181.5876   5   8   1.0870   1.1095   0.6395   1.2310   1.2310   1.1815   0.00    0.0
2019/01/19 00:35:00.000   47.480953624   19.056569604   181.8423   5   8   1.0864   1.1061   0.6409   1.2235   1.2235   1.1803   0.00    0.0
2019/01/19 00:35:30.000   47.480953112   19.056568354   181.8498   5   8   1.0858   1.1025   0.6423   1.2157   1.2157   1.1790   0.00    0.0
2019/01/19 00:36:00.000   47.480952601   19.056566797   181.5921   5   8   1.0852   1.0989   0.6436   1.2078   1.2078   1.1777   0.00    0.0
2019/01/19 00:36:30.000   47.480952371   19.056565153   181.3695   5   8   1.0845   1.0952   0.6450   1.1996   1.1996   1.1762   0.00    0.0
2019/01/19 00:37:00.000   47.480951956   19.056564232   181.3038   5   8   1.0838   1.0914   0.6463   1.1913   1.1913   1.1746   0.00    0.0
2019/01/19 00:37:30.000   47.480951718   19.056563718   181.3301   5   8   1.0830   1.0875   0.6477   1.1828   1.1828   1.1729   0.00    0.0
2019/01/19 00:38:00.000   47.480951499   19.056566301   181.5391   5   8   1.0822   1.0836   0.6490   1.1742   1.1742   1.1712   0.00    0.0
2019/01/19 00:38:30.000   47.480952696   19.056567731   181.7248   5   8   1.0814   1.0795   0.6503   1.1654   1.1654   1.1693   0.00    0.0
2019/01/19 00:39:00.000   47.480952840   19.056567706   181.8137   5   8   1.0805   1.0754   0.6516   1.1566   1.1566   1.1674   0.00    0.0
2019/01/19 00:39:30.000   47.480951869   19.056566877   181.7154   5   8   1.0795   1.0712   0.6530   1.1476   1.1476   1.1654   0.00    0.0
2019/01/19 00:40:00.000   47.480952486   19.056564282   181.4887   5   8   1.0786   1.0670   0.6543   1.1385   1.1385   1.1633   0.00    0.0
2019/01/19 00:40:30.000   47.480952462   19.056564816   181.5582   5   8   1.0776   1.0626   0.6556   1.1293   1.1293   1.1612   0.00    0.0
2019/01/19 00:41:00.000   47.480952178   19.056568386   181.6146   5   8   1.0766   1.0583   0.6569   1.1201   1.1201   1.1590   0.00    0.0
2019/01/19 00:41:30.000   47.480952692   19.056568718   181.1779   5   8   1.0755   1.0539   0.6581   1.1107   1.1107   1.1567   0.00    0.0
2019/01/19 00:42:00.000   47.480950780   19.056570087   181.0503   5   8   1.0744   1.0494   0.6594   1.1014   1.1014   1.1544   0.00    0.0
2019/01/19 00:42:30.000   47.480949296   19.056570478   181.1563   5   8   1.0733   1.0449   0.6607   1.0919   1.0919   1.1520   0.00    0.0
2019/01/19 00:43:00.000   47.480949934   19.056569109   181.3128   5   8   1.0722   1.0403   0.6620   1.0824   1.0824   1.1497   0.00    0.0
2019/01/19 00:43:30.000   47.480953721   19.056569131   181.7701   5   8   1.0711   1.0358   0.6633   1.0729   1.0729   1.1472   0.00    0.0
2019/01/19 00:44:00.000   47.480956598   19.056566933   181.7237   5   8   1.0699   1.0312   0.6646   1.0634   1.0634   1.1447   0.00    0.0
2019/01/19 00:44:30.000   47.480957936   19.056564109   181.3846   5   8   1.0687   1.0265   0.6659   1.0539   1.0539   1.1422   0.00    0.0
2019/01/19 00:45:00.000   47.480956951   19.056565550   181.2332   5   8   1.0675   1.0219   0.6672   1.0443   1.0443   1.1396   0.00    0.0
2019/01/19 00:45:30.000   47.480956436   19.056567391   181.2256   5   8   1.0663   1.0172   0.6685   1.0348   1.0348   1.1370   0.00    0.0
2019/01/19 00:46:00.000   47.480957029   19.056567864   181.3970   5   8   1.0651   1.0125   0.6698   1.0252   1.0252   1.1344   0.00    0.0
2019/01/19 00:46:30.000   47.480956769   19.056568509   181.4775   5   8   1.0638   1.0078   0.6711   1.0157   1.0157   1.1318   0.00    0.0
2019/01/19 00:47:00.000   47.480956450   19.056555872   179.2328   5   9   0.9394   0.7897   0.4056   0.6237   0.6237   0.8825   0.00    0.0
2019/01/19 00:47:30.000   47.480955891   19.056555508   179.3395   5   9   0.9396   0.7891   0.4085   0.6226   0.6226   0.8829   0.00    0.0
2019/01/19 00:48:00.000   47.480955875   19.056554548   179.3361   5   9   0.9398   0.7883   0.4114   0.6215   0.6215   0.8833   0.00    0.0
2019/01/19 00:48:30.000   47.480957083   19.056552518   179.3969   5   9   0.9400   0.7875   0.4143   0.6202   0.6202   0.8836   0.00    0.0
2019/01/19 00:49:00.000   47.480957859   19.056552898   179.3556   5   9   0.9401   0.7867   0.4172   0.6189   0.6189   0.8839   0.00    0.0
2019/01/19 00:49:30.000   47.480958195   19.056554676   179.4914   5   9   0.9403   0.7858   0.4201   0.6175   0.6175   0.8841   0.00    0.0
2019/01/19 00:50:00.000   47.480956969   19.056555703   179.4946   5   9   0.9404   0.7848   0.4230   0.6159   0.6159   0.8843   0.00    0.0
2019/01/19 00:50:30.000   47.480956209   19.056557199   179.6776   5   9   0.9405   0.7838   0.4258   0.6143   0.6143   0.8845   0.00    0.0
2019/01/19 00:51:00.000   47.480956516   19.056557494   179.6948   5   9   0.9405   0.7827   0.4287   0.6126   0.6126   0.8846   0.00    0.0
2019/01/19 00:51:30.000   47.480956310   19.056558407   179.8328   5   9   0.9406   0.7816   0.4316   0.6109   0.6109   0.8847   0.00    0.0
2019/01/19 00:52:00.000   47.480954511   19.056559591   179.7229   5   9   0.9406   0.7804   0.4344   0.6090   0.6090   0.8847   0.00    0.0
2019/01/19 00:52:30.000   47.480953429   19.056559047   179.6026   5   9   0.9406   0.7791   0.4373   0.6071   0.6071   0.8848   0.00    0.0
2019/01/19 00:53:00.000   47.480952765   19.056558147   179.4668   5   9   0.9406   0.7778   0.4401   0.6051   0.6051   0.8847   0.00    0.0
2019/01/19 00:53:30.000   47.480953806   19.056557417   179.2537   5   9   0.9406   0.7765   0.4429   0.6030   0.6030   0.8847   0.00    0.0
2019/01/19 00:54:00.000   47.480955028   19.056558026   179.1031   5   9   0.9405   0.7751   0.4457   0.6009   0.6009   0.8846   0.00    0.0
2019/01/19 00:54:30.000   47.480955561   19.056559283   179.0535   5   9   0.9404   0.7737   0.4485   0.5987   0.5987   0.8844   0.00    0.0
2019/01/19 00:55:00.000   47.480954698   19.056559216   179.0684   5   9   0.9403   0.7723   0.4513   0.5965   0.5965   0.8842   0.00    0.0
2019/01/19 00:55:30.000   47.480953927   19.056557719   178.8923   5   9   0.9402   0.7708   0.4540   0.5942   0.5942   0.8840   0.00    0.0
2019/01/19 00:56:00.000   47.480953504   19.056557630   178.9562   5   9   0.9401   0.7693   0.4568   0.5918   0.5918   0.8838   0.00    0.0
2019/01/19 00:56:30.000   47.480952169   19.056556809   179.1648   5   9   0.9399   0.7677   0.4595   0.5894   0.5894   0.8835   0.00    0.0
2019/01/19 00:57:00.000   47.480951909   19.056556010   179.0562   5   9   0.9398   0.7661   0.4622   0.5869   0.5869   0.8832   0.00    0.0
2019/01/19 00:57:30.000   47.480952693   19.056556080   178.7260   5   9   0.9396   0.7644   0.4649   0.5844   0.5844   0.8828   0.00    0.0
2019/01/19 00:58:00.000   47.480953189   19.056555438   178.4152   5   9   0.9394   0.7627   0.4676   0.5818   0.5818   0.8825   0.00    0.0
2019/01/19 00:58:30.000   47.480952796   19.056554443   177.9624   5   9   0.9392   0.7610   0.4702   0.5792   0.5792   0.8821   0.00    0.0
2019/01/19 00:59:00.000   47.480952417   19.056553149   177.7206   5   9   0.9389   0.7593   0.4729   0.5765   0.5765   0.8816   0.00    0.0
2019/01/19 00:59:30.000   47.480954209   19.056553275   177.4133   5   9   0.9387   0.7575   0.4755   0.5738   0.5738   0.8811   0.00    0.0
2019/01/19 01:00:00.000   47.480955459   19.056552809   177.7255   5   9   0.9384   0.7557   0.4781   0.5711   0.5711   0.8806   0.00    0.0
2019/01/19 01:00:30.000   47.480957173   19.056551348   178.1219   5   9   0.9381   0.7539   0.4807   0.5683   0.5683   0.8801   0.00    0.0
2019/01/19 01:01:00.000   47.480959433   19.056549965   178.0975   5   9   0.9378   0.7520   0.4833   0.5655   0.5655   0.8796   0.00    0.0
2019/01/19 01:01:30.000   47.480960382   19.056548531   178.0876   5   9   0.9375   0.7501   0.4858   0.5627   0.5627   0.8790   0.00    0.0
2019/01/19 01:02:00.000   47.480960288   19.056548450   178.1706   5   9   0.9372   0.7482   0.4883   0.5598   0.5598   0.8784   0.00    0.0
2019/01/19 01:02:30.000   47.480959407   19.056548324   178.2343   5   9   0.9369   0.7463   0.4908   0.5569   0.5569   0.8777   0.00    0.0
2019/01/19 01:03:00.000   47.480958871   19.056548878   178.4697   5   9   0.9365   0.7443   0.4933   0.5540   0.5540   0.8770   0.00    0.0
2019/01/19 01:03:30.000   47.480958006   19.056551278   178.8135   5   9   0.9361   0.7423   0.4958   0.5511   0.5511   0.8763   0.00    0.0
2019/01/19 01:04:00.000   47.480958554   19.056551430   179.1035   5   9   0.9357   0.7403   0.4982   0.5481   0.5481   0.8756   0.00    0.0
2019/01/19 01:04:30.000   47.480958043   19.056551068   179.4699   5   9   0.9353   0.7383   0.5006   0.5451   0.5451   0.8749   0.00    0.0
2019/01/19 01:05:00.000   47.480956458   19.056550260   179.5276   5   9   0.9349   0.7363   0.5030   0.5421   0.5421   0.8741   0.00    0.0
2019/01/19 01:05:30.000   47.480956551   19.056547909   179.4059   5   9   0.9345   0.7342   0.5054   0.5391   0.5391   0.8733   0.00    0.0
2019/01/19 01:06:00.000   47.480957586   19.056544592   179.2791   5   9   0.9340   0.7321   0.5077   0.5361   0.5361   0.8724   0.00    0.0
2019/01/19 01:06:30.000   47.480958029   19.056542600   179.1978   5   9   0.9336   0.7300   0.5100   0.5330   0.5330   0.8716   0.00    0.0
2019/01/19 01:07:00.000   47.480959043   19.056542631   179.2456   5   9   0.9331   0.7279   0.5123   0.5299   0.5299   0.8707   0.00    0.0
2019/01/19 01:07:30.000   47.480959050   19.056542592   179.3992   5   9   0.9326   0.7258   0.5146   0.5269   0.5269   0.8698   0.00    0.0
2019/01/19 01:08:00.000   47.480959880   19.056543111   179.2629   5   9   0.9321   0.7237   0.5168   0.5238   0.5238   0.8688   0.00    0.0
2019/01/19 01:08:30.000   47.480961113   19.056542417   178.8761   5   9   0.9316   0.7216   0.5191   0.5207   0.5207   0.8678   0.00    0.0
2019/01/19 01:09:00.000   47.480963249   19.056541426   178.6858   5   9   0.9310   0.7194   0.5213   0.5176   0.5176   0.8668   0.00    0.0
2019/01/19 01:09:30.000   47.480964536   19.056541301   178.4798   5   9   0.9305   0.7172   0.5234   0.5145   0.5145   0.8658   0.00    0.0
2019/01/19 01:10:00.000   47.480964788   19.056542080   178.3342   5   9   0.9299   0.7151   0.5256   0.5113   0.5113   0.8647   0.00    0.0
2019/01/19 01:10:30.000   47.480964544   19.056543998   178.2350   5   9   0.9293   0.7129   0.5277   0.5082   0.5082   0.8637   0.00    0.0
2019/01/19 01:11:00.000   47.480962874   19.056547487   178.3719   5   9   0.9287   0.7107   0.5298   0.5051   0.5051   0.8626   0.00    0.0
2019/01/19 01:11:30.000   47.480960877   19.056548125   178.3569   5   9   0.9281   0.7085   0.5318   0.5020   0.5020   0.8614   0.00    0.0
2019/01/19 01:12:00.000   47.480960177   19.056546742   178.1033   5   9   0.9275   0.7063   0.5339   0.4988   0.4988   0.8603   0.00    0.0
2019/01/19 01:12:30.000   47.480959172   19.056545816   177.6954   5   9   0.9269   0.7041   0.5359   0.4957   0.4957   0.8591   0.00    0.0
2019/01/19 01:13:00.000   47.480958211   19.056544718   177.7076   5   9   0.9262   0.7018   0.5378   0.4926   0.4926   0.8579   0.00    0.0
2019/01/19 01:13:30.000   47.480958806   19.056545059   177.7654   5   9   0.9256   0.6996   0.5398   0.4894   0.4894   0.8567   0.00    0.0
2019/01/19 01:14:00.000   47.480959288   19.056544695   178.0178   5   9   0.9249   0.6973   0.5417   0.4863   0.4863   0.8554   0.00    0.0
2019/01/19 01:14:30.000   47.480961482   19.056543117   178.1622   5   9   0.9242   0.6951   0.5436   0.4832   0.4832   0.8541   0.00    0.0
2019/01/19 01:15:00.000   47.480963317   19.056542526   178.3235   5   9   0.9235   0.6928   0.5455   0.4800   0.4800   0.8528   0.00    0.0
2019/01/19 01:15:30.000   47.480963927   19.056543733   178.4885   5   9   0.9228   0.6906   0.5473   0.4769   0.4769   0.8515   0.00    0.0
2019/01/19 01:16:00.000   47.480964151   19.056545527   178.5825   5   9   0.9220   0.6883   0.5491   0.4738   0.4738   0.8502   0.00    0.0
2019/01/19 01:16:30.000   47.480965487   19.056546264   178.5352   5   9   0.9213   0.6861   0.5509   0.4707   0.4707   0.8488   0.00    0.0
2019/01/19 01:17:00.000   47.480966044   19.056545917   178.6265   5   9   0.9205   0.6838   0.5526   0.4676   0.4676   0.8474   0.00    0.0
2019/01/19 01:17:30.000   47.480967452   19.056546630   178.5834   5   9   0.9198   0.6815   0.5544   0.4645   0.4645   0.8460   0.00    0.0
2019/01/19 01:18:00.000   47.480967584   19.056546151   178.6095   5   9   0.9190   0.6792   0.5561   0.4614   0.4614   0.8445   0.00    0.0
2019/01/19 01:18:30.000   47.480967941   19.056546125   178.5962   5   9   0.9182   0.6770   0.5577   0.4583   0.4583   0.8430   0.00    0.0
2019/01/19 01:19:00.000   47.480968160   19.056546448   178.4512   5   9   0.9173   0.6747   0.5594   0.4552   0.4552   0.8415   0.00    0.0
2019/01/19 01:19:30.000   47.480968926   19.056543639   178.3382   5   9   0.9165   0.6724   0.5610   0.4521   0.4521   0.8400   0.00    0.0
2019/01/19 01:20:00.000   47.480965654   19.056544860   178.0780   5  10   0.9134   0.6461   0.5756   0.4175   0.4175   0.8343   0.00    0.0
2019/01/19 01:20:30.000   47.480964558   19.056543018   178.1410   5  10   0.9128   0.6459   0.5762   0.4171   0.4171   0.8333   0.00    0.0
2019/01/19 01:21:00.000   47.480964090   19.056541629   178.3096   5  10   0.9123   0.6455   0.5769   0.4167   0.4167   0.8322   0.00    0.0
2019/01/19 01:21:30.000   47.480963414   19.056540159   178.5322   5  10   0.9116   0.6452   0.5774   0.4162   0.4162   0.8311   0.00    0.0
2019/01/19 01:22:00.000   47.480962609   19.056538908   178.5357   5  10   0.9110   0.6447   0.5780   0.4157   0.4157   0.8298   0.00    0.0
2019/01/19 01:22:30.000   47.480962095   19.056537732   178.6305   5  10   0.9103   0.6443   0.5785   0.4151   0.4151   0.8286   0.00    0.0
2019/01/19 01:23:00.000   47.480962138   19.056536549   178.5720   5  10   0.9095   0.6438   0.5790   0.4145   0.4145   0.8272   0.00    0.0
2019/01/19 01:23:30.000   47.480962512   19.056534736   178.5219   5  10   0.9087   0.6432   0.5794   0.4137   0.4137   0.8258   0.00    0.0
2019/01/19 01:24:00.000   47.480962643   19.056536601   178.5813   5  10   0.9079   0.6426   0.5798   0.4130   0.4130   0.8243   0.00    0.0
2019/01/19 01:24:30.000   47.480963981   19.056538957   178.5038   5  10   0.9070   0.6420   0.5801   0.4122   0.4122   0.8227   0.00    0.0
2019/01/19 01:25:00.000   47.480965145   19.056541804   178.3074   5  10   0.9061   0.6413   0.5805   0.4113   0.4113   0.8211   0.00    0.0
2019/01/19 01:25:30.000   47.480967063   19.056543712   177.8109   5  10   0.9052   0.6406   0.5807   0.4103   0.4103   0.8194   0.00    0.0
2019/01/19 01:26:00.000   47.480967773   19.056543881   177.3938   5  10   0.9042   0.6398   0.5810   0.4093   0.4093   0.8176   0.00    0.0
2019/01/19 01:26:30.000   47.480962679   19.056542393   178.2556   5   9   1.4209   0.8432   0.8282   0.7110   0.7110   2.0189   0.00    0.0
2019/01/19 01:27:00.000   47.480961966   19.056542850   178.2439   5   9   1.4223   0.8437   0.8317   0.7118   0.7118   2.0229   0.00    0.0
2019/01/19 01:27:30.000   47.480961334   19.056543570   178.2558   5   9   1.4236   0.8441   0.8351   0.7125   0.7125   2.0267   0.00    0.0
2019/01/19 01:28:00.000   47.480962880   19.056544293   178.2154   5   9   1.4249   0.8444   0.8385   0.7131   0.7131   2.0303   0.00    0.0
2019/01/19 01:28:30.000   47.480948823   19.056540280   176.6979   5   8   1.4268   0.8313   0.8398   0.6910   0.6910   2.0356   0.00    0.0
2019/01/19 01:29:00.000   47.480949262   19.056540352   176.8635   5   8   1.4276   0.8334   0.8433   0.6945   0.6945   2.0382   0.00    0.0
2019/01/19 01:29:30.000   47.480949950   19.056539515   176.8431   5   8   1.4285   0.8354   0.8467   0.6979   0.6979   2.0406   0.00    0.0
2019/01/19 01:30:00.000   47.480950940   19.056539143   176.7116   5   8   1.4293   0.8374   0.8501   0.7013   0.7013   2.0428   0.00    0.0
2019/01/19 01:30:30.000   47.480950502   19.056540618   176.6841   5   8   1.4300   0.8394   0.8534   0.7045   0.7045   2.0448   0.00    0.0
2019/01/19 01:31:00.000   47.480955069   19.056535582   175.6389   5   9   1.1594   0.6160   0.4779   0.3794   0.3794   1.3441   0.00    0.0
2019/01/19 01:31:30.000   47.480954431   19.056533866   175.6690   5   9   1.1593   0.6179   0.4806   0.3818   0.3818   1.3440   0.00    0.0
2019/01/19 01:32:00.000   47.480955492   19.056532886   175.6574   5   9   1.1592   0.6199   0.4834   0.3843   0.3843   1.3437   0.00    0.0
2019/01/19 01:32:30.000   47.480956636   19.056532461   175.6683   5   9   1.1591   0.6219   0.4861   0.3867   0.3867   1.3435   0.00    0.0
2019/01/19 01:33:00.000   47.480955963   19.056532890   175.8762   5   9   1.1590   0.6238   0.4888   0.3891   0.3891   1.3432   0.00    0.0
2019/01/19 01:33:30.000   47.480955664   19.056532699   175.7255   5   9   1.1588   0.6257   0.4914   0.3914   0.3914   1.3429   0.00    0.0
2019/01/19 01:34:00.000   47.480955007   19.056531537   175.4956   5   9   1.1587   0.6275   0.4941   0.3938   0.3938   1.3425   0.00    0.0
2019/01/19 01:34:30.000   47.480955341   19.056529803   175.3543   5   9   1.1585   0.6293   0.4967   0.3961   0.3961   1.3421   0.00    0.0
2019/01/19 01:35:00.000   47.480955914   19.056529121   175.1918   5   9   1.1583   0.6311   0.4993   0.3983   0.3983   1.3416   0.00    0.0
2019/01/19 01:35:30.000   47.480958092   19.056528546   174.8804   5   9   1.1581   0.6329   0.5019   0.4005   0.4005   1.3411   0.00    0.0
2019/01/19 01:36:00.000   47.480958732   19.056529705   174.8103   5   9   1.1578   0.6346   0.5045   0.4027   0.4027   1.3406   0.00    0.0
2019/01/19 01:36:30.000   47.480958287   19.056530424   175.1405   5   9   1.1576   0.6363   0.5070   0.4049   0.4049   1.3400   0.00    0.0
2019/01/19 01:37:00.000   47.480956950   19.056532489   175.3496   5   9   1.1573   0.6380   0.5095   0.4070   0.4070   1.3393   0.00    0.0
2019/01/19 01:37:30.000   47.480955773   19.056533539   175.4363   5   9   1.1570   0.6396   0.5121   0.4091   0.4091   1.3386   0.00    0.0
2019/01/19 01:38:00.000   47.480955098   19.056533587   175.3068   5   9   1.1567   0.6412   0.5145   0.4112   0.4112   1.3379   0.00    0.0
2019/01/19 01:38:30.000   47.480955201   19.056532952   175.1120   5   9   1.1563   0.6428   0.5170   0.4132   0.4132   1.3371   0.00    0.0
2019/01/19 01:39:00.000   47.480955415   19.056532221   175.1098   5   9   1.1560   0.6443   0.5195   0.4151   0.4151   1.3363   0.00    0.0
2019/01/19 01:39:30.000   47.480956050   19.056531717   175.0410   5   9   1.1556   0.6458   0.5219   0.4171   0.4171   1.3354   0.00    0.0
2019/01/19 01:40:00.000   47.480956776   19.056531663   175.1079   5   9   1.1552   0.6473   0.5243   0.4190   0.4190   1.3344   0.00    0.0
2019/01/19 01:40:30.000   47.480956252   19.056531179   175.0822   5   9   1.1548   0.6487   0.5267   0.4208   0.4208   1.3335   0.00    0.0
2019/01/19 01:41:00.000   47.480955088   19.056530968   175.0213   5   9   1.1543   0.6501   0.5290   0.4226   0.4226   1.3324   0.00    0.0
2019/01/19 01:41:30.000   47.480953070   19.056531393   175.2992   5   9   1.1538   0.6514   0.5314   0.4244   0.4244   1.3313   0.00    0.0
2019/01/19 01:42:00.000   47.480951142   19.056531281   175.5273   5   9   1.1533   0.6527   0.5337   0.4261   0.4261   1.3302   0.00    0.0
2019/01/19 01:42:30.000   47.480951488   19.056531027   175.4521   5   9   1.1528   0.6540   0.5360   0.4277   0.4277   1.3290   0.00    0.0
2019/01/19 01:43:00.000   47.480952202   19.056530583   175.3199   5   9   1.1523   0.6553   0.5383   0.4293   0.4293   1.3277   0.00    0.0
2019/01/19 01:43:30.000   47.480953278   19.056529886   175.0636   5   9   1.1517   0.6565   0.5405   0.4309   0.4309   1.3264   0.00    0.0
2019/01/19 01:44:00.000   47.480953570   19.056531621   175.0212   5   9   1.1511   0.6576   0.5428   0.4324   0.4324   1.3250   0.00    0.0
2019/01/19 01:44:30.000   47.480953205   19.056533375   175.0516   5   9   1.1505   0.6587   0.5450   0.4339   0.4339   1.3236   0.00    0.0
2019/01/19 01:45:00.000   47.480953209   19.056533176   175.0395   5   9   1.1498   0.6598   0.5472   0.4353   0.4353   1.3221   0.00    0.0
2019/01/19 01:45:30.000   47.480953820   19.056532287   175.0197   5   9   1.1492   0.6608   0.5493   0.4367   0.4367   1.3206   0.00    0.0
2019/01/19 01:46:00.000   47.480955758   19.056529997   174.7899   5   9   1.1485   0.6618   0.5515   0.4380   0.4380   1.3190   0.00    0.0
2019/01/19 01:46:30.000   47.480956137   19.056528210   174.5610   5   9   1.1477   0.6628   0.5536   0.4392   0.4392   1.3173   0.00    0.0
2019/01/19 01:47:00.000   47.480955988   19.056527955   174.7124   5   9   1.1470   0.6637   0.5557   0.4404   0.4404   1.3156   0.00    0.0
2019/01/19 01:47:30.000   47.480956195   19.056527513   174.7226   5   9   1.1462   0.6645   0.5578   0.4416   0.4416   1.3138   0.00    0.0
2019/01/19 01:48:00.000   47.480956431   19.056527512   174.7576   5   9   1.1454   0.6654   0.5598   0.4427   0.4427   1.3120   0.00    0.0
2019/01/19 01:48:30.000   47.480955672   19.056527871   174.7368   5   9   1.1446   0.6661   0.5618   0.4437   0.4437   1.3101   0.00    0.0
2019/01/19 01:49:00.000   47.480955648   19.056528675   174.5117   5   9   1.1437   0.6669   0.5638   0.4447   0.4447   1.3081   0.00    0.0
2019/01/19 01:49:30.000   47.480955558   19.056528772   174.3289   5   9   1.1429   0.6676   0.5658   0.4456   0.4456   1.3061   0.00    0.0
2019/01/19 01:50:00.000   47.480957131   19.056527368   174.1165   5   9   1.1420   0.6682   0.5678   0.4465   0.4465   1.3041   0.00    0.0
2019/01/19 01:50:30.000   47.480958489   19.056528147   174.0777   5   9   1.1410   0.6688   0.5697   0.4473   0.4473   1.3019   0.00    0.0
2019/01/19 01:51:00.000   47.480958519   19.056528322   174.0831   5   9   1.1401   0.6694   0.5716   0.4481   0.4481   1.2998   0.00    0.0
2019/01/19 01:51:30.000   47.480959373   19.056526783   173.9946   5   9   1.1391   0.6699   0.5735   0.4487   0.4487   1.2975   0.00    0.0
2019/01/19 01:52:00.000   47.480958471   19.056526843   174.0901   5   9   1.1381   0.6704   0.5754   0.4494   0.4494   1.2952   0.00    0.0
2019/01/19 01:52:30.000   47.480958450   19.056527563   174.1618   5   9   1.1371   0.6708   0.5772   0.4499   0.4499   1.2929   0.00    0.0
2019/01/19 01:53:00.000   47.480956974   19.056528172   174.2564   5  10   1.1360   0.6691   0.5794   0.4477   0.4477   1.2905   0.00    0.0
2019/01/19 01:53:30.000   47.480957072   19.056528428   174.2278   5  10   1.1349   0.6704   0.5810   0.4494   0.4494   1.2880   0.00    0.0
2019/01/19 01:54:00.000   47.480958876   19.056527448   174.1919   5  10   1.1338   0.6716   0.5827   0.4511   0.4511   1.2855   0.00    0.0
2019/01/19 01:54:30.000   47.480960549   19.056527232   174.1904   5  10   1.1327   0.6728   0.5842   0.4526   0.4526   1.2829   0.00    0.0
2019/01/19 01:55:00.000   47.480962181   19.056525685   174.0971   5  10   1.1315   0.6739   0.5858   0.4542   0.4542   1.2803   0.00    0.0
2019/01/19 01:55:30.000   47.480962028   19.056525234   174.0415   5  10   1.1303   0.6750   0.5873   0.4556   0.4556   1.2776   0.00    0.0
2019/01/19 01:56:00.000   47.480961018   19.056524975   174.0118   5  10   1.1291   0.6761   0.5888   0.4570   0.4570   1.2748   0.00    0.0
2019/01/19 01:56:30.000   47.480959343   19.056525085   174.0297   5  10   1.1278   0.6771   0.5903   0.4584   0.4584   1.2719   0.00    0.0
2019/01/19 01:57:00.000   47.480958334   19.056525643   174.2335   5  10   1.1265   0.6780   0.5917   0.4597   0.4597   1.2690   0.00    0.0
2019/01/19 01:57:30.000   47.480958641   19.056525224   174.3435   5  10   1.1252   0.6789   0.5931   0.4609   0.4609   1.2660   0.00    0.0
2019/01/19 01:58:00.000   47.480958758   19.056525506   174.7435   5  10   1.1238   0.6797   0.5945   0.4620   0.4620   1.2629   0.00    0.0
2019/01/19 01:58:30.000   47.480959532   19.056523945   174.9662   5  10   1.1224   0.6805   0.5958   0.4630   0.4630   1.2598   0.00    0.0
2019/01/19 01:59:00.000   47.480959603   19.056523995   175.0667   5  10   1.1210   0.6812   0.5972   0.4640   0.4640   1.2566   0.00    0.0
2019/01/19 01:59:30.000   47.480954568   19.056537472   177.2083   5  11   1.0507   0.5889   0.4566   0.3468   0.3468   1.1039   0.00    0.0
2019/01/19 02:00:00.000   47.480954804   19.056538150   177.0684   5  11   1.0492   0.5897   0.4579   0.3478   0.3478   1.1008   0.00    0.0
2019/01/19 02:00:30.000   47.480954797   19.056540348   176.8905   5  11   1.0477   0.5906   0.4591   0.3488   0.3488   1.0977   0.00    0.0
2019/01/19 02:01:00.000   47.480953736   19.056540933   176.8676   5  11   1.0462   0.5913   0.4603   0.3497   0.3497   1.0945   0.00    0.0
2019/01/19 02:01:30.000   47.480952588   19.056540648   176.7757   5  11   1.0446   0.5921   0.4615   0.3505   0.3505   1.0913   0.00    0.0
2019/01/19 02:02:00.000   47.480955678   19.056547171   175.7051   5  10   1.3407   0.7794   0.3658   0.6075   0.6075   1.7975   0.00    0.0
2019/01/19 02:02:30.000   47.480954991   19.056546556   175.7551   5  10   1.3384   0.7814   0.3691   0.6106   0.6106   1.7913   0.00    0.0
2019/01/19 02:03:00.000   47.480955372   19.056544691   175.5885   5  10   1.3360   0.7833   0.3724   0.6136   0.6136   1.7850   0.00    0.0
2019/01/19 02:03:30.000   47.480956488   19.056542034   175.3473   5  10   1.3336   0.7852   0.3756   0.6165   0.6165   1.7785   0.00    0.0
2019/01/19 02:04:00.000   47.480957475   19.056540066   175.2170   5  10   1.3312   0.7869   0.3787   0.6193   0.6193   1.7721   0.00    0.0
2019/01/19 02:04:30.000   47.480956466   19.056541385   175.3445   5  10   1.3287   0.7886   0.3818   0.6220   0.6220   1.7655   0.00    0.0
2019/01/19 02:05:00.000   47.480955204   19.056542368   175.7568   5  10   1.3262   0.7903   0.3848   0.6246   0.6246   1.7589   0.00    0.0
2019/01/19 02:05:30.000   47.480954563   19.056542269   176.1231   5  10   1.3237   0.7919   0.3878   0.6271   0.6271   1.7522   0.00    0.0
2019/01/19 02:06:00.000   47.480954811   19.056542105   176.3141   5  10   1.3211   0.7934   0.3908   0.6295   0.6295   1.7454   0.00    0.0
2019/01/19 02:06:30.000   47.480956656   19.056540998   175.8383   5  10   1.3185   0.7949   0.3937   0.6319   0.6319   1.7385   0.00    0.0
2019/01/19 02:07:00.000   47.480957794   19.056538031   175.1457   5  10   1.3159   0.7963   0.3965   0.6341   0.6341   1.7316   0.00    0.0
2019/01/19 02:07:30.000   47.480956202   19.056536934   174.8402   5  10   1.3133   0.7976   0.3993   0.6362   0.6362   1.7246   0.00    0.0
2019/01/19 02:08:00.000   47.480952768   19.056539783   175.2869   5  10   1.3106   0.7989   0.4021   0.6382   0.6382   1.7176   0.00    0.0
2019/01/19 02:08:30.000   47.480950221   19.056544128   175.9255   5  10   1.3079   0.8001   0.4048   0.6401   0.6401   1.7105   0.00    0.0
2019/01/19 02:09:00.000   47.480948730   19.056546483   176.5402   5  10   1.3051   0.8012   0.4074   0.6420   0.6420   1.7033   0.00    0.0
2019/01/19 02:09:30.000   47.480948539   19.056546429   176.6988   5  10   1.3023   0.8023   0.4101   0.6437   0.6437   1.6960   0.00    0.0
2019/01/19 02:10:00.000   47.480951036   19.056543390   176.1805   5  10   1.2995   0.8033   0.4126   0.6453   0.6453   1.6887   0.00    0.0
2019/01/19 02:10:30.000   47.480952795   19.056540217   175.6653   5  10   1.2967   0.8042   0.4151   0.6468   0.6468   1.6813   0.00    0.0
2019/01/19 02:11:00.000   47.480951979   19.056539961   175.6781   5  10   1.2938   0.8051   0.4176   0.6482   0.6482   1.6739   0.00    0.0
2019/01/19 02:11:30.000   47.480950030   19.056540283   175.8026   5  10   1.2909   0.8059   0.4200   0.6494   0.6494   1.6663   0.00    0.0
2019/01/19 02:12:00.000   47.480947822   19.056541697   176.2927   5  10   1.2879   0.8066   0.4224   0.6506   0.6506   1.6588   0.00    0.0
2019/01/19 02:12:30.000   47.480947469   19.056542411   176.4568   5  10   1.2850   0.8073   0.4248   0.6517   0.6517   1.6511   0.00    0.0
2019/01/19 02:13:00.000   47.480948740   19.056541433   176.3483   5  10   1.2820   0.8079   0.4271   0.6526   0.6526   1.6434   0.00    0.0
2019/01/19 02:13:30.000   47.480948222   19.056537673   175.6492   5  11   1.2789   0.8107   0.4316   0.6572   0.6572   1.6355   0.00    0.0
2019/01/19 02:14:00.000   47.480950805   19.056536773   175.1520   5  11   1.2758   0.8112   0.4338   0.6580   0.6580   1.6277   0.00    0.0
2019/01/19 02:14:30.000   47.480951063   19.056537036   174.9132   5  11   1.2727   0.8116   0.4360   0.6587   0.6587   1.6198   0.00    0.0
2019/01/19 02:15:00.000   47.480949920   19.056537826   174.8901   5  11   1.2696   0.8119   0.4382   0.6592   0.6592   1.6119   0.00    0.0
2019/01/19 02:15:30.000   47.480949549   19.056538142   174.8467   5  11   1.2664   0.8122   0.4403   0.6597   0.6597   1.6039   0.00    0.0
2019/01/19 02:16:00.000   47.480950591   19.056536204   174.6040   5  11   1.2633   0.8125   0.4424   0.6601   0.6601   1.5959   0.00    0.0
2019/01/19 02:16:30.000   47.480951098   19.056535103   174.5267   5  11   1.2601   0.8126   0.4445   0.6603   0.6603   1.5878   0.00    0.0
2019/01/19 02:17:00.000   47.480951098   19.056535608   174.4980   5  11   1.2568   0.8127   0.4465   0.6605   0.6605   1.5796   0.00    0.0
2019/01/19 02:17:30.000   47.480950556   19.056535946   174.6079   5  11   1.2536   0.8127   0.4485   0.6605   0.6605   1.5714   0.00    0.0
2019/01/19 02:18:00.000   47.480950847   19.056535819   174.4414   5  10   1.2505   0.8067   0.4494   0.6508   0.6508   1.5637   0.00    0.0
2019/01/19 02:18:30.000   47.480950748   19.056535901   174.1244   5  10   1.2470   0.8094   0.4518   0.6552   0.6552   1.5550   0.00    0.0
2019/01/19 02:19:00.000   47.480951632   19.056535704   173.6911   5  10   1.2436   0.8122   0.4542   0.6596   0.6596   1.5466   0.00    0.0
2019/01/19 02:19:30.000   47.480951264   19.056537373   173.5329   5  10   1.2403   0.8149   0.4566   0.6641   0.6641   1.5383   0.00    0.0
2019/01/19 02:20:00.000   47.480951001   19.056537630   173.5405   5  10   1.2370   0.8177   0.4591   0.6686   0.6686   1.5302   0.00    0.0
2019/01/19 02:20:30.000   47.480951557   19.056535927   173.6899   5  10   1.2338   0.8205   0.4615   0.6732   0.6732   1.5222   0.00    0.0
2019/01/19 02:21:00.000   47.480952669   19.056533604   173.9467   5  10   1.2306   0.8234   0.4640   0.6779   0.6779   1.5144   0.00    0.0
2019/01/19 02:21:30.000   47.480952891   19.056534258   174.1910   5  10   1.2275   0.8262   0.4665   0.6826   0.6826   1.5068   0.00    0.0
2019/01/19 02:22:00.000   47.480953523   19.056535748   174.5595   5  10   1.2245   0.8291   0.4690   0.6874   0.6874   1.4994   0.00    0.0
2019/01/19 02:22:30.000   47.480953449   19.056536767   175.0968   5  10   1.2215   0.8321   0.4715   0.6923   0.6923   1.4921   0.00    0.0
2019/01/19 02:23:00.000   47.480953342   19.056538299   175.6313   5  10   1.2186   0.8350   0.4740   0.6972   0.6972   1.4849   0.00    0.0
2019/01/19 02:23:30.000   47.480954343   19.056538309   175.9230   5  10   1.2157   0.8380   0.4765   0.7022   0.7022   1.4779   0.00    0.0
2019/01/19 02:24:00.000   47.480955068   19.056537246   175.8069   5  10   1.2129   0.8410   0.4790   0.7073   0.7073   1.4711   0.00    0.0
2019/01/19 02:24:30.000   47.480955208   19.056536658   175.5645   5  10   1.2101   0.8441   0.4816   0.7124   0.7124   1.4644   0.00    0.0
2019/01/19 02:25:00.000   47.480954781   19.056536020   175.1543   5  10   1.2074   0.8471   0.4842   0.7176   0.7176   1.4579   0.00    0.0
2019/01/19 02:25:30.000   47.480954179   19.056536286   174.8806   5  10   1.2048   0.8502   0.4868   0.7229   0.7229   1.4515   0.00    0.0
2019/01/19 02:26:00.000   47.480954050   19.056536110   174.4827   5  10   1.2022   0.8534   0.4894   0.7282   0.7282   1.4452   0.00    0.0
2019/01/19 02:26:30.000   47.480953847   19.056536227   174.3175   5  10   1.1996   0.8565   0.4920   0.7336   0.7336   1.4391   0.00    0.0
2019/01/19 02:27:00.000   47.480953705   19.056535557   174.1806   5  10   1.1971   0.8597   0.4946   0.7390   0.7390   1.4331   0.00    0.0
2019/01/19 02:27:30.000   47.480953548   19.056535407   174.4817   5  10   1.1947   0.8629   0.4973   0.7446   0.7446   1.4273   0.00    0.0
2019/01/19 02:28:00.000   47.480953435   19.056536271   174.8101   5  10   1.1923   0.8661   0.4999   0.7502   0.7502   1.4216   0.00    0.0
2019/01/19 02:28:30.000   47.480953597   19.056536260   174.9625   5  10   1.1900   0.8694   0.5026   0.7558   0.7558   1.4160   0.00    0.0
2019/01/19 02:29:00.000   47.480955849   19.056535776   174.1354   5  11   0.9367   0.7619   0.2751   0.5805   0.5805   0.8775   0.00    0.0
2019/01/19 02:29:30.000   47.480956429   19.056533467   173.3830   5  11   0.9369   0.7656   0.2793   0.5861   0.5861   0.8779   0.00    0.0
2019/01/19 02:30:00.000   47.480954937   19.056532636   173.3173   5  11   0.9372   0.7693   0.2834   0.5917   0.5917   0.8783   0.00    0.0
2019/01/19 02:30:30.000   47.480952524   19.056533458   173.6304   5  11   0.9374   0.7729   0.2876   0.5974   0.5974   0.8787   0.00    0.0
2019/01/19 02:31:00.000   47.480951334   19.056534866   174.1654   5  11   0.9376   0.7766   0.2917   0.6031   0.6031   0.8791   0.00    0.0
2019/01/19 02:31:30.000   47.480951239   19.056536389   174.7538   5  11   0.9378   0.7803   0.2958   0.6089   0.6089   0.8795   0.00    0.0
2019/01/19 02:32:00.000   47.480951958   19.056536280   175.1362   5  11   0.9380   0.7840   0.2998   0.6146   0.6146   0.8799   0.00    0.0
2019/01/19 02:32:30.000   47.480953758   19.056534572   174.8447   5  11   0.9382   0.7877   0.3039   0.6204   0.6204   0.8803   0.00    0.0
2019/01/19 02:33:00.000   47.480954159   19.056533819   174.4488   5  11   0.9385   0.7914   0.3079   0.6263   0.6263   0.8807   0.00    0.0
2019/01/19 02:33:30.000   47.480953339   19.056534143   174.1930   5  11   0.9387   0.7951   0.3119   0.6321   0.6321   0.8811   0.00    0.0
2019/01/19 02:34:00.000   47.480952011   19.056534935   174.1450   5  11   0.9389   0.7988   0.3159   0.6380   0.6380   0.8815   0.00    0.0
2019/01/19 02:34:30.000   47.480951358   19.056535070   174.4432   5  11   0.9391   0.8024   0.3198   0.6439   0.6439   0.8819   0.00    0.0
2019/01/19 02:35:00.000   47.480951791   19.056534300   174.4581   5  11   0.9393   0.8061   0.3238   0.6498   0.6498   0.8822   0.00    0.0
2019/01/19 02:35:30.000   47.480953022   19.056533161   174.4183   5  11   0.9395   0.8098   0.3277   0.6557   0.6557   0.8826   0.00    0.0
2019/01/19 02:36:00.000   47.480954629   19.056532527   174.4331   5  11   0.9397   0.8135   0.3316   0.6617   0.6617   0.8829   0.00    0.0
2019/01/19 02:36:30.000   47.480955216   19.056532559   174.6560   5  11   0.9398   0.8171   0.3355   0.6676   0.6676   0.8833   0.00    0.0
2019/01/19 02:37:00.000   47.480955679   19.056532748   174.6342   5  11   0.9400   0.8207   0.3394   0.6736   0.6736   0.8836   0.00    0.0
2019/01/19 02:37:30.000   47.480953990   19.056533067   174.8385   5  11   0.9402   0.8244   0.3433   0.6795   0.6795   0.8839   0.00    0.0
2019/01/19 02:38:00.000   47.480950780   19.056533531   174.8632   5  11   0.9403   0.8280   0.3471   0.6855   0.6855   0.8842   0.00    0.0
2019/01/19 02:38:30.000   47.480947983   19.056534974   174.7862   5  11   0.9405   0.8315   0.3509   0.6914   0.6914   0.8845   0.00    0.0
2019/01/19 02:39:00.000   47.480947174   19.056535629   174.5674   5  11   0.9406   0.8351   0.3547   0.6974   0.6974   0.8848   0.00    0.0
2019/01/19 02:39:30.000   47.480948655   19.056536138   174.3634   5  11   0.9408   0.8387   0.3585   0.7033   0.7033   0.8850   0.00    0.0
2019/01/19 02:40:00.000   47.480950355   19.056534822   174.2257   5  11   0.9409   0.8422   0.3622   0.7092   0.7092   0.8853   0.00    0.0
2019/01/19 02:40:30.000   47.480950967   19.056533248   174.3804   5  11   0.9410   0.8457   0.3660   0.7151   0.7151   0.8855   0.00    0.0
2019/01/19 02:41:00.000   47.480950484   19.056531707   174.7359   5  11   0.9411   0.8491   0.3697   0.7210   0.7210   0.8856   0.00    0.0
2019/01/19 02:41:30.000   47.480949503   19.056531793   175.0443   5  11   0.9412   0.8526   0.3734   0.7268   0.7268   0.8858   0.00    0.0
2019/01/19 02:42:00.000   47.480949038   19.056531972   175.1059   5  11   0.9412   0.8560   0.3771   0.7326   0.7326   0.8859   0.00    0.0
2019/01/19 02:42:30.000   47.480948679   19.056532817   174.7390   5  11   0.9413   0.8593   0.3807   0.7384   0.7384   0.8860   0.00    0.0
2019/01/19 02:43:00.000   47.480949560   19.056532630   174.3163   5  11   0.9413   0.8626   0.3843   0.7441   0.7441   0.8860   0.00    0.0
2019/01/19 02:43:30.000   47.480951608   19.056532398   173.8646   5  11   0.9413   0.8659   0.3879   0.7498   0.7498   0.8860   0.00    0.0
2019/01/19 02:44:00.000   47.480952386   19.056532265   173.8961   5  11   0.9413   0.8692   0.3915   0.7554   0.7554   0.8860   0.00    0.0
2019/01/19 02:44:30.000   47.480951447   19.056531247   173.9748   5  11   0.9412   0.8723   0.3950   0.7609   0.7609   0.8859   0.00    0.0
2019/01/19 02:45:00.000   47.480949139   19.056528714   173.8973   5  11   0.9412   0.8755   0.3985   0.7664   0.7664   0.8858   0.00    0.0
2019/01/19 02:45:30.000   47.480947622   19.056527323   173.7156   5  11   0.9411   0.8785   0.4020   0.7718   0.7718   0.8856   0.00    0.0
2019/01/19 02:46:00.000   47.480947257   19.056527396   173.7271   5  11   0.9410   0.8816   0.4054   0.7771   0.7771   0.8854   0.00    0.0
2019/01/19 02:46:30.000   47.480948455   19.056528359   173.9374   5  11   0.9408   0.8845   0.4089   0.7823   0.7823   0.8852   0.00    0.0
2019/01/19 02:47:00.000   47.480949233   19.056527869   174.0503   5  11   0.9407   0.8874   0.4122   0.7874   0.7874   0.8849   0.00    0.0
2019/01/19 02:47:30.000   47.480948849   19.056528203   174.3282   5  11   0.9405   0.8902   0.4156   0.7924   0.7924   0.8845   0.00    0.0
2019/01/19 02:48:00.000   47.480947372   19.056529322   174.3296   5  11   0.9402   0.8930   0.4189   0.7973   0.7973   0.8841   0.00    0.0
2019/01/19 02:48:30.000   47.480947461   19.056530514   174.4296   5  11   0.9400   0.8956   0.4222   0.8021   0.8021   0.8836   0.00    0.0
2019/01/19 02:49:00.000   47.480949191   19.056531769   174.3948   5  11   0.9397   0.8982   0.4254   0.8067   0.8067   0.8830   0.00    0.0
2019/01/19 02:49:30.000   47.480951389   19.056531507   174.2112   5  11   0.9394   0.9007   0.4286   0.8112   0.8112   0.8824   0.00    0.0
2019/01/19 02:50:00.000   47.480953692   19.056530376   174.0719   5  11   0.9390   0.9031   0.4317   0.8156   0.8156   0.8817   0.00    0.0
2019/01/19 02:50:30.000   47.480953766   19.056529580   174.3457   5  11   0.9386   0.9055   0.4348   0.8198   0.8198   0.8810   0.00    0.0
2019/01/19 02:51:00.000   47.480953680   19.056526975   174.4708   5  11   0.9382   0.9077   0.4379   0.8239   0.8239   0.8801   0.00    0.0
2019/01/19 02:51:30.000   47.480954220   19.056525681   174.7624   5  11   0.9377   0.9098   0.4409   0.8277   0.8277   0.8792   0.00    0.0
2019/01/19 02:52:00.000   47.480954242   19.056525534   174.9314   5  11   0.9372   0.9119   0.4439   0.8314   0.8314   0.8783   0.00    0.0
2019/01/19 02:52:30.000   47.480953525   19.056526297   174.9884   5  11   0.9366   0.9138   0.4468   0.8350   0.8350   0.8772   0.00    0.0
2019/01/19 02:53:00.000   47.480952252   19.056527480   175.1902   5  11   0.9360   0.9156   0.4496   0.8383   0.8383   0.8761   0.00    0.0
2019/01/19 02:53:30.000   47.480951758   19.056525225   174.8778   5  11   0.9353   0.9173   0.4524   0.8414   0.8414   0.8748   0.00    0.0
2019/01/19 02:54:00.000   47.480951120   19.056523517   174.8296   5  11   0.9346   0.9189   0.4552   0.8443   0.8443   0.8735   0.00    0.0
2019/01/19 02:54:30.000   47.480951863   19.056522817   174.7787   5  11   0.9339   0.9204   0.4579   0.8470   0.8470   0.8721   0.00    0.0
2019/01/19 02:55:00.000   47.480952568   19.056523221   174.9451   5  11   0.9331   0.9217   0.4605   0.8495   0.8495   0.8706   0.00    0.0
2019/01/19 02:55:30.000   47.480953360   19.056523926   175.3150   5  11   0.9322   0.9229   0.4631   0.8518   0.8518   0.8690   0.00    0.0
2019/01/19 02:56:00.000   47.480953099   19.056524418   175.7022   5  11   0.9313   0.9240   0.4656   0.8538   0.8538   0.8673   0.00    0.0
2019/01/19 02:56:30.000   47.480953089   19.056524393   175.5844   5  11   0.9304   0.9250   0.4680   0.8555   0.8555   0.8656   0.00    0.0
2019/01/19 02:57:00.000   47.480953920   19.056524082   175.2620   5  11   0.9293   0.9258   0.4704   0.8571   0.8571   0.8637   0.00    0.0
2019/01/19 02:57:30.000   47.480953498   19.056524366   175.3874   5  11   0.9283   0.9265   0.4727   0.8583   0.8583   0.8617   0.00    0.0
2019/01/19 02:58:00.000   47.480953092   19.056525150   175.3374   5  11   0.9272   0.9270   0.4750   0.8593   0.8593   0.8596   0.00    0.0
2019/01/19 02:58:30.000   47.480953008   19.056526162   175.4015   5  11   0.9260   0.9274   0.4771   0.8600   0.8600   0.8574   0.00    0.0
2019/01/19 02:59:00.000   47.480953594   19.056525285   175.3707   5  11   0.9248   0.9276   0.4793   0.8605   0.8605   0.8552   0.00    0.0
2019/01/19 02:59:30.000   47.480954562   19.056525935   175.6500   5  11   0.9235   0.9277   0.4813   0.8607   0.8607   0.8528   0.00    0.0
2019/01/19 03:00:00.000   47.480955225   19.056527500   175.7919   5  11   0.9221   0.9277   0.4832   0.8606   0.8606   0.8503   0.00    0.0
2019/01/19 03:00:30.000   47.480954942   19.056528242   175.7884   5  11   0.9207   0.9275   0.4851   0.8602   0.8602   0.8477   0.00    0.0
2019/01/19 03:01:00.000   47.480954667   19.056528733   176.0070   5  11   0.9193   0.9271   0.4869   0.8595   0.8595   0.8450   0.00    0.0
2019/01/19 03:01:30.000   47.480954465   19.056527473   176.3649   5  11   0.9177   0.9266   0.4887   0.8585   0.8585   0.8423   0.00    0.0
2019/01/19 03:02:00.000   47.480954577   19.056525207   176.7597   5  11   0.9162   0.9259   0.4903   0.8573   0.8573   0.8394   0.00    0.0
2019/01/19 03:02:30.000   47.480954519   19.056523810   176.9865   5  11   0.9146   0.9250   0.4919   0.8557   0.8557   0.8364   0.00    0.0
2019/01/19 03:03:00.000   47.480954028   19.056522812   177.1420   5  11   0.9129   0.9240   0.4934   0.8539   0.8539   0.8333   0.00    0.0
2019/01/19 03:03:30.000   47.480952923   19.056522161   177.0141   5  11   0.9111   0.9229   0.4948   0.8517   0.8517   0.8302   0.00    0.0
2019/01/19 03:04:00.000   47.480953306   19.056520410   176.9130   5  11   0.9093   0.9216   0.4962   0.8493   0.8493   0.8269   0.00    0.0
2019/01/19 03:04:30.000   47.480953590   19.056519697   176.9976   5  11   0.9075   0.9201   0.4975   0.8465   0.8465   0.8236   0.00    0.0
2019/01/19 03:05:00.000   47.480953053   19.056519063   177.2532   5  11   0.9056   0.9184   0.4986   0.8435   0.8435   0.8201   0.00    0.0
2019/01/19 03:05:30.000   47.480953072   19.056518277   177.3509   5  11   0.9037   0.9166   0.4998   0.8402   0.8402   0.8166   0.00    0.0
2019/01/19 03:06:00.000   47.480953767   19.056516964   177.9929   5  11   0.9017   0.9146   0.5008   0.8366   0.8366   0.8130   0.00    0.0
2019/01/19 03:06:30.000   47.480955747   19.056515866   178.6256   5  11   0.8996   0.9125   0.5018   0.8327   0.8327   0.8093   0.00    0.0
2019/01/19 03:07:00.000   47.480956356   19.056514781   178.7458   5  11   0.8975   0.9102   0.5026   0.8285   0.8285   0.8055   0.00    0.0
2019/01/19 03:07:30.000   47.480964211   19.056523337   180.8284   5  12   0.8429   0.7175   0.3889   0.5149   0.5149   0.7105   0.00    0.0
2019/01/19 03:08:00.000   47.480962932   19.056524297   180.9634   5  12   0.8415   0.7166   0.3906   0.5136   0.5136   0.7081   0.00    0.0
2019/01/19 03:08:30.000   47.480962246   19.056527154   180.6035   5  11   1.1758   0.9617   0.2882   0.9249   0.9249   1.3826   0.00    0.0
2019/01/19 03:09:00.000   47.480962604   19.056526954   180.5192   5  11   1.1755   0.9630   0.2931   0.9275   0.9275   1.3818   0.00    0.0
2019/01/19 03:09:30.000   47.480964658   19.056524460   180.2692   5  11   1.1751   0.9642   0.2978   0.9298   0.9298   1.3809   0.00    0.0
2019/01/19 03:10:00.000   47.480964933   19.056522923   180.1774   5  11   1.1747   0.9653   0.3024   0.9320   0.9320   1.3799   0.00    0.0
2019/01/19 03:10:30.000   47.480964935   19.056523571   179.9584   5  11   1.1742   0.9663   0.3070   0.9339   0.9339   1.3787   0.00    0.0
2019/01/19 03:11:00.000   47.480965261   19.056523600   179.9616   5  11   1.1736   0.9672   0.3115   0.9356   0.9356   1.3774   0.00    0.0
2019/01/19 03:11:30.000   47.480966055   19.056523266   180.1705   5  11   1.1730   0.9680   0.3159   0.9372   0.9372   1.3759   0.00    0.0
2019/01/19 03:12:00.000   47.480966292   19.056523363   180.0502   5  11   1.1723   0.9687   0.3202   0.9385   0.9385   1.3743   0.00    0.0
2019/01/19 03:12:30.000   47.480965943   19.056523608   179.9273   5  11   1.1716   0.9693   0.3245   0.9396   0.9396   1.3726   0.00    0.0
2019/01/19 03:13:00.000   47.480964627   19.056523656   180.0291   5  11   1.1708   0.9697   0.3286   0.9405   0.9405   1.3707   0.00    0.0
2019/01/19 03:13:30.000   47.480963612   19.056524676   180.2649   5  11   1.1699   0.9701   0.3327   0.9411   0.9411   1.3686   0.00    0.0
2019/01/19 03:14:00.000   47.480964011   19.056526279   180.3287   5  11   1.1690   0.9703   0.3367   0.9416   0.9416   1.3665   0.00    0.0
2019/01/19 03:14:30.000   47.480964287   19.056526778   180.2030   5  11   1.1680   0.9704   0.3407   0.9418   0.9418   1.3642   0.00    0.0
2019/01/19 03:15:00.000   47.480963667   19.056526961   180.1517   5  11   1.1669   0.9704   0.3445   0.9417   0.9417   1.3617   0.00    0.0
2019/01/19 03:15:30.000   47.480962602   19.056526374   180.0682   5  11   1.1658   0.9703   0.3483   0.9415   0.9415   1.3591   0.00    0.0
2019/01/19 03:16:00.000   47.480962051   19.056526143   180.0414   5  11   1.1646   0.9700   0.3520   0.9410   0.9410   1.3563   0.00    0.0
2019/01/19 03:16:30.000   47.480962630   19.056526818   179.5087   5  11   1.1634   0.9697   0.3556   0.9404   0.9404   1.3534   0.00    0.0
2019/01/19 03:17:00.000   47.480964679   19.056526192   178.8461   5  11   1.1621   0.9692   0.3592   0.9394   0.9394   1.3504   0.00    0.0
2019/01/19 03:17:30.000   47.480966075   19.056526055   178.4684   5  11   1.1607   0.9686   0.3627   0.9383   0.9383   1.3472   0.00    0.0
2019/01/19 03:18:00.000   47.480965181   19.056526716   178.6188   5  11   1.1593   0.9679   0.3661   0.9369   0.9369   1.3439   0.00    0.0
2019/01/19 03:18:30.000   47.480964082   19.056527401   179.0074   5  11   1.1578   0.9671   0.3695   0.9353   0.9353   1.3405   0.00    0.0
2019/01/19 03:19:00.000   47.480963436   19.056527642   179.4022   5  11   1.1563   0.9661   0.3728   0.9335   0.9335   1.3369   0.00    0.0
2019/01/19 03:19:30.000   47.480965418   19.056528332   179.4729   5  11   1.1547   0.9650   0.3760   0.9314   0.9314   1.3332   0.00    0.0
2019/01/19 03:20:00.000   47.480966412   19.056528299   179.5862   5  11   1.1530   0.9639   0.3792   0.9291   0.9291   1.3294   0.00    0.0
2019/01/19 03:20:30.000   47.480966048   19.056527623   180.0515   5  11   1.1513   0.9626   0.3823   0.9266   0.9266   1.3255   0.00    0.0
2019/01/19 03:21:00.000   47.480964645   19.056526704   180.3238   5  11   1.1495   0.9612   0.3853   0.9239   0.9239   1.3214   0.00    0.0
2019/01/19 03:21:30.000   47.480963007   19.056526284   180.5124   5  11   1.1477   0.9596   0.3883   0.9210   0.9210   1.3172   0.00    0.0
2019/01/19 03:22:00.000   47.480962282   19.056526261   180.5479   5  11   1.1458   0.9580   0.3912   0.9178   0.9178   1.3129   0.00    0.0
2019/01/19 03:22:30.000   47.480962744   19.056527459   180.5409   5  11   1.1439   0.9562   0.3940   0.9145   0.9145   1.3085   0.00    0.0
2019/01/19 03:23:00.000   47.480963240   19.056528527   180.1698   5  11   1.1419   0.9544   0.3968   0.9109   0.9109   1.3039   0.00    0.0
2019/01/19 03:23:30.000   47.480963184   19.056527594   179.6507   5  11   1.1398   0.9524   0.3995   0.9072   0.9072   1.2993   0.00    0.0
2019/01/19 03:24:00.000   47.480963473   19.056526777   179.5923   5  11   1.1378   0.9503   0.4022   0.9032   0.9032   1.2945   0.00    0.0
2019/01/19 03:24:30.000   47.480964001   19.056525894   179.8907   5  11   1.1356   0.9481   0.4048   0.8991   0.8991   1.2897   0.00    0.0
2019/01/19 03:25:00.000   47.480964782   19.056526087   180.0665   5  11   1.1334   0.9458   0.4073   0.8947   0.8947   1.2847   0.00    0.0
2019/01/19 03:25:30.000   47.480964573   19.056526416   180.4568   5  11   1.1312   0.9434   0.4098   0.8902   0.8902   1.2797   0.00    0.0
2019/01/19 03:26:00.000   47.480966004   19.056527131   180.5292   5  11   1.1290   0.9409   0.4122   0.8855   0.8855   1.2745   0.00    0.0
2019/01/19 03:26:30.000   47.480967654   19.056526883   180.2293   5  11   1.1266   0.9383   0.4146   0.8806   0.8806   1.2693   0.00    0.0
2019/01/19 03:27:00.000   47.480967020   19.056527427   180.3434   5  11   1.1243   0.9356   0.4169   0.8755   0.8755   1.2640   0.00    0.0
2019/01/19 03:27:30.000   47.480965957   19.056527080   180.7140   5  11   1.1219   0.9328   0.4192   0.8703   0.8703   1.2587   0.00    0.0
2019/01/19 03:28:00.000   47.480964985   19.056528881   181.1764   5  11   1.1195   0.9299   0.4214   0.8649   0.8649   1.2532   0.00    0.0
2019/01/19 03:28:30.000   47.480964880   19.056531654   181.3981   5  11   1.1170   0.9270   0.4235   0.8594   0.8594   1.2477   0.00    0.0
2019/01/19 03:29:00.000   47.480965345   19.056532243   181.5691   5  11   1.1145   0.9239   0.4256   0.8537   0.8537   1.2422   0.00    0.0
2019/01/19 03:29:30.000   47.480966099   19.056530950   181.6206   5  11   1.1120   0.9207   0.4277   0.8478   0.8478   1.2365   0.00    0.0
