% program   : GINA 1.0 gpstk's raw solution
% inp file  : C:\Users\lus2bp\Source\Repos\GINA\70_EGNOS_Project\files\PositionComparisonInputFiles\bute0190\bute0190.19o
% inp file  : C:\Users\lus2bp\Source\Repos\GINA\70_EGNOS_Project\files\PositionComparisonInputFiles\bute0190\brdc0190.19n
% obs start : 2019/01/19 00:00:00.0 GPST (week2036 518400.0s)
% obs end   : 2019/01/19 23:59:30.0 GPST (week2036 604770.0s)
% pos mode  : single
% elev mask : 0.0 deg
% ionos opt : ems
% tropo opt : Zero
% ephemeris : broadcasted
% (lat/lon/height=WGS84/ellipsoidal,Q=1:fix,2:float,3:sbas,4:dgps,5:single,6:ppp,ns=# of satellites)
%  GPST                  latitude(deg) longitude(deg)  height(m)   Q  ns   sdn(m)   sde(m)   sdu(m)  sdne(m)  sdeu(m)  sdun(m) age(s)  ratio
2019/01/19 00:00:00.000   47.480981100   19.056551240   202.6750   5  10   0.7051   0.5178   0.2736   0.2684   0.2684   0.4972   0.00    0.0
2019/01/19 00:00:30.000   47.480976460   19.056543211   203.2145   5  22   0.4380   0.3964   0.2296   0.1573   0.1573   0.1919   0.00    0.0
2019/01/19 00:01:00.000   47.480987550   19.056550059   203.5695   5  20   0.4987   0.3665   0.1949   0.1344   0.1344   0.2487   0.00    0.0
2019/01/19 00:01:30.000   47.480981662   19.056542155   204.2792   5  22   0.4381   0.3964   0.2301   0.1573   0.1573   0.1919   0.00    0.0
2019/01/19 00:02:00.000   47.480992879   19.056548498   204.5530   5  20   0.4988   0.3667   0.1964   0.1346   0.1346   0.2488   0.00    0.0
2019/01/19 00:02:30.000   47.480987534   19.056541258   205.8317   5  22   0.4381   0.3961   0.2304   0.1571   0.1571   0.1919   0.00    0.0
2019/01/19 00:03:00.000   47.480991603   19.056540756   206.6406   5  22   0.4381   0.3960   0.2306   0.1569   0.1569   0.1919   0.00    0.0
2019/01/19 00:03:30.000   47.480994041   19.056536125   206.9051   5  22   0.4381   0.3957   0.2307   0.1568   0.1568   0.1919   0.00    0.0
2019/01/19 00:04:00.000   47.480994955   19.056531588   207.5024   5  22   0.4381   0.3955   0.2308   0.1566   0.1566   0.1919   0.00    0.0
2019/01/19 00:04:30.000   47.480998201   19.056532106   208.2529   5  22   0.4381   0.3952   0.2309   0.1563   0.1563   0.1919   0.00    0.0
2019/01/19 00:05:00.000   47.481000351   19.056529246   208.7023   5  22   0.4380   0.3948   0.2310   0.1560   0.1560   0.1919   0.00    0.0
2019/01/19 00:05:30.000   47.481001766   19.056527968   209.4403   5  22   0.4380   0.3944   0.2311   0.1557   0.1557   0.1918   0.00    0.0
2019/01/19 00:06:00.000   47.481005030   19.056527732   210.1982   5  22   0.4380   0.3940   0.2311   0.1554   0.1554   0.1918   0.00    0.0
2019/01/19 00:06:30.000   47.481008799   19.056527474   210.7289   5  22   0.4379   0.3935   0.2311   0.1550   0.1550   0.1918   0.00    0.0
2019/01/19 00:07:00.000   47.481014691   19.056527391   211.7439   5  22   0.4379   0.3930   0.2311   0.1546   0.1546   0.1917   0.00    0.0
2019/01/19 00:07:30.000   47.481020749   19.056524703   213.0410   5  22   0.4378   0.3924   0.2311   0.1542   0.1542   0.1917   0.00    0.0
2019/01/19 00:08:00.000   47.481026415   19.056521886   214.2372   5  22   0.4377   0.3918   0.2311   0.1537   0.1537   0.1916   0.00    0.0
2019/01/19 00:08:30.000   47.481031038   19.056520271   215.4639   5  22   0.4376   0.3912   0.2310   0.1532   0.1532   0.1915   0.00    0.0
2019/01/19 00:09:00.000   47.481035267   19.056517520   216.4877   5  22   0.4376   0.3905   0.2310   0.1527   0.1527   0.1915   0.00    0.0
2019/01/19 00:09:30.000   47.481038665   19.056516399   217.5313   5  22   0.4375   0.3898   0.2309   0.1522   0.1522   0.1914   0.00    0.0
2019/01/19 00:10:00.000   47.481044064   19.056515112   218.7229   5  22   0.4374   0.3891   0.2308   0.1516   0.1516   0.1913   0.00    0.0
2019/01/19 00:10:30.000   47.481051492   19.056511976   220.0828   5  22   0.4373   0.3883   0.2307   0.1510   0.1510   0.1912   0.00    0.0
2019/01/19 00:11:00.000   47.481060080   19.056507731   221.4699   5  22   0.4372   0.3875   0.2306   0.1504   0.1504   0.1911   0.00    0.0
2019/01/19 00:11:30.000   47.481068693   19.056504970   223.0269   5  22   0.4370   0.3867   0.2304   0.1497   0.1497   0.1910   0.00    0.0
2019/01/19 00:12:00.000   47.481076965   19.056503651   224.7301   5  22   0.4369   0.3858   0.2303   0.1491   0.1491   0.1909   0.00    0.0
2019/01/19 00:12:30.000   47.481085342   19.056500676   226.3151   5  22   0.4368   0.3849   0.2301   0.1484   0.1484   0.1908   0.00    0.0
2019/01/19 00:13:00.000   47.481095406   19.056497812   228.1649   5  22   0.4367   0.3840   0.2299   0.1477   0.1477   0.1907   0.00    0.0
2019/01/19 00:13:30.000   47.481105541   19.056497026   230.6456   5  22   0.4365   0.3830   0.2297   0.1469   0.1469   0.1906   0.00    0.0
2019/01/19 00:14:00.000   47.481117574   19.056493803   233.6486   5  22   0.4364   0.3820   0.2295   0.1462   0.1462   0.1905   0.00    0.0
2019/01/19 00:14:30.000   47.481131498   19.056488820   236.9382   5  22   0.4363   0.3810   0.2293   0.1454   0.1454   0.1903   0.00    0.0
2019/01/19 00:15:00.000   47.481145696   19.056482773   240.2427   5  22   0.4361   0.3800   0.2291   0.1447   0.1447   0.1902   0.00    0.0
2019/01/19 00:15:30.000   47.481109196   19.056495572   232.5026   5  21   0.4560   0.4500   0.2250   0.2028   0.2028   0.2079   0.00    0.0
2019/01/19 00:16:00.000   47.480957561   19.056555542   199.6210   5  20   0.5117   0.6167   0.2122   0.3806   0.3806   0.2618   0.00    0.0
2019/01/19 00:16:30.000   47.480957349   19.056555406   199.3159   5  20   0.5121   0.6171   0.2115   0.3812   0.3812   0.2622   0.00    0.0
2019/01/19 00:17:00.000   47.480956105   19.056557798   198.7183   5  20   0.5125   0.6175   0.2108   0.3816   0.3816   0.2626   0.00    0.0
2019/01/19 00:17:30.000   47.480955605   19.056556653   198.2284   5  20   0.5128   0.6178   0.2100   0.3819   0.3819   0.2630   0.00    0.0
2019/01/19 00:18:00.000   47.480955509   19.056556063   197.9619   5  20   0.5132   0.6179   0.2092   0.3821   0.3821   0.2633   0.00    0.0
2019/01/19 00:18:30.000   47.480954979   19.056557068   197.9707   5  20   0.5134   0.6179   0.2084   0.3821   0.3821   0.2636   0.00    0.0
2019/01/19 00:19:00.000   47.480953627   19.056557322   198.0254   5  20   0.5137   0.6179   0.2075   0.3820   0.3820   0.2639   0.00    0.0
2019/01/19 00:19:30.000   47.480952850   19.056555754   198.1143   5  20   0.5139   0.6177   0.2066   0.3818   0.3818   0.2641   0.00    0.0
2019/01/19 00:20:00.000   47.480952550   19.056554329   198.0818   5  20   0.5141   0.6174   0.2057   0.3815   0.3815   0.2643   0.00    0.0
2019/01/19 00:20:30.000   47.481076562   19.056615530   226.5860   5  22   0.4750   0.4663   0.0426   0.2178   0.2178   0.2256   0.00    0.0
2019/01/19 00:21:00.000   47.481068586   19.056613247   224.8227   5  22   0.4755   0.4679   0.0417   0.2193   0.2193   0.2261   0.00    0.0
2019/01/19 00:21:30.000   47.481059392   19.056612854   223.1254   5  22   0.4761   0.4694   0.0408   0.2207   0.2207   0.2266   0.00    0.0
2019/01/19 00:22:00.000   47.481050953   19.056611480   221.5348   5  22   0.4766   0.4709   0.0399   0.2221   0.2221   0.2271   0.00    0.0
2019/01/19 00:22:30.000   47.481043751   19.056609778   219.8562   5  22   0.4771   0.4724   0.0391   0.2234   0.2234   0.2276   0.00    0.0
2019/01/19 00:23:00.000   47.481038453   19.056605281   218.2764   5  22   0.4776   0.4738   0.0382   0.2248   0.2248   0.2281   0.00    0.0
2019/01/19 00:23:30.000   47.481032042   19.056600550   216.7472   5  22   0.4781   0.4751   0.0374   0.2260   0.2260   0.2286   0.00    0.0
2019/01/19 00:24:00.000   47.481025331   19.056597096   215.2688   5  22   0.4786   0.4765   0.0367   0.2273   0.2273   0.2290   0.00    0.0
2019/01/19 00:24:30.000   47.481018494   19.056594192   213.5917   5  22   0.4791   0.4777   0.0359   0.2285   0.2285   0.2295   0.00    0.0
2019/01/19 00:25:00.000   47.481011047   19.056592539   211.8935   5  22   0.4795   0.4789   0.0352   0.2296   0.2296   0.2299   0.00    0.0
2019/01/19 00:25:30.000   47.481003988   19.056592371   210.5697   5  22   0.4799   0.4801   0.0346   0.2308   0.2308   0.2303   0.00    0.0
2019/01/19 00:26:00.000   47.480998684   19.056591158   209.8330   5  22   0.4804   0.4812   0.0340   0.2318   0.2318   0.2308   0.00    0.0
2019/01/19 00:26:30.000   47.480994575   19.056588589   209.3603   5  22   0.4808   0.4823   0.0334   0.2328   0.2328   0.2311   0.00    0.0
2019/01/19 00:27:00.000   47.480991668   19.056586065   209.0616   5  22   0.4812   0.4833   0.0329   0.2338   0.2338   0.2315   0.00    0.0
2019/01/19 00:27:30.000   47.480990255   19.056585363   208.5316   5  22   0.4816   0.4842   0.0325   0.2347   0.2347   0.2319   0.00    0.0
2019/01/19 00:28:00.000   47.480989336   19.056582972   207.9349   5  22   0.4819   0.4851   0.0321   0.2356   0.2356   0.2322   0.00    0.0
2019/01/19 00:28:30.000   47.480986541   19.056580676   207.0091   5  22   0.4823   0.4860   0.0318   0.2364   0.2364   0.2326   0.00    0.0
2019/01/19 00:29:00.000   47.480984124   19.056578424   206.2333   5  22   0.4826   0.4868   0.0315   0.2372   0.2372   0.2329   0.00    0.0
2019/01/19 00:29:30.000   47.480980530   19.056578051   205.1900   5  22   0.4829   0.4876   0.0313   0.2379   0.2379   0.2332   0.00    0.0
2019/01/19 00:30:00.000   47.480976663   19.056577029   204.2583   5  22   0.4832   0.4882   0.0312   0.2386   0.2386   0.2335   0.00    0.0
2019/01/19 00:30:30.000   47.480972699   19.056576486   203.5207   5  22   0.4835   0.4889   0.0312   0.2392   0.2392   0.2337   0.00    0.0
2019/01/19 00:31:00.000   47.480968639   19.056576692   202.9329   5  22   0.4837   0.4895   0.0312   0.2398   0.2398   0.2340   0.00    0.0
2019/01/19 00:31:30.000   47.480966512   19.056573657   203.1169   5  22   0.4839   0.4900   0.0313   0.2403   0.2403   0.2342   0.00    0.0
2019/01/19 00:32:00.000   47.480964002   19.056574707   203.1883   5  22   0.4842   0.4905   0.0315   0.2408   0.2408   0.2344   0.00    0.0
2019/01/19 00:32:30.000   47.480960742   19.056576772   202.8078   5  22   0.4844   0.4909   0.0318   0.2412   0.2412   0.2346   0.00    0.0
2019/01/19 00:33:00.000   47.480958234   19.056577992   202.3283   5  22   0.4845   0.4912   0.0321   0.2415   0.2415   0.2348   0.00    0.0
2019/01/19 00:33:30.000   47.480955471   19.056578469   201.9584   5  22   0.4847   0.4915   0.0325   0.2418   0.2418   0.2349   0.00    0.0
2019/01/19 00:34:00.000   47.480952899   19.056578347   201.4897   5  22   0.4848   0.4918   0.0330   0.2420   0.2420   0.2351   0.00    0.0
2019/01/19 00:34:30.000   47.480951386   19.056576320   201.2121   5  22   0.4850   0.4919   0.0336   0.2422   0.2422   0.2352   0.00    0.0
2019/01/19 00:35:00.000   47.480949813   19.056573900   200.9502   5  22   0.4851   0.4921   0.0342   0.2423   0.2423   0.2353   0.00    0.0
2019/01/19 00:35:30.000   47.480949165   19.056571060   200.6761   5  22   0.4851   0.4922   0.0348   0.2424   0.2424   0.2354   0.00    0.0
2019/01/19 00:36:00.000   47.480948234   19.056569047   200.5375   5  22   0.4852   0.4922   0.0356   0.2424   0.2424   0.2354   0.00    0.0
2019/01/19 00:36:30.000   47.480946583   19.056567693   200.4341   5  22   0.4852   0.4921   0.0364   0.2424   0.2424   0.2354   0.00    0.0
2019/01/19 00:37:00.000   47.480943560   19.056566815   200.1388   5  22   0.4852   0.4920   0.0372   0.2423   0.2423   0.2355   0.00    0.0
2019/01/19 00:37:30.000   47.480940834   19.056565360   199.7261   5  22   0.4852   0.4919   0.0381   0.2422   0.2422   0.2355   0.00    0.0
2019/01/19 00:38:00.000   47.480938333   19.056565068   199.1247   5  22   0.4852   0.4917   0.0390   0.2420   0.2420   0.2354   0.00    0.0
2019/01/19 00:38:30.000   47.480936965   19.056565538   198.8076   5  22   0.4852   0.4914   0.0399   0.2417   0.2417   0.2354   0.00    0.0
2019/01/19 00:39:00.000   47.480934942   19.056566050   198.8358   5  22   0.4851   0.4911   0.0409   0.2414   0.2414   0.2353   0.00    0.0
2019/01/19 00:39:30.000   47.480875094   19.056596997   206.6306   5  24   0.4529   0.4863   -nan(ind)   0.2368   0.2368   0.2051   0.00    0.0
2019/01/19 00:40:00.000   47.480877823   19.056596454   206.8716   5  24   0.4530   0.4860   -nan(ind)   0.2364   0.2364   0.2052   0.00    0.0
2019/01/19 00:40:30.000   47.480878695   19.056596777   206.8972   5  24   0.4530   0.4856   -nan(ind)   0.2360   0.2360   0.2052   0.00    0.0
2019/01/19 00:41:00.000   47.480879735   19.056599087   206.6191   5  24   0.4531   0.4851   -nan(ind)   0.2356   0.2356   0.2053   0.00    0.0
2019/01/19 00:41:30.000   47.480879811   19.056599145   206.1787   5  24   0.4531   0.4846   -nan(ind)   0.2351   0.2351   0.2053   0.00    0.0
2019/01/19 00:42:00.000   47.480877851   19.056599281   205.5526   5  24   0.4531   0.4841   -nan(ind)   0.2346   0.2346   0.2053   0.00    0.0
2019/01/19 00:42:30.000   47.480876336   19.056597825   205.0857   5  24   0.4530   0.4835   -nan(ind)   0.2340   0.2340   0.2052   0.00    0.0
2019/01/19 00:43:00.000   47.480875512   19.056594942   204.9675   5  24   0.4530   0.4829   -nan(ind)   0.2334   0.2334   0.2052   0.00    0.0
2019/01/19 00:43:30.000   47.480876759   19.056593263   205.0886   5  24   0.4529   0.4822   -nan(ind)   0.2327   0.2327   0.2051   0.00    0.0
2019/01/19 00:44:00.000   47.480876904   19.056591137   205.2426   5  24   0.4528   0.4814   -nan(ind)   0.2320   0.2320   0.2051   0.00    0.0
2019/01/19 00:44:30.000   47.480877065   19.056590655   205.2450   5  24   0.4527   0.4807   -nan(ind)   0.2313   0.2313   0.2050   0.00    0.0
2019/01/19 00:45:00.000   47.480875766   19.056591933   205.0717   5  24   0.4526   0.4798   -nan(ind)   0.2305   0.2305   0.2049   0.00    0.0
2019/01/19 00:45:30.000   47.480875130   19.056593803   204.9455   5  24   0.4525   0.4790   -nan(ind)   0.2296   0.2296   0.2047   0.00    0.0
2019/01/19 00:46:00.000   47.480875392   19.056593636   204.9303   5  24   0.4523   0.4781   -nan(ind)   0.2288   0.2288   0.2046   0.00    0.0
2019/01/19 00:46:30.000   47.480875074   19.056594461   204.8706   5  24   0.4521   0.4771   -nan(ind)   0.2278   0.2278   0.2044   0.00    0.0
2019/01/19 00:47:00.000   47.480874653   19.056593747   205.0842   5  24   0.4520   0.4761   -nan(ind)   0.2269   0.2269   0.2043   0.00    0.0
2019/01/19 00:47:30.000   47.480865278   19.056614822   206.4888   5  22   0.4600   0.4780   -nan(ind)   0.2288   0.2288   0.2116   0.00    0.0
2019/01/19 00:48:00.000   47.480872109   19.056594058   205.2354   5  24   0.4515   0.4740   -nan(ind)   0.2249   0.2249   0.2039   0.00    0.0
2019/01/19 00:48:30.000   47.480872463   19.056591379   205.3289   5  24   0.4513   0.4729   -nan(ind)   0.2238   0.2238   0.2037   0.00    0.0
2019/01/19 00:49:00.000   47.480872045   19.056592572   205.3963   5  24   0.4510   0.4717   -nan(ind)   0.2228   0.2228   0.2034   0.00    0.0
2019/01/19 00:49:30.000   47.480872605   19.056594876   205.3791   5  24   0.4508   0.4706   -nan(ind)   0.2216   0.2216   0.2032   0.00    0.0
2019/01/19 00:50:00.000   47.480872470   19.056594893   205.1517   5  24   0.4505   0.4693   -nan(ind)   0.2205   0.2205   0.2029   0.00    0.0
2019/01/19 00:50:30.000   47.480866471   19.056611917   206.3083   5  22   0.4588   0.4721   0.0282   0.2231   0.2231   0.2105   0.00    0.0
2019/01/19 00:51:00.000   47.480865738   19.056612012   206.4292   5  22   0.4585   0.4710   0.0315   0.2221   0.2221   0.2102   0.00    0.0
2019/01/19 00:51:30.000   47.480864464   19.056612555   206.6950   5  22   0.4582   0.4699   0.0345   0.2210   0.2210   0.2100   0.00    0.0
2019/01/19 00:52:00.000   47.481045447   19.056456330   237.4673   5  26   0.4185   0.3441   0.0713   0.1187   0.1187   0.1751   0.00    0.0
2019/01/19 00:52:30.000   47.481029313   19.056465999   234.7951   5  26   0.4187   0.3444   0.0712   0.1188   0.1188   0.1753   0.00    0.0
2019/01/19 00:53:00.000   47.481015201   19.056475944   232.6165   5  26   0.4188   0.3446   0.0712   0.1189   0.1189   0.1754   0.00    0.0
2019/01/19 00:53:30.000   47.480999280   19.056498472   231.6564   5  24   0.4291   0.3533   0.1479   0.1250   0.1250   0.1841   0.00    0.0
2019/01/19 00:54:00.000   47.480989169   19.056506680   229.8996   5  24   0.4292   0.3536   0.1480   0.1252   0.1252   0.1842   0.00    0.0
2019/01/19 00:54:30.000   47.480980245   19.056513206   228.0175   5  24   0.4294   0.3539   0.1482   0.1255   0.1255   0.1843   0.00    0.0
2019/01/19 00:55:00.000   47.480976963   19.056501472   225.5760   5  26   0.4193   0.3453   0.0708   0.1194   0.1194   0.1758   0.00    0.0
2019/01/19 00:55:30.000   47.480967998   19.056507569   225.0549   5  26   0.4194   0.3454   0.0707   0.1195   0.1195   0.1759   0.00    0.0
2019/01/19 00:56:00.000   47.480957216   19.056523134   225.4636   5  24   0.4297   0.3547   0.1485   0.1260   0.1260   0.1847   0.00    0.0
2019/01/19 00:56:30.000   47.480949873   19.056526092   224.8181   5  24   0.4298   0.3550   0.1486   0.1262   0.1262   0.1848   0.00    0.0
2019/01/19 00:57:00.000   47.480942351   19.056529424   223.7552   5  24   0.4299   0.3552   0.1486   0.1264   0.1264   0.1849   0.00    0.0
2019/01/19 00:57:30.000   47.480936128   19.056533146   222.6436   5  24   0.4300   0.3554   0.1487   0.1265   0.1265   0.1849   0.00    0.0
2019/01/19 00:58:00.000   47.480966506   19.056489608   215.1542   5  22   0.4810   0.3765   0.2607   0.1419   0.1419   0.2314   0.00    0.0
2019/01/19 00:58:30.000   47.480959777   19.056491899   214.4607   5  22   0.4810   0.3768   0.2609   0.1421   0.1421   0.2313   0.00    0.0
2019/01/19 00:59:00.000   47.480953505   19.056493897   213.9294   5  22   0.4809   0.3771   0.2611   0.1424   0.1424   0.2313   0.00    0.0
2019/01/19 00:59:30.000   47.480948198   19.056497493   213.5317   5  22   0.4808   0.3773   0.2613   0.1425   0.1425   0.2312   0.00    0.0
2019/01/19 01:00:00.000   47.480942890   19.056501071   213.4494   5  22   0.4807   0.3775   0.2615   0.1427   0.1427   0.2311   0.00    0.0
2019/01/19 01:00:30.000   47.480937101   19.056504156   213.4711   5  22   0.4806   0.3778   0.2616   0.1429   0.1429   0.2309   0.00    0.0
2019/01/19 01:01:00.000   47.480930530   19.056508224   213.0151   5  22   0.4804   0.3780   0.2618   0.1430   0.1430   0.2308   0.00    0.0
2019/01/19 01:01:30.000   47.480924263   19.056511163   212.7507   5  22   0.4803   0.3781   0.2619   0.1432   0.1432   0.2307   0.00    0.0
2019/01/19 01:02:00.000   47.480918618   19.056513894   212.9337   5  22   0.4801   0.3783   0.2620   0.1433   0.1433   0.2305   0.00    0.0
2019/01/19 01:02:30.000   47.480913351   19.056515575   213.3116   5  22   0.4800   0.3784   0.2621   0.1434   0.1434   0.2304   0.00    0.0
2019/01/19 01:03:00.000   47.480908168   19.056518247   213.8195   5  22   0.4798   0.3785   0.2622   0.1435   0.1435   0.2302   0.00    0.0
2019/01/19 01:03:30.000   47.480901820   19.056523519   214.3351   5  22   0.4796   0.3786   0.2623   0.1435   0.1435   0.2300   0.00    0.0
2019/01/19 01:04:00.000   47.480896002   19.056526842   214.9178   5  22   0.4794   0.3787   0.2623   0.1436   0.1436   0.2298   0.00    0.0
2019/01/19 01:04:30.000   47.480888671   19.056530215   215.5913   5  22   0.4792   0.3787   0.2624   0.1436   0.1436   0.2296   0.00    0.0
2019/01/19 01:05:00.000   47.480881887   19.056532113   216.0708   5  22   0.4790   0.3787   0.2624   0.1436   0.1436   0.2294   0.00    0.0
2019/01/19 01:05:30.000   47.480876129   19.056532323   216.5418   5  22   0.4787   0.3787   0.2624   0.1436   0.1436   0.2292   0.00    0.0
2019/01/19 01:06:00.000   47.480871382   19.056531395   217.1046   5  22   0.4785   0.3787   0.2624   0.1436   0.1436   0.2290   0.00    0.0
2019/01/19 01:06:30.000   47.480865499   19.056532170   217.7313   5  22   0.4782   0.3786   0.2624   0.1436   0.1436   0.2287   0.00    0.0
2019/01/19 01:07:00.000   47.480860072   19.056535249   218.4427   5  22   0.4780   0.3786   0.2624   0.1435   0.1435   0.2284   0.00    0.0
2019/01/19 01:07:30.000   47.480853960   19.056538420   219.1518   5  22   0.4777   0.3785   0.2623   0.1435   0.1435   0.2282   0.00    0.0
2019/01/19 01:08:00.000   47.480985593   19.056515612   194.2291   5  20   0.6474   0.4518   0.3880   0.2043   0.2043   0.4191   0.00    0.0
2019/01/19 01:08:30.000   47.480984855   19.056516576   193.4647   5  20   0.6476   0.4524   0.3891   0.2048   0.2048   0.4194   0.00    0.0
2019/01/19 01:09:00.000   47.480985607   19.056516682   193.0027   5  20   0.6478   0.4529   0.3901   0.2053   0.2053   0.4196   0.00    0.0
2019/01/19 01:09:30.000   47.480985897   19.056517292   192.5946   5  20   0.6480   0.4534   0.3911   0.2057   0.2057   0.4198   0.00    0.0
2019/01/19 01:10:00.000   47.480985437   19.056518538   192.2985   5  20   0.6481   0.4539   0.3921   0.2062   0.2062   0.4200   0.00    0.0
2019/01/19 01:10:30.000   47.480984441   19.056520970   192.0472   5  20   0.6482   0.4543   0.3931   0.2066   0.2066   0.4202   0.00    0.0
2019/01/19 01:11:00.000   47.480981394   19.056525594   191.9399   5  20   0.6483   0.4547   0.3941   0.2069   0.2069   0.4204   0.00    0.0
2019/01/19 01:11:30.000   47.480953268   19.056579571   199.4952   5  22   0.5794   0.3897   0.2483   0.1520   0.1520   0.3357   0.00    0.0
2019/01/19 01:12:00.000   47.480952230   19.056578889   199.2990   5  22   0.5796   0.3904   0.2494   0.1525   0.1525   0.3359   0.00    0.0
2019/01/19 01:12:30.000   47.480950597   19.056578564   198.7824   5  22   0.5797   0.3911   0.2505   0.1531   0.1531   0.3361   0.00    0.0
2019/01/19 01:13:00.000   47.480949680   19.056576777   198.5341   5  22   0.5799   0.3917   0.2516   0.1536   0.1536   0.3363   0.00    0.0
2019/01/19 01:13:30.000   47.480951143   19.056575104   198.2477   5  22   0.5800   0.3923   0.2527   0.1541   0.1541   0.3364   0.00    0.0
2019/01/19 01:14:00.000   47.480952737   19.056571815   197.9247   5  22   0.5802   0.3930   0.2538   0.1545   0.1545   0.3366   0.00    0.0
2019/01/19 01:14:30.000   47.480955461   19.056567919   197.4148   5  22   0.5803   0.3936   0.2548   0.1550   0.1550   0.3368   0.00    0.0
2019/01/19 01:15:00.000   47.480957922   19.056564796   196.8654   5  22   0.5804   0.3941   0.2559   0.1555   0.1555   0.3369   0.00    0.0
2019/01/19 01:15:30.000   47.480958713   19.056564526   196.5199   5  22   0.5805   0.3947   0.2569   0.1559   0.1559   0.3370   0.00    0.0
2019/01/19 01:16:00.000   47.480958965   19.056565216   196.2156   5  22   0.5806   0.3952   0.2580   0.1563   0.1563   0.3371   0.00    0.0
2019/01/19 01:16:30.000   47.480959814   19.056565818   195.8816   5  22   0.5807   0.3957   0.2590   0.1567   0.1567   0.3372   0.00    0.0
2019/01/19 01:17:00.000   47.480959794   19.056565410   195.6730   5  22   0.5807   0.3962   0.2600   0.1571   0.1571   0.3373   0.00    0.0
2019/01/19 01:17:30.000   47.480961073   19.056565504   195.3525   5  22   0.5808   0.3966   0.2610   0.1574   0.1574   0.3373   0.00    0.0
2019/01/19 01:18:00.000   47.480961335   19.056563978   195.0886   5  22   0.5808   0.3971   0.2620   0.1578   0.1578   0.3374   0.00    0.0
2019/01/19 01:18:30.000   47.480962094   19.056562310   194.7135   5  22   0.5808   0.3975   0.2630   0.1581   0.1581   0.3374   0.00    0.0
2019/01/19 01:19:00.000   47.480962044   19.056561779   194.1636   5  22   0.5808   0.3979   0.2640   0.1584   0.1584   0.3374   0.00    0.0
2019/01/19 01:19:30.000   47.480961506   19.056560192   193.8930   5  22   0.5808   0.3983   0.2650   0.1587   0.1587   0.3374   0.00    0.0
2019/01/19 01:20:00.000   47.480960699   19.056558882   193.9570   5  22   0.5808   0.3986   0.2659   0.1590   0.1590   0.3373   0.00    0.0
2019/01/19 01:20:30.000   47.480959173   19.056557454   193.9970   5  22   0.5808   0.3989   0.2668   0.1592   0.1592   0.3373   0.00    0.0
2019/01/19 01:21:00.000   47.480958680   19.056555655   194.0459   5  22   0.5807   0.3992   0.2678   0.1595   0.1595   0.3372   0.00    0.0
2019/01/19 01:21:30.000   47.480958273   19.056553253   194.1076   5  22   0.5806   0.3995   0.2687   0.1597   0.1597   0.3371   0.00    0.0
2019/01/19 01:22:00.000   47.480958355   19.056549792   193.7998   5  22   0.5806   0.3997   0.2696   0.1599   0.1599   0.3370   0.00    0.0
2019/01/19 01:22:30.000   47.480959140   19.056545496   193.4686   5  22   0.5804   0.4000   0.2705   0.1601   0.1601   0.3369   0.00    0.0
2019/01/19 01:23:00.000   47.480959217   19.056543868   193.3262   5  22   0.5803   0.4002   0.2713   0.1602   0.1602   0.3368   0.00    0.0
2019/01/19 01:23:30.000   47.480959250   19.056542430   193.3013   5  22   0.5802   0.4004   0.2722   0.1604   0.1604   0.3366   0.00    0.0
2019/01/19 01:24:00.000   47.480959731   19.056543232   193.2181   5  22   0.5800   0.4005   0.2730   0.1605   0.1605   0.3365   0.00    0.0
2019/01/19 01:24:30.000   47.480961205   19.056544584   193.0488   5  22   0.5799   0.4006   0.2739   0.1606   0.1606   0.3363   0.00    0.0
2019/01/19 01:25:00.000   47.480962300   19.056546363   192.8044   5  22   0.5797   0.4008   0.2747   0.1607   0.1607   0.3360   0.00    0.0
2019/01/19 01:25:30.000   47.480964311   19.056547073   192.2382   5  22   0.5795   0.4008   0.2755   0.1608   0.1608   0.3358   0.00    0.0
2019/01/19 01:26:00.000   47.481057139   19.056480108   209.1309   5  24   0.5742   0.3737   0.2829   0.1398   0.1398   0.3297   0.00    0.0
2019/01/19 01:26:30.000   47.481052352   19.056481706   207.3917   5  24   0.5741   0.3743   0.2836   0.1403   0.1403   0.3296   0.00    0.0
2019/01/19 01:27:00.000   47.481044690   19.056485676   206.1416   5  24   0.5740   0.3749   0.2843   0.1407   0.1407   0.3295   0.00    0.0
2019/01/19 01:27:30.000   47.481038549   19.056489708   205.1120   5  24   0.5739   0.3755   0.2849   0.1412   0.1412   0.3294   0.00    0.0
2019/01/19 01:28:00.000   47.481033283   19.056493775   204.2498   5  24   0.5738   0.3761   0.2856   0.1416   0.1416   0.3292   0.00    0.0
2019/01/19 01:28:30.000   47.481027931   19.056497942   203.6644   5  24   0.5736   0.3766   0.2862   0.1420   0.1420   0.3291   0.00    0.0
2019/01/19 01:29:00.000   47.481023975   19.056501328   203.0149   5  24   0.5735   0.3772   0.2868   0.1424   0.1424   0.3289   0.00    0.0
2019/01/19 01:29:30.000   47.481021205   19.056502766   202.2304   5  24   0.5733   0.3777   0.2874   0.1428   0.1428   0.3287   0.00    0.0
2019/01/19 01:30:00.000   47.481018182   19.056505008   201.5786   5  24   0.5731   0.3782   0.2880   0.1431   0.1431   0.3284   0.00    0.0
2019/01/19 01:30:30.000   47.481015642   19.056508405   200.8308   5  24   0.5729   0.3786   0.2886   0.1435   0.1435   0.3282   0.00    0.0
2019/01/19 01:31:00.000   47.481013327   19.056509413   199.9800   5  24   0.5726   0.3790   0.2891   0.1438   0.1438   0.3279   0.00    0.0
2019/01/19 01:31:30.000   47.481009946   19.056509884   199.3525   5  24   0.5724   0.3794   0.2896   0.1441   0.1441   0.3276   0.00    0.0
2019/01/19 01:32:00.000   47.481007783   19.056510529   198.8388   5  24   0.5721   0.3798   0.2902   0.1444   0.1444   0.3273   0.00    0.0
2019/01/19 01:32:30.000   47.481006885   19.056511383   198.4480   5  24   0.5718   0.3802   0.2907   0.1447   0.1447   0.3270   0.00    0.0
2019/01/19 01:33:00.000   47.481004391   19.056513159   198.2488   5  24   0.5715   0.3805   0.2911   0.1449   0.1449   0.3266   0.00    0.0
2019/01/19 01:33:30.000   47.481001380   19.056514058   197.8383   5  24   0.5712   0.3808   0.2916   0.1451   0.1451   0.3263   0.00    0.0
2019/01/19 01:34:00.000   47.480999203   19.056513761   197.4726   5  24   0.5708   0.3811   0.2920   0.1454   0.1454   0.3259   0.00    0.0
2019/01/19 01:34:30.000   47.480997115   19.056513048   197.1571   5  24   0.5705   0.3814   0.2925   0.1455   0.1455   0.3254   0.00    0.0
2019/01/19 01:35:00.000   47.480994948   19.056512580   197.0960   5  24   0.5701   0.3816   0.2929   0.1457   0.1457   0.3250   0.00    0.0
2019/01/19 01:35:30.000   47.480993851   19.056512612   196.8043   5  24   0.5697   0.3818   0.2933   0.1459   0.1459   0.3245   0.00    0.0
2019/01/19 01:36:00.000   47.480992713   19.056514972   196.5602   5  24   0.5693   0.3820   0.2937   0.1460   0.1460   0.3241   0.00    0.0
2019/01/19 01:36:30.000   47.480990470   19.056517362   196.5773   5  24   0.5688   0.3821   0.2940   0.1461   0.1461   0.3235   0.00    0.0
2019/01/19 01:37:00.000   47.480988419   19.056520303   196.6717   5  24   0.5683   0.3822   0.2944   0.1462   0.1462   0.3230   0.00    0.0
2019/01/19 01:37:30.000   47.480987380   19.056522145   196.6736   5  24   0.5679   0.3823   0.2947   0.1463   0.1463   0.3225   0.00    0.0
2019/01/19 01:38:00.000   47.480986137   19.056522444   196.5983   5  24   0.5674   0.3824   0.2950   0.1464   0.1464   0.3219   0.00    0.0
2019/01/19 01:38:30.000   47.480984990   19.056522053   196.3811   5  24   0.5668   0.3825   0.2953   0.1464   0.1464   0.3213   0.00    0.0
2019/01/19 01:39:00.000   47.480984848   19.056522264   196.2987   5  24   0.5663   0.3825   0.2956   0.1464   0.1464   0.3207   0.00    0.0
2019/01/19 01:39:30.000   47.480970851   19.056581765   203.1564   5  26   0.5472   0.3545   0.2377   0.1258   0.1258   0.2994   0.00    0.0
2019/01/19 01:40:00.000   47.480972147   19.056574718   202.2868   5  26   0.5467   0.3547   0.2382   0.1259   0.1259   0.2989   0.00    0.0
2019/01/19 01:40:30.000   47.480971516   19.056571163   201.9117   5  26   0.5463   0.3548   0.2386   0.1260   0.1260   0.2984   0.00    0.0
2019/01/19 01:41:00.000   47.480970219   19.056568140   201.5708   5  26   0.5458   0.3550   0.2391   0.1261   0.1261   0.2979   0.00    0.0
2019/01/19 01:41:30.000   47.480969851   19.056565516   201.4637   5  26   0.5453   0.3551   0.2395   0.1262   0.1262   0.2973   0.00    0.0
2019/01/19 01:42:00.000   47.480969342   19.056562848   201.3585   5  26   0.5448   0.3552   0.2399   0.1263   0.1263   0.2968   0.00    0.0
2019/01/19 01:42:30.000   47.480970339   19.056560466   201.3241   5  26   0.5443   0.3553   0.2403   0.1264   0.1264   0.2962   0.00    0.0
2019/01/19 01:43:00.000   47.480971377   19.056559316   201.3800   5  26   0.5437   0.3554   0.2407   0.1264   0.1264   0.2956   0.00    0.0
2019/01/19 01:43:30.000   47.480972804   19.056557977   201.3367   5  26   0.5432   0.3554   0.2411   0.1264   0.1264   0.2951   0.00    0.0
2019/01/19 01:44:00.000   47.480972933   19.056559567   201.3459   5  26   0.5426   0.3554   0.2414   0.1264   0.1264   0.2944   0.00    0.0
2019/01/19 01:44:30.000   47.480974303   19.056559534   201.3049   5  26   0.5420   0.3554   0.2418   0.1264   0.1264   0.2938   0.00    0.0
2019/01/19 01:45:00.000   47.480975436   19.056558376   201.3241   5  26   0.5414   0.3554   0.2421   0.1264   0.1264   0.2932   0.00    0.0
2019/01/19 01:45:30.000   47.480975999   19.056557597   201.3088   5  26   0.5408   0.3553   0.2424   0.1264   0.1264   0.2925   0.00    0.0
2019/01/19 01:46:00.000   47.480978061   19.056555956   201.6841   5  26   0.5402   0.3552   0.2427   0.1263   0.1263   0.2918   0.00    0.0
2019/01/19 01:46:30.000   47.480979761   19.056553960   202.0702   5  26   0.5395   0.3551   0.2430   0.1262   0.1262   0.2911   0.00    0.0
2019/01/19 01:47:00.000   47.480980283   19.056553795   202.6040   5  26   0.5389   0.3550   0.2433   0.1262   0.1262   0.2904   0.00    0.0
2019/01/19 01:47:30.000   47.480981145   19.056552509   203.1137   5  26   0.5382   0.3549   0.2436   0.1261   0.1261   0.2897   0.00    0.0
2019/01/19 01:48:00.000   47.480982779   19.056550822   203.6054   5  26   0.5375   0.3547   0.2439   0.1259   0.1259   0.2889   0.00    0.0
2019/01/19 01:48:30.000   47.480984900   19.056549909   204.0869   5  26   0.5368   0.3545   0.2441   0.1258   0.1258   0.2882   0.00    0.0
2019/01/19 01:49:00.000   47.481021530   19.056608456   213.2614   5  28   0.5355   0.3483   0.2395   0.1215   0.1215   0.2868   0.00    0.0
2019/01/19 01:49:30.000   47.481018890   19.056601231   212.8510   5  28   0.5348   0.3483   0.2399   0.1215   0.1215   0.2861   0.00    0.0
2019/01/19 01:50:00.000   47.481018175   19.056593480   212.5937   5  28   0.5341   0.3483   0.2403   0.1214   0.1214   0.2853   0.00    0.0
2019/01/19 01:50:30.000   47.481018110   19.056586871   212.4505   5  28   0.5334   0.3482   0.2406   0.1214   0.1214   0.2845   0.00    0.0
2019/01/19 01:51:00.000   47.481018367   19.056580441   212.5019   5  28   0.5327   0.3481   0.2410   0.1213   0.1213   0.2837   0.00    0.0
2019/01/19 01:51:30.000   47.481019273   19.056574704   212.8055   5  28   0.5319   0.3480   0.2413   0.1213   0.1213   0.2829   0.00    0.0
2019/01/19 01:52:00.000   47.481019386   19.056570149   213.1052   5  28   0.5311   0.3479   0.2417   0.1212   0.1212   0.2821   0.00    0.0
2019/01/19 01:52:30.000   47.481020171   19.056566464   213.5386   5  28   0.5303   0.3477   0.2420   0.1211   0.1211   0.2813   0.00    0.0
2019/01/19 01:53:00.000   47.481021380   19.056563229   214.1712   5  28   0.5295   0.3476   0.2423   0.1210   0.1210   0.2804   0.00    0.0
2019/01/19 01:53:30.000   47.481023764   19.056558754   215.1622   5  28   0.5287   0.3474   0.2426   0.1208   0.1208   0.2795   0.00    0.0
2019/01/19 01:54:00.000   47.481028265   19.056552745   216.1953   5  28   0.5279   0.3472   0.2429   0.1207   0.1207   0.2787   0.00    0.0
2019/01/19 01:54:30.000   47.480991373   19.056548867   211.3238   5  27   0.5271   0.3486   0.2432   0.1217   0.1217   0.2778   0.00    0.0
2019/01/19 01:55:00.000   47.480866759   19.056560904   211.2318   5  28   0.4567   0.3355   0.1634   0.1127   0.1127   0.2086   0.00    0.0
2019/01/19 01:55:30.000   47.480866183   19.056555842   210.3440   5  28   0.4566   0.3361   0.1643   0.1131   0.1131   0.2085   0.00    0.0
2019/01/19 01:56:00.000   47.480866464   19.056551849   209.5298   5  28   0.4565   0.3366   0.1651   0.1135   0.1135   0.2084   0.00    0.0
2019/01/19 01:56:30.000   47.480865428   19.056549007   208.9176   5  28   0.4563   0.3372   0.1659   0.1138   0.1138   0.2082   0.00    0.0
2019/01/19 01:57:00.000   47.480865741   19.056546293   208.5381   5  28   0.4562   0.3377   0.1667   0.1142   0.1142   0.2081   0.00    0.0
2019/01/19 01:57:30.000   47.480866388   19.056542573   208.3456   5  28   0.4560   0.3382   0.1676   0.1145   0.1145   0.2080   0.00    0.0
2019/01/19 01:58:00.000   47.480867152   19.056538881   208.3545   5  28   0.4559   0.3386   0.1684   0.1148   0.1148   0.2078   0.00    0.0
2019/01/19 01:58:30.000   47.480868355   19.056534280   208.4933   5  28   0.4557   0.3391   0.1692   0.1151   0.1151   0.2077   0.00    0.0
2019/01/19 01:59:00.000   47.480869545   19.056531536   208.3736   5  28   0.4555   0.3395   0.1700   0.1154   0.1154   0.2075   0.00    0.0
2019/01/19 01:59:30.000   47.480868917   19.056529234   208.3308   5  28   0.4553   0.3400   0.1707   0.1157   0.1157   0.2073   0.00    0.0
2019/01/19 02:00:00.000   47.480868303   19.056526096   208.2904   5  28   0.4551   0.3404   0.1715   0.1160   0.1160   0.2071   0.00    0.0
2019/01/19 02:00:30.000   47.480865606   19.056523483   208.2966   5  28   0.4549   0.3407   0.1723   0.1162   0.1162   0.2069   0.00    0.0
2019/01/19 02:01:00.000   47.480863353   19.056519231   208.2662   5  28   0.4546   0.3411   0.1731   0.1165   0.1165   0.2067   0.00    0.0
2019/01/19 02:01:30.000   47.480860142   19.056514100   208.2706   5  28   0.4544   0.3414   0.1738   0.1167   0.1167   0.2065   0.00    0.0
2019/01/19 02:02:00.000   47.480857719   19.056509152   208.1684   5  28   0.4541   0.3418   0.1746   0.1169   0.1169   0.2062   0.00    0.0
2019/01/19 02:02:30.000   47.480854229   19.056504050   208.4027   5  28   0.4538   0.3421   0.1753   0.1171   0.1171   0.2060   0.00    0.0
2019/01/19 02:03:00.000   47.480850387   19.056497156   208.7860   5  28   0.4536   0.3423   0.1760   0.1173   0.1173   0.2057   0.00    0.0
2019/01/19 02:03:30.000   47.480846280   19.056489607   209.3180   5  28   0.4533   0.3426   0.1767   0.1175   0.1175   0.2055   0.00    0.0
2019/01/19 02:04:00.000   47.480841994   19.056482366   210.1183   5  28   0.4530   0.3428   0.1775   0.1177   0.1177   0.2052   0.00    0.0
2019/01/19 02:04:30.000   47.480835324   19.056478001   211.1016   5  28   0.4526   0.3430   0.1782   0.1178   0.1178   0.2049   0.00    0.0
2019/01/19 02:05:00.000   47.480829588   19.056473900   212.2761   5  28   0.4523   0.3432   0.1789   0.1179   0.1179   0.2046   0.00    0.0
2019/01/19 02:05:30.000   47.480921118   19.056542335   197.7499   5  26   0.5583   0.3768   0.1924   0.1421   0.1421   0.3117   0.00    0.0
2019/01/19 02:06:00.000   47.480923286   19.056542283   197.6527   5  26   0.5584   0.3775   0.1938   0.1426   0.1426   0.3119   0.00    0.0
2019/01/19 02:06:30.000   47.480925645   19.056540646   197.2755   5  26   0.5585   0.3781   0.1953   0.1431   0.1431   0.3120   0.00    0.0
2019/01/19 02:07:00.000   47.480927578   19.056537250   196.7286   5  26   0.5586   0.3788   0.1967   0.1436   0.1436   0.3120   0.00    0.0
2019/01/19 02:07:30.000   47.480928401   19.056536139   196.0990   5  26   0.5587   0.3794   0.1981   0.1441   0.1441   0.3121   0.00    0.0
2019/01/19 02:08:00.000   47.480928236   19.056538067   195.7738   5  26   0.5587   0.3800   0.1995   0.1445   0.1445   0.3122   0.00    0.0
2019/01/19 02:08:30.000   47.480927262   19.056539923   195.6878   5  26   0.5588   0.3806   0.2008   0.1450   0.1450   0.3122   0.00    0.0
2019/01/19 02:09:00.000   47.480926998   19.056539331   195.7946   5  26   0.5588   0.3812   0.2022   0.1454   0.1454   0.3122   0.00    0.0
2019/01/19 02:09:30.000   47.480926549   19.056536651   195.8409   5  26   0.5588   0.3817   0.2035   0.1458   0.1458   0.3122   0.00    0.0
2019/01/19 02:10:00.000   47.480926945   19.056531034   195.6652   5  26   0.5588   0.3822   0.2049   0.1462   0.1462   0.3122   0.00    0.0
2019/01/19 02:10:30.000   47.480927221   19.056526027   195.5485   5  26   0.5587   0.3827   0.2062   0.1466   0.1466   0.3122   0.00    0.0
2019/01/19 02:11:00.000   47.480927992   19.056524905   195.3821   5  26   0.5587   0.3832   0.2075   0.1469   0.1469   0.3122   0.00    0.0
2019/01/19 02:11:30.000   47.480928319   19.056524852   195.3190   5  26   0.5587   0.3836   0.2088   0.1472   0.1472   0.3121   0.00    0.0
2019/01/19 02:12:00.000   47.480928946   19.056525118   195.4278   5  26   0.5586   0.3840   0.2101   0.1476   0.1476   0.3120   0.00    0.0
2019/01/19 02:12:30.000   47.480929561   19.056523934   195.6466   5  26   0.5585   0.3844   0.2113   0.1479   0.1479   0.3119   0.00    0.0
2019/01/19 02:13:00.000   47.480931201   19.056520714   195.6812   5  26   0.5584   0.3847   0.2126   0.1481   0.1481   0.3118   0.00    0.0
2019/01/19 02:13:30.000   47.480933209   19.056517801   195.4918   5  26   0.5583   0.3851   0.2138   0.1484   0.1484   0.3117   0.00    0.0
2019/01/19 02:14:00.000   47.480934384   19.056515517   195.3615   5  26   0.5581   0.3854   0.2150   0.1486   0.1486   0.3115   0.00    0.0
2019/01/19 02:14:30.000   47.480934966   19.056514390   195.2471   5  26   0.5580   0.3857   0.2163   0.1488   0.1488   0.3114   0.00    0.0
2019/01/19 02:15:00.000   47.480934622   19.056513484   195.3194   5  26   0.5578   0.3859   0.2175   0.1490   0.1490   0.3112   0.00    0.0
2019/01/19 02:15:30.000   47.480935396   19.056512494   195.2971   5  26   0.5576   0.3861   0.2186   0.1492   0.1492   0.3110   0.00    0.0
2019/01/19 02:16:00.000   47.480936663   19.056508968   195.2555   5  26   0.5574   0.3863   0.2198   0.1494   0.1494   0.3107   0.00    0.0
2019/01/19 02:16:30.000   47.480938906   19.056506514   195.1417   5  26   0.5572   0.3865   0.2210   0.1495   0.1495   0.3105   0.00    0.0
2019/01/19 02:17:00.000   47.480938895   19.056505162   195.4057   5  26   0.5570   0.3866   0.2221   0.1496   0.1496   0.3103   0.00    0.0
2019/01/19 02:17:30.000   47.480938447   19.056503589   195.8164   5  26   0.5568   0.3867   0.2232   0.1497   0.1497   0.3100   0.00    0.0
2019/01/19 02:18:00.000   47.480938269   19.056501416   195.9723   5  26   0.5565   0.3868   0.2243   0.1497   0.1497   0.3097   0.00    0.0
2019/01/19 02:18:30.000   47.480938239   19.056499814   196.1149   5  26   0.5562   0.3869   0.2254   0.1498   0.1498   0.3094   0.00    0.0
2019/01/19 02:19:00.000   47.480939182   19.056497376   196.2569   5  26   0.5559   0.3869   0.2265   0.1498   0.1498   0.3091   0.00    0.0
2019/01/19 02:19:30.000   47.480939898   19.056497040   196.6436   5  26   0.5556   0.3869   0.2276   0.1498   0.1498   0.3087   0.00    0.0
2019/01/19 02:20:00.000   47.480941280   19.056495779   197.0453   5  26   0.5553   0.3869   0.2287   0.1498   0.1498   0.3084   0.00    0.0
2019/01/19 02:20:30.000   47.480944461   19.056492875   197.3390   5  26   0.5550   0.3868   0.2297   0.1498   0.1498   0.3080   0.00    0.0
2019/01/19 02:21:00.000   47.480947212   19.056489285   197.9801   5  26   0.5546   0.3868   0.2307   0.1497   0.1497   0.3076   0.00    0.0
2019/01/19 02:21:30.000   47.480950858   19.056487299   198.1930   5  26   0.5543   0.3866   0.2317   0.1496   0.1496   0.3072   0.00    0.0
2019/01/19 02:22:00.000   47.480953042   19.056486181   198.7436   5  26   0.5539   0.3865   0.2327   0.1495   0.1495   0.3068   0.00    0.0
2019/01/19 02:22:30.000   47.480952137   19.056484641   199.8111   5  26   0.5535   0.3863   0.2337   0.1494   0.1494   0.3064   0.00    0.0
2019/01/19 02:23:00.000   47.480950005   19.056483805   201.0316   5  26   0.5531   0.3861   0.2347   0.1492   0.1492   0.3059   0.00    0.0
2019/01/19 02:23:30.000   47.480950321   19.056481807   202.0082   5  26   0.5527   0.3859   0.2357   0.1491   0.1491   0.3054   0.00    0.0
2019/01/19 02:24:00.000   47.480951677   19.056477263   202.4775   5  26   0.5522   0.3857   0.2366   0.1489   0.1489   0.3050   0.00    0.0
2019/01/19 02:24:30.000   47.480955215   19.056472651   202.5000   5  26   0.5518   0.3854   0.2375   0.1486   0.1486   0.3045   0.00    0.0
2019/01/19 02:25:00.000   47.480957093   19.056467558   202.6591   5  26   0.5513   0.3851   0.2384   0.1484   0.1484   0.3039   0.00    0.0
2019/01/19 02:25:30.000   47.480959432   19.056463396   202.8021   5  26   0.5508   0.3847   0.2393   0.1482   0.1482   0.3034   0.00    0.0
2019/01/19 02:26:00.000   47.480960346   19.056458524   203.2760   5  26   0.5503   0.3844   0.2402   0.1479   0.1479   0.3029   0.00    0.0
2019/01/19 02:26:30.000   47.480958046   19.056454266   204.4400   5  26   0.5498   0.3840   0.2411   0.1476   0.1476   0.3023   0.00    0.0
2019/01/19 02:27:00.000   47.480955911   19.056449388   205.7634   5  26   0.5493   0.3835   0.2419   0.1473   0.1473   0.3018   0.00    0.0
2019/01/19 02:27:30.000   47.480954078   19.056445382   207.2967   5  26   0.5488   0.3831   0.2428   0.1469   0.1469   0.3012   0.00    0.0
2019/01/19 02:28:00.000   47.480953736   19.056441745   208.8334   5  26   0.5483   0.3826   0.2436   0.1465   0.1465   0.3006   0.00    0.0
2019/01/19 02:28:30.000   47.480955554   19.056436491   210.0481   5  26   0.5477   0.3821   0.2444   0.1462   0.1462   0.3000   0.00    0.0
2019/01/19 02:29:00.000   47.480958871   19.056429996   210.9388   5  26   0.5471   0.3816   0.2452   0.1458   0.1458   0.2994   0.00    0.0
2019/01/19 02:29:30.000   47.480961883   19.056421879   211.9929   5  26   0.5466   0.3810   0.2460   0.1453   0.1453   0.2987   0.00    0.0
2019/01/19 02:30:00.000   47.480961882   19.056414727   213.6316   5  26   0.5460   0.3804   0.2468   0.1449   0.1449   0.2981   0.00    0.0
2019/01/19 02:30:30.000   47.480960232   19.056408500   215.6375   5  26   0.5454   0.3798   0.2475   0.1444   0.1444   0.2974   0.00    0.0
2019/01/19 02:31:00.000   47.480959638   19.056402426   217.9324   5  26   0.5448   0.3791   0.2483   0.1439   0.1439   0.2968   0.00    0.0
2019/01/19 02:31:30.000   47.480959802   19.056395869   220.3374   5  26   0.5441   0.3784   0.2490   0.1434   0.1434   0.2961   0.00    0.0
2019/01/19 02:32:00.000   47.480960638   19.056386584   222.7480   5  26   0.5435   0.3777   0.2497   0.1429   0.1429   0.2954   0.00    0.0
2019/01/19 02:32:30.000   47.480991185   19.056548786   195.7553   5  24   0.6491   0.4896   0.1901   0.2399   0.2399   0.4213   0.00    0.0
2019/01/19 02:33:00.000   47.480993531   19.056548140   195.8181   5  24   0.6483   0.4892   0.1919   0.2395   0.2395   0.4203   0.00    0.0
2019/01/19 02:33:30.000   47.480995255   19.056548623   196.1409   5  24   0.6475   0.4889   0.1937   0.2392   0.2392   0.4192   0.00    0.0
2019/01/19 02:34:00.000   47.480996176   19.056549610   196.6225   5  24   0.6466   0.4885   0.1954   0.2388   0.2388   0.4181   0.00    0.0
2019/01/19 02:34:30.000   47.480997803   19.056550115   197.4842   5  24   0.6458   0.4880   0.1971   0.2383   0.2383   0.4170   0.00    0.0
2019/01/19 02:35:00.000   47.481000630   19.056549747   198.0987   5  24   0.6449   0.4875   0.1987   0.2378   0.2378   0.4159   0.00    0.0
2019/01/19 02:35:30.000   47.481004707   19.056548945   198.8133   5  24   0.6440   0.4869   0.2004   0.2373   0.2373   0.4147   0.00    0.0
2019/01/19 02:36:00.000   47.481009216   19.056548660   199.6121   5  24   0.6431   0.4864   0.2020   0.2367   0.2367   0.4135   0.00    0.0
2019/01/19 02:36:30.000   47.481012844   19.056549075   200.6659   5  24   0.6421   0.4857   0.2035   0.2361   0.2361   0.4123   0.00    0.0
2019/01/19 02:37:00.000   47.481016694   19.056549716   201.5750   5  24   0.6411   0.4851   0.2051   0.2355   0.2355   0.4110   0.00    0.0
2019/01/19 02:37:30.000   47.481018657   19.056550548   202.7908   5  24   0.6401   0.4844   0.2066   0.2348   0.2348   0.4097   0.00    0.0
2019/01/19 02:38:00.000   47.481019845   19.056551665   204.0325   5  24   0.6391   0.4836   0.2081   0.2341   0.2341   0.4084   0.00    0.0
2019/01/19 02:38:30.000   47.481021236   19.056553751   205.1340   5  24   0.6380   0.4828   0.2095   0.2333   0.2333   0.4071   0.00    0.0
2019/01/19 02:39:00.000   47.481023630   19.056554910   205.8514   5  24   0.6370   0.4820   0.2110   0.2325   0.2325   0.4057   0.00    0.0
2019/01/19 02:39:30.000   47.481030072   19.056556243   207.0548   5  24   0.6359   0.4811   0.2124   0.2317   0.2317   0.4044   0.00    0.0
2019/01/19 02:40:00.000   47.481038263   19.056556043   208.7441   5  24   0.6348   0.4802   0.2138   0.2308   0.2308   0.4030   0.00    0.0
2019/01/19 02:40:30.000   47.481046467   19.056555855   211.0405   5  24   0.6337   0.4792   0.2151   0.2299   0.2299   0.4015   0.00    0.0
2019/01/19 02:41:00.000   47.480980571   19.056462281   233.0450   5  26   0.4829   0.3945   0.2242   0.1559   0.1559   0.2332   0.00    0.0
2019/01/19 02:41:30.000   47.480991635   19.056469650   234.7427   5  26   0.4825   0.3943   0.2247   0.1558   0.1558   0.2328   0.00    0.0
2019/01/19 02:42:00.000   47.481001261   19.056475538   236.1394   5  26   0.4822   0.3941   0.2251   0.1556   0.1556   0.2325   0.00    0.0
2019/01/19 02:42:30.000   47.481013391   19.056482193   237.9498   5  26   0.4819   0.3938   0.2256   0.1554   0.1554   0.2322   0.00    0.0
2019/01/19 02:43:00.000   47.481028915   19.056488733   240.0727   5  26   0.4815   0.3935   0.2261   0.1552   0.1552   0.2318   0.00    0.0
2019/01/19 02:43:30.000   47.481103527   19.056566755   226.8039   5  24   0.6266   0.4727   0.2228   0.2238   0.2238   0.3926   0.00    0.0
2019/01/19 02:44:00.000   47.481014382   19.056487326   234.8923   5  25   0.4872   0.4255   0.2374   0.1814   0.1814   0.2374   0.00    0.0
2019/01/19 02:44:30.000   47.480945805   19.056535232   183.6264   5  22   0.6656   0.6167   0.2794   0.3804   0.3804   0.4431   0.00    0.0
2019/01/19 02:45:00.000   47.481037382   19.056588927   212.5558   5  24   0.6285   0.4940   0.2023   0.2443   0.2443   0.3950   0.00    0.0
2019/01/19 02:45:30.000   47.481031264   19.056584854   210.9264   5  24   0.6280   0.4950   0.2043   0.2453   0.2453   0.3944   0.00    0.0
2019/01/19 02:46:00.000   47.481026460   19.056582319   209.5445   5  24   0.6275   0.4960   0.2062   0.2462   0.2462   0.3938   0.00    0.0
2019/01/19 02:46:30.000   47.481023360   19.056580736   208.4089   5  24   0.6270   0.4969   0.2082   0.2472   0.2472   0.3931   0.00    0.0
2019/01/19 02:47:00.000   47.480966329   19.056504055   224.4206   5  26   0.4812   0.4107   0.2130   0.1689   0.1689   0.2316   0.00    0.0
2019/01/19 02:47:30.000   47.480964708   19.056505155   223.4450   5  26   0.4812   0.4120   0.2138   0.1700   0.1700   0.2316   0.00    0.0
2019/01/19 02:48:00.000   47.480961118   19.056505371   222.8483   5  26   0.4813   0.4132   0.2147   0.1710   0.1710   0.2316   0.00    0.0
2019/01/19 02:48:30.000   47.480959068   19.056505624   222.3620   5  26   0.4813   0.4144   0.2156   0.1720   0.1720   0.2316   0.00    0.0
2019/01/19 02:49:00.000   47.480960042   19.056507972   221.2493   5  26   0.4813   0.4157   0.2164   0.1730   0.1730   0.2316   0.00    0.0
2019/01/19 02:49:30.000   47.481013121   19.056575652   204.4738   5  24   0.6238   0.5021   0.2197   0.2523   0.2523   0.3892   0.00    0.0
2019/01/19 02:50:00.000   47.481013753   19.056573522   203.8203   5  24   0.6233   0.5028   0.2215   0.2531   0.2531   0.3885   0.00    0.0
2019/01/19 02:50:30.000   47.480961326   19.056506879   219.0347   5  26   0.4812   0.4192   0.2191   0.1759   0.1759   0.2316   0.00    0.0
2019/01/19 02:51:00.000   47.480960582   19.056505079   218.3991   5  26   0.4812   0.4203   0.2199   0.1769   0.1769   0.2315   0.00    0.0
2019/01/19 02:51:30.000   47.480959538   19.056503832   217.7670   5  26   0.4811   0.4214   0.2208   0.1778   0.1778   0.2315   0.00    0.0
2019/01/19 02:52:00.000   47.480957581   19.056503281   217.0601   5  26   0.4811   0.4225   0.2217   0.1787   0.1787   0.2315   0.00    0.0
2019/01/19 02:52:30.000   47.480954574   19.056503199   216.3802   5  26   0.4810   0.4236   0.2225   0.1796   0.1796   0.2314   0.00    0.0
2019/01/19 02:53:00.000   47.480951151   19.056503858   215.6291   5  26   0.4810   0.4246   0.2234   0.1805   0.1805   0.2313   0.00    0.0
2019/01/19 02:53:30.000   47.480949482   19.056501646   214.7919   5  26   0.4809   0.4256   0.2242   0.1814   0.1814   0.2313   0.00    0.0
2019/01/19 02:54:00.000   47.480947311   19.056500011   214.0774   5  26   0.4808   0.4266   0.2251   0.1822   0.1822   0.2312   0.00    0.0
2019/01/19 02:54:30.000   47.480945654   19.056498517   213.3998   5  26   0.4807   0.4275   0.2259   0.1830   0.1830   0.2311   0.00    0.0
2019/01/19 02:55:00.000   47.480943766   19.056497854   212.6968   5  26   0.4806   0.4285   0.2268   0.1838   0.1838   0.2310   0.00    0.0
2019/01/19 02:55:30.000   47.480942618   19.056498018   212.2682   5  26   0.4805   0.4294   0.2276   0.1846   0.1846   0.2308   0.00    0.0
2019/01/19 02:56:00.000   47.480940370   19.056498102   211.5941   5  26   0.4803   0.4302   0.2285   0.1853   0.1853   0.2307   0.00    0.0
2019/01/19 02:56:30.000   47.480938231   19.056497270   210.7375   5  26   0.4802   0.4311   0.2293   0.1860   0.1860   0.2306   0.00    0.0
2019/01/19 02:57:00.000   47.480936142   19.056495456   209.6236   5  26   0.4800   0.4319   0.2301   0.1867   0.1867   0.2304   0.00    0.0
2019/01/19 02:57:30.000   47.480933722   19.056494938   209.1218   5  26   0.4798   0.4327   0.2309   0.1874   0.1874   0.2302   0.00    0.0
2019/01/19 02:58:00.000   47.480932216   19.056495462   208.8330   5  26   0.4797   0.4334   0.2317   0.1881   0.1881   0.2301   0.00    0.0
2019/01/19 02:58:30.000   47.480930752   19.056496055   208.5163   5  26   0.4795   0.4341   0.2326   0.1887   0.1887   0.2299   0.00    0.0
2019/01/19 02:59:00.000   47.480930716   19.056495372   208.1925   5  26   0.4792   0.4348   0.2334   0.1893   0.1893   0.2297   0.00    0.0
2019/01/19 02:59:30.000   47.480930694   19.056496016   207.9325   5  26   0.4790   0.4354   0.2342   0.1898   0.1898   0.2295   0.00    0.0
2019/01/19 03:00:00.000   47.480930091   19.056497312   207.5352   5  26   0.4788   0.4361   0.2349   0.1904   0.1904   0.2292   0.00    0.0
2019/01/19 03:00:30.000   47.480929558   19.056498543   207.2164   5  26   0.4785   0.4366   0.2357   0.1909   0.1909   0.2290   0.00    0.0
2019/01/19 03:01:00.000   47.480929691   19.056500093   207.0815   5  26   0.4783   0.4372   0.2365   0.1913   0.1913   0.2287   0.00    0.0
2019/01/19 03:01:30.000   47.480929983   19.056499902   207.1812   5  26   0.4780   0.4377   0.2373   0.1918   0.1918   0.2285   0.00    0.0
2019/01/19 03:02:00.000   47.480930618   19.056498695   207.3602   5  26   0.4777   0.4381   0.2380   0.1922   0.1922   0.2282   0.00    0.0
2019/01/19 03:02:30.000   47.480930857   19.056498088   207.5345   5  26   0.4774   0.4386   0.2388   0.1925   0.1925   0.2279   0.00    0.0
2019/01/19 03:03:00.000   47.480930552   19.056497777   207.6516   5  26   0.4771   0.4389   0.2395   0.1929   0.1929   0.2276   0.00    0.0
2019/01/19 03:03:30.000   47.480929736   19.056497848   207.6579   5  26   0.4767   0.4393   0.2403   0.1932   0.1932   0.2273   0.00    0.0
2019/01/19 03:04:00.000   47.480929481   19.056496086   207.5201   5  26   0.4764   0.4396   0.2410   0.1935   0.1935   0.2269   0.00    0.0
2019/01/19 03:04:30.000   47.480928598   19.056494996   207.2004   5  26   0.4760   0.4399   0.2417   0.1937   0.1937   0.2266   0.00    0.0
2019/01/19 03:05:00.000   47.480927344   19.056494355   206.9374   5  26   0.4756   0.4401   0.2424   0.1939   0.1939   0.2262   0.00    0.0
2019/01/19 03:05:30.000   47.480925938   19.056492912   206.7566   5  26   0.4752   0.4403   0.2431   0.1941   0.1941   0.2259   0.00    0.0
2019/01/19 03:06:00.000   47.480926132   19.056491697   207.0237   5  26   0.4748   0.4404   0.2438   0.1942   0.1942   0.2255   0.00    0.0
2019/01/19 03:06:30.000   47.480927505   19.056490578   207.3446   5  26   0.4744   0.4405   0.2444   0.1943   0.1943   0.2251   0.00    0.0
2019/01/19 03:07:00.000   47.480928697   19.056490408   207.4805   5  26   0.4740   0.4406   0.2451   0.1943   0.1943   0.2247   0.00    0.0
2019/01/19 03:07:30.000   47.480928469   19.056492804   207.3453   5  26   0.4735   0.4406   0.2457   0.1943   0.1943   0.2242   0.00    0.0
2019/01/19 03:08:00.000   47.480926939   19.056493917   207.2712   5  26   0.4731   0.4406   0.2464   0.1943   0.1943   0.2238   0.00    0.0
2019/01/19 03:08:30.000   47.480920920   19.056465989   211.0233   5  24   0.5338   0.4885   0.2057   0.2389   0.2389   0.2850   0.00    0.0
2019/01/19 03:09:00.000   47.480920716   19.056465857   210.8977   5  24   0.5339   0.4895   0.2065   0.2398   0.2398   0.2851   0.00    0.0
2019/01/19 03:09:30.000   47.480921523   19.056462941   210.7940   5  24   0.5340   0.4903   0.2073   0.2407   0.2407   0.2851   0.00    0.0
2019/01/19 03:10:00.000   47.480920948   19.056461583   210.7090   5  24   0.5340   0.4912   0.2081   0.2415   0.2415   0.2852   0.00    0.0
2019/01/19 03:10:30.000   47.480920530   19.056462410   210.4894   5  24   0.5341   0.4919   0.2089   0.2423   0.2423   0.2852   0.00    0.0
2019/01/19 03:11:00.000   47.480920838   19.056463215   210.3422   5  24   0.5341   0.4927   0.2097   0.2430   0.2430   0.2852   0.00    0.0
2019/01/19 03:11:30.000   47.480921402   19.056463386   210.4497   5  24   0.5341   0.4934   0.2104   0.2437   0.2437   0.2852   0.00    0.0
2019/01/19 03:12:00.000   47.480921189   19.056463732   210.2635   5  24   0.5340   0.4940   0.2111   0.2443   0.2443   0.2852   0.00    0.0
2019/01/19 03:12:30.000   47.480920477   19.056464355   210.0453   5  24   0.5340   0.4946   0.2119   0.2449   0.2449   0.2851   0.00    0.0
2019/01/19 03:13:00.000   47.480919082   19.056465181   209.9512   5  24   0.5339   0.4951   0.2126   0.2454   0.2454   0.2851   0.00    0.0
2019/01/19 03:13:30.000   47.480918271   19.056467372   209.8898   5  24   0.5338   0.4956   0.2133   0.2459   0.2459   0.2850   0.00    0.0
2019/01/19 03:14:00.000   47.480917662   19.056468475   210.0998   5  24   0.5337   0.4961   0.2140   0.2464   0.2464   0.2848   0.00    0.0
2019/01/19 03:14:30.000   47.480917098   19.056468723   210.0615   5  24   0.5336   0.4965   0.2147   0.2468   0.2468   0.2847   0.00    0.0
2019/01/19 03:15:00.000   47.480916112   19.056469316   209.9255   5  24   0.5334   0.4968   0.2153   0.2471   0.2471   0.2845   0.00    0.0
2019/01/19 03:15:30.000   47.480914784   19.056469281   209.7210   5  24   0.5332   0.4971   0.2160   0.2474   0.2474   0.2843   0.00    0.0
2019/01/19 03:16:00.000   47.480913948   19.056469578   209.5824   5  24   0.5330   0.4973   0.2166   0.2476   0.2476   0.2841   0.00    0.0
2019/01/19 03:16:30.000   47.480913671   19.056470038   209.1472   5  24   0.5327   0.4975   0.2172   0.2478   0.2478   0.2838   0.00    0.0
2019/01/19 03:17:00.000   47.480914302   19.056468493   208.7872   5  24   0.5325   0.4976   0.2178   0.2479   0.2479   0.2835   0.00    0.0
2019/01/19 03:17:30.000   47.480914709   19.056468021   208.5561   5  24   0.5322   0.4977   0.2184   0.2480   0.2480   0.2832   0.00    0.0
2019/01/19 03:18:00.000   47.480914141   19.056470040   208.3735   5  24   0.5319   0.4977   0.2190   0.2480   0.2480   0.2829   0.00    0.0
2019/01/19 03:18:30.000   47.480913320   19.056472011   208.4478   5  24   0.5316   0.4977   0.2196   0.2480   0.2480   0.2826   0.00    0.0
2019/01/19 03:19:00.000   47.480912597   19.056473089   208.6572   5  24   0.5312   0.4976   0.2201   0.2479   0.2479   0.2822   0.00    0.0
2019/01/19 03:19:30.000   47.480913707   19.056473246   208.9211   5  24   0.5308   0.4975   0.2207   0.2478   0.2478   0.2818   0.00    0.0
2019/01/19 03:20:00.000   47.480913721   19.056472578   209.2655   5  24   0.5304   0.4973   0.2212   0.2476   0.2476   0.2814   0.00    0.0
2019/01/19 03:20:30.000   47.480913052   19.056472481   209.6300   5  24   0.5300   0.4970   0.2217   0.2473   0.2473   0.2809   0.00    0.0
2019/01/19 03:21:00.000   47.480911934   19.056472859   209.5856   5  24   0.5296   0.4967   0.2222   0.2470   0.2470   0.2804   0.00    0.0
2019/01/19 03:21:30.000   47.480910392   19.056473500   209.5268   5  24   0.5291   0.4964   0.2226   0.2467   0.2467   0.2800   0.00    0.0
2019/01/19 03:22:00.000   47.480907709   19.056472172   210.0495   5  24   0.5286   0.4960   0.2231   0.2463   0.2463   0.2794   0.00    0.0
2019/01/19 03:22:30.000   47.480908182   19.056474356   209.8167   5  24   0.5281   0.4955   0.2235   0.2458   0.2458   0.2789   0.00    0.0
2019/01/19 03:23:00.000   47.480907223   19.056474766   209.7354   5  24   0.5276   0.4950   0.2239   0.2453   0.2453   0.2783   0.00    0.0
2019/01/19 03:23:30.000   47.480906101   19.056473644   209.3727   5  24   0.5270   0.4944   0.2244   0.2447   0.2447   0.2777   0.00    0.0
2019/01/19 03:24:00.000   47.480905504   19.056472858   209.4128   5  24   0.5264   0.4938   0.2247   0.2441   0.2441   0.2771   0.00    0.0
2019/01/19 03:24:30.000   47.480905224   19.056472116   209.7791   5  24   0.5258   0.4931   0.2251   0.2434   0.2434   0.2765   0.00    0.0
2019/01/19 03:25:00.000   47.480904605   19.056471844   210.2278   5  24   0.5252   0.4924   0.2255   0.2427   0.2427   0.2758   0.00    0.0
2019/01/19 03:25:30.000   47.480903713   19.056472492   210.6372   5  24   0.5246   0.4916   0.2258   0.2419   0.2419   0.2752   0.00    0.0
2019/01/19 03:26:00.000   47.480903910   19.056472979   210.9172   5  24   0.5239   0.4907   0.2261   0.2411   0.2411   0.2745   0.00    0.0
2019/01/19 03:26:30.000   47.480904281   19.056472492   210.8366   5  24   0.5232   0.4899   0.2264   0.2403   0.2403   0.2738   0.00    0.0
2019/01/19 03:27:00.000   47.480902779   19.056473240   211.0242   5  24   0.5225   0.4889   0.2267   0.2393   0.2393   0.2730   0.00    0.0
2019/01/19 03:27:30.000   47.480901556   19.056473805   211.2257   5  24   0.5218   0.4879   0.2270   0.2384   0.2384   0.2723   0.00    0.0
2019/01/19 03:28:00.000   47.480899964   19.056476077   211.6741   5  24   0.5210   0.4869   0.2273   0.2374   0.2374   0.2715   0.00    0.0
2019/01/19 03:28:30.000   47.480898583   19.056478716   212.1003   5  24   0.5203   0.4858   0.2275   0.2363   0.2363   0.2707   0.00    0.0
2019/01/19 03:29:00.000   47.480898022   19.056479122   212.3773   5  24   0.5195   0.4847   0.2277   0.2352   0.2352   0.2699   0.00    0.0
