% program   : RTKPOST ver.2.4.3 b31
% inp file  : C:\Users\lus2bp\Source\Repos\GINA\70_EGNOS_Project\files\PositionComparisonInputFiles\bute0190\bute0190.19o
% inp file  : C:\Users\lus2bp\Source\Repos\GINA\70_EGNOS_Project\files\PositionComparisonInputFiles\bute0190\brdc0190.19n
% obs start : 2019/01/19 00:00:00.0 GPST (week2036 518400.0s)
% obs end   : 2019/01/19 23:59:30.0 GPST (week2036 604770.0s)
% pos mode  : single
% elev mask : 10.0 deg
% ionos opt : broadcast
% tropo opt : saastamoinen
% ephemeris : broadcast
%
% (lat/lon/height=WGS84/ellipsoidal,Q=1:fix,2:float,3:sbas,4:dgps,5:single,6:ppp,ns=# of satellites)
%  GPST                  latitude(deg) longitude(deg)  height(m)   Q  ns   sdn(m)   sde(m)   sdu(m)  sdne(m)  sdeu(m)  sdun(m) age(s)  ratio
2019/01/19 00:00:00.000   47.480945365   19.056532276   176.7417   5   8   2.4906   1.8401   4.9047   0.7006   0.7641   2.2499   0.00    0.0
2019/01/19 00:00:30.000   47.480947070   19.056532108   176.8597   5   8   2.4915   1.8394   4.9292   0.6879   0.7628   2.2644   0.00    0.0
2019/01/19 00:01:00.000   47.480948831   19.056533128   177.0667   5   8   2.4923   1.8388   4.9535   0.6751   0.7613   2.2786   0.00    0.0
2019/01/19 00:01:30.000   47.480949022   19.056535189   177.0137   5   8   2.4931   1.8383   4.9775   0.6619   0.7597   2.2924   0.00    0.0
2019/01/19 00:02:00.000   47.480949533   19.056534218   177.0604   5   8   2.4938   1.8378   5.0014   0.6485   0.7581   2.3059   0.00    0.0
2019/01/19 00:02:30.000   47.480950443   19.056532967   177.7391   5   8   2.4944   1.8374   5.0249   0.6349   0.7563   2.3190   0.00    0.0
2019/01/19 00:03:00.000   47.480950579   19.056531585   177.8890   5   8   2.4950   1.8370   5.0482   0.6209   0.7545   2.3316   0.00    0.0
2019/01/19 00:03:30.000   47.480951207   19.056527931   177.6426   5   8   2.4954   1.8367   5.0712   0.6066   0.7526   2.3439   0.00    0.0
2019/01/19 00:04:00.000   47.480951107   19.056525677   177.5073   5   8   2.4958   1.8364   5.0939   0.5920   0.7506   2.3558   0.00    0.0
2019/01/19 00:04:30.000   47.480950593   19.056526418   177.4493   5   8   2.4961   1.8362   5.1162   0.5771   0.7486   2.3672   0.00    0.0
2019/01/19 00:05:00.000   47.480949083   19.056525698   177.3909   5   8   2.4963   1.8360   5.1381   0.5617   0.7464   2.3782   0.00    0.0
2019/01/19 00:05:30.000   47.480947103   19.056527984   177.5772   5   8   2.4964   1.8359   5.1597   0.5460   0.7443   2.3887   0.00    0.0
2019/01/19 00:06:00.000   47.480946185   19.056530225   177.8863   5   8   2.4963   1.8359   5.1807   0.5298   0.7421   2.3987   0.00    0.0
2019/01/19 00:06:30.000   47.480945901   19.056530849   177.9300   5   8   2.4962   1.8359   5.2014   0.5131   0.7398   2.4083   0.00    0.0
2019/01/19 00:07:00.000   47.480946666   19.056531171   177.7187   5   8   2.4959   1.8360   5.2215   0.4958   0.7375   2.4173   0.00    0.0
2019/01/19 00:07:30.000   47.480948071   19.056528711   177.7082   5   8   2.4955   1.8361   5.2411   0.4780   0.7352   2.4258   0.00    0.0
2019/01/19 00:08:00.000   47.480948771   19.056526377   177.7285   5   8   2.4950   1.8362   5.2602   0.4595   0.7329   2.4338   0.00    0.0
2019/01/19 00:08:30.000   47.480948372   19.056526584   177.8520   5   8   2.4943   1.8365   5.2788   0.4403   0.7306   2.4412   0.00    0.0
2019/01/19 00:09:00.000   47.480947967   19.056526289   177.9480   5   8   2.4935   1.8367   5.2967   0.4203   0.7283   2.4481   0.00    0.0
2019/01/19 00:09:30.000   47.480947702   19.056526876   178.2636   5   8   2.4925   1.8371   5.3140   0.3992   0.7260   2.4544   0.00    0.0
2019/01/19 00:10:00.000   47.480947491   19.056528356   178.5973   5   8   2.4914   1.8374   5.3308   0.3771   0.7237   2.4601   0.00    0.0
2019/01/19 00:10:30.000   47.480948756   19.056527922   178.7828   5   8   2.4901   1.8379   5.3468   0.3537   0.7215   2.4653   0.00    0.0
2019/01/19 00:11:00.000   47.480949949   19.056526432   178.4459   5   8   2.4887   1.8384   5.3622   0.3286   0.7194   2.4698   0.00    0.0
2019/01/19 00:11:30.000   47.480950262   19.056527008   178.0068   5   8   2.4871   1.8389   5.3769   0.3016   0.7172   2.4737   0.00    0.0
2019/01/19 00:12:00.000   47.480950475   19.056529102   177.9412   5   8   2.4854   1.8395   5.3908   0.2719   0.7152   2.4770   0.00    0.0
2019/01/19 00:12:30.000   47.480950503   19.056529960   177.7760   5   8   2.4834   1.8401   5.4041   0.2388   0.7133   2.4796   0.00    0.0
2019/01/19 00:13:00.000   47.480950863   19.056531387   177.6173   5   8   2.4814   1.8408   5.4165   0.2004   0.7114   2.4817   0.00    0.0
2019/01/19 00:13:30.000   47.480950357   19.056535067   177.8409   5   8   2.4791   1.8416   5.4283   0.1527   0.7097   2.4830   0.00    0.0
2019/01/19 00:14:00.000   47.480950740   19.056536604   178.0100   5   8   2.4767   1.8424   5.4392   0.0811   0.7081   2.4837   0.00    0.0
2019/01/19 00:14:30.000   47.480951897   19.056537104   178.0888   5   8   2.4742   1.8432   5.4493  -0.1005   0.7066   2.4838   0.00    0.0
2019/01/19 00:15:00.000   47.480952495   19.056536838   178.0117   5   8   2.4714   1.8441   5.4586  -0.1635   0.7053   2.4832   0.00    0.0
2019/01/19 00:15:30.000   47.480952129   19.056535064   177.7800   5   8   2.4685   1.8451   5.4671  -0.2080   0.7042   2.4819   0.00    0.0
2019/01/19 00:16:00.000   47.480952561   19.056533589   177.6591   5   8   2.4655   1.8461   5.4748  -0.2444   0.7032   2.4799   0.00    0.0
2019/01/19 00:16:30.000   47.480952990   19.056532136   176.9858   5   8   2.4622   1.8471   5.4816  -0.2759   0.7024   2.4773   0.00    0.0
2019/01/19 00:17:00.000   47.480951668   19.056533678   176.5639   5   8   2.4588   1.8482   5.4876  -0.3041   0.7018   2.4740   0.00    0.0
2019/01/19 00:17:30.000   47.480950773   19.056533370   176.5418   5   8   2.4553   1.8494   5.4927  -0.3297   0.7014   2.4700   0.00    0.0
2019/01/19 00:18:00.000   47.480950486   19.056533647   176.6048   5   8   2.4516   1.8506   5.4970  -0.3533   0.7013   2.4653   0.00    0.0
2019/01/19 00:18:30.000   47.480950066   19.056535063   176.7228   5   8   2.4477   1.8518   5.5004  -0.3754   0.7014   2.4600   0.00    0.0
2019/01/19 00:19:00.000   47.480948803   19.056535108   176.8983   5   8   2.4437   1.8531   5.5030  -0.3961   0.7017   2.4540   0.00    0.0
2019/01/19 00:19:30.000   47.480948343   19.056533250   176.9263   5   8   2.4396   1.8545   5.5047  -0.4157   0.7023   2.4473   0.00    0.0
2019/01/19 00:20:00.000   47.480948413   19.056532238   176.9042   5   8   2.4353   1.8559   5.5055  -0.4344   0.7031   2.4399   0.00    0.0
2019/01/19 00:20:30.000   47.480948933   19.056531491   176.8174   5   8   2.4309   1.8573   5.5055  -0.4521   0.7042   2.4319   0.00    0.0
2019/01/19 00:21:00.000   47.480948767   19.056531659   176.8721   5   8   2.4263   1.8588   5.5047  -0.4691   0.7055   2.4233   0.00    0.0
2019/01/19 00:21:30.000   47.480947466   19.056533564   177.3231   5   8   2.4216   1.8603   5.5030  -0.4855   0.7072   2.4139   0.00    0.0
2019/01/19 00:22:00.000   47.480946769   19.056534534   177.7157   5   8   2.4169   1.8619   5.5005  -0.5012   0.7091   2.4040   0.00    0.0
2019/01/19 00:22:30.000   47.480946596   19.056536077   177.8578   5   8   2.4120   1.8636   5.4972  -0.5164   0.7113   2.3934   0.00    0.0
2019/01/19 00:23:00.000   47.480947697   19.056534383   177.7180   5   8   2.4069   1.8653   5.4931  -0.5310   0.7137   2.3821   0.00    0.0
2019/01/19 00:23:30.000   47.480948498   19.056532329   177.4672   5   8   2.4018   1.8670   5.4882  -0.5452   0.7165   2.3703   0.00    0.0
2019/01/19 00:24:00.000   47.480948904   19.056531869   177.4303   5   8   2.3967   1.8688   5.4825  -0.5590   0.7196   2.3579   0.00    0.0
2019/01/19 00:24:30.000   47.480948614   19.056532485   177.3795   5   8   2.3914   1.8706   5.4760  -0.5723   0.7229   2.3448   0.00    0.0
2019/01/19 00:25:00.000   47.480947822   19.056535496   177.5981   5   8   2.3860   1.8725   5.4688  -0.5853   0.7265   2.3312   0.00    0.0
2019/01/19 00:25:30.000   47.480947531   19.056538286   177.9013   5   8   2.3806   1.8744   5.4609  -0.5980   0.7304   2.3170   0.00    0.0
2019/01/19 00:26:00.000   47.480946916   19.056538652   177.9172   5   8   2.3751   1.8764   5.4523  -0.6104   0.7346   2.3022   0.00    0.0
2019/01/19 00:26:30.000   47.480946780   19.056536252   177.5826   5   8   2.3696   1.8784   5.4429  -0.6224   0.7391   2.2868   0.00    0.0
2019/01/19 00:27:00.000   47.480946544   19.056533487   177.4571   5   8   2.3641   1.8805   5.4329  -0.6342   0.7438   2.2710   0.00    0.0
2019/01/19 00:27:30.000   47.480946740   19.056532557   177.6312   5   8   2.3584   1.8826   5.4223  -0.6458   0.7488   2.2546   0.00    0.0
2019/01/19 00:28:00.000   47.480948111   19.056530679   177.6413   5   8   2.3528   1.8848   5.4110  -0.6570   0.7541   2.2377   0.00    0.0
2019/01/19 00:28:30.000   47.480948968   19.056529841   177.5964   5   8   2.3472   1.8870   5.3991  -0.6681   0.7596   2.2202   0.00    0.0
2019/01/19 00:29:00.000   47.480950095   19.056528505   177.3319   5   8   2.3415   1.8892   5.3867  -0.6790   0.7654   2.2023   0.00    0.0
2019/01/19 00:29:30.000   47.480951485   19.056529493   177.2573   5   8   2.3358   1.8915   5.3737  -0.6896   0.7713   2.1840   0.00    0.0
2019/01/19 00:30:00.000   47.480952382   19.056530746   177.1765   5   8   2.3301   1.8939   5.3601  -0.7001   0.7776   2.1651   0.00    0.0
2019/01/19 00:30:30.000   47.480951453   19.056532815   177.2263   5   8   2.3245   1.8963   5.3460  -0.7104   0.7840   2.1458   0.00    0.0
2019/01/19 00:31:00.000   47.480949635   19.056535227   177.4918   5   8   2.3188   1.8987   5.3315  -0.7205   0.7907   2.1261   0.00    0.0
2019/01/19 00:31:30.000   47.480950558   19.056531430   177.3702   5   8   2.3132   1.9012   5.3164  -0.7305   0.7976   2.1059   0.00    0.0
2019/01/19 00:32:00.000   47.480949162   19.056531263   177.3177   5   8   2.3076   1.9038   5.3009  -0.7404   0.8046   2.0853   0.00    0.0
2019/01/19 00:32:30.000   47.480946500   19.056533119   177.1659   5   8   2.3021   1.9064   5.2850  -0.7501   0.8119   2.0643   0.00    0.0
2019/01/19 00:33:00.000   47.480944371   19.056534910   177.1525   5   8   2.2966   1.9090   5.2687  -0.7597   0.8193   2.0429   0.00    0.0
2019/01/19 00:33:30.000   47.480943717   19.056536576   177.4011   5   8   2.2911   1.9117   5.2521  -0.7691   0.8269   2.0211   0.00    0.0
2019/01/19 00:34:00.000   47.480944018   19.056537454   177.6242   5   8   2.2857   1.9144   5.2350  -0.7785   0.8347   1.9990   0.00    0.0
2019/01/19 00:34:30.000   47.480945483   19.056535349   177.5093   5   8   2.2804   1.9172   5.2177  -0.7878   0.8426   1.9765   0.00    0.0
2019/01/19 00:35:00.000   47.480946005   19.056534512   177.7879   5   8   2.2752   1.9200   5.2000  -0.7969   0.8506   1.9536   0.00    0.0
2019/01/19 00:35:30.000   47.480945898   19.056533568   177.8122   5   8   2.2700   1.9229   5.1821  -0.8060   0.8588   1.9304   0.00    0.0
2019/01/19 00:36:00.000   47.480945692   19.056532085   177.6237   5   8   2.2649   1.9258   5.1639  -0.8150   0.8671   1.9068   0.00    0.0
2019/01/19 00:36:30.000   47.480945689   19.056530458   177.4783   5   8   2.2599   1.9288   5.1454  -0.8239   0.8756   1.8829   0.00    0.0
2019/01/19 00:37:00.000   47.480945418   19.056529477   177.4847   5   8   2.2550   1.9318   5.1268  -0.8327   0.8841   1.8587   0.00    0.0
2019/01/19 00:37:30.000   47.480945269   19.056528967   177.5713   5   8   2.2501   1.9349   5.1079  -0.8415   0.8928   1.8342   0.00    0.0
2019/01/19 00:38:00.000   47.480945197   19.056531583   177.8255   5   8   2.2454   1.9380   5.0888  -0.8502   0.9015   1.8094   0.00    0.0
2019/01/19 00:38:30.000   47.480946579   19.056533169   178.0129   5   8   2.2408   1.9412   5.0696  -0.8589   0.9104   1.7842   0.00    0.0
2019/01/19 00:39:00.000   47.480946987   19.056533214   178.1238   5   8   2.2363   1.9444   5.0503  -0.8675   0.9193   1.7588   0.00    0.0
2019/01/19 00:39:30.000   47.480946278   19.056532324   178.0801   5   8   2.2319   1.9477   5.0308  -0.8760   0.9283   1.7331   0.00    0.0
2019/01/19 00:40:00.000   47.480947064   19.056529979   177.8952   5   8   2.2276   1.9510   5.0112  -0.8845   0.9373   1.7070   0.00    0.0
2019/01/19 00:40:30.000   47.480947245   19.056530663   178.0355   5   8   2.2235   1.9543   4.9916  -0.8930   0.9464   1.6807   0.00    0.0
2019/01/19 00:41:00.000   47.480947211   19.056534346   178.1707   5   8   2.2194   1.9578   4.9718  -0.9014   0.9556   1.6540   0.00    0.0
2019/01/19 00:41:30.000   47.480947787   19.056535124   177.7637   5   8   2.2155   1.9612   4.9520  -0.9098   0.9648   1.6271   0.00    0.0
2019/01/19 00:42:00.000   47.480945775   19.056536628   177.6620   5   8   2.2117   1.9647   4.9322  -0.9182   0.9741   1.5999   0.00    0.0
2019/01/19 00:42:30.000   47.480944082   19.056537034   177.7993   5   8   2.2081   1.9683   4.9123  -0.9265   0.9834   1.5723   0.00    0.0
2019/01/19 00:43:00.000   47.480944740   19.056535704   178.0125   5   8   2.2046   1.9719   4.8924  -0.9348   0.9928   1.5445   0.00    0.0
2019/01/19 00:43:30.000   47.480946984   19.056535176   178.2190   5   8   2.2012   1.9756   4.8725  -0.9431   1.0022   1.5163   0.00    0.0
2019/01/19 00:44:00.000   47.480950226   19.056532956   178.2334   5   8   2.1979   1.9793   4.8526  -0.9514   1.0116   1.4878   0.00    0.0
2019/01/19 00:44:30.000   47.480951822   19.056530205   177.9431   5   8   2.1948   1.9830   4.8328  -0.9597   1.0210   1.4590   0.00    0.0
2019/01/19 00:45:00.000   47.480950791   19.056531607   177.8689   5   8   2.1918   1.9869   4.8130  -0.9679   1.0304   1.4298   0.00    0.0
2019/01/19 00:45:30.000   47.480950014   19.056533583   177.9251   5   8   2.1890   1.9907   4.7932  -0.9762   1.0399   1.4003   0.00    0.0
2019/01/19 00:46:00.000   47.480950334   19.056534287   178.1536   5   8   2.1863   1.9946   4.7735  -0.9844   1.0494   1.3704   0.00    0.0
2019/01/19 00:46:30.000   47.480950036   19.056535151   178.2680   5   8   2.1837   1.9986   4.7539  -0.9926   1.0589   1.3401   0.00    0.0
2019/01/19 00:47:00.000   47.480950259   19.056531890   177.8783   5   9   2.1795   1.8239   4.0978  -1.0365  -0.9051   1.2273   0.00    0.0
2019/01/19 00:47:30.000   47.480949743   19.056531813   178.0709   5   9   2.1777   1.8251   4.0883  -1.0393  -0.8929   1.2080   0.00    0.0
2019/01/19 00:48:00.000   47.480949941   19.056531426   178.1397   5   9   2.1760   1.8263   4.0787  -1.0422  -0.8802   1.1883   0.00    0.0
2019/01/19 00:48:30.000   47.480951434   19.056529527   178.2155   5   9   2.1744   1.8276   4.0691  -1.0450  -0.8673   1.1683   0.00    0.0
2019/01/19 00:49:00.000   47.480952338   19.056529381   178.1573   5   9   2.1728   1.8288   4.0594  -1.0479  -0.8540   1.1480   0.00    0.0
2019/01/19 00:49:30.000   47.480952661   19.056530664   178.2431   5   9   2.1712   1.8301   4.0498  -1.0507  -0.8403   1.1274   0.00    0.0
2019/01/19 00:50:00.000   47.480951392   19.056531563   178.2240   5   9   2.1697   1.8315   4.0400  -1.0535  -0.8263   1.1063   0.00    0.0
2019/01/19 00:50:30.000   47.480950640   19.056533041   178.4036   5   9   2.1683   1.8328   4.0303  -1.0564  -0.8119   1.0849   0.00    0.0
2019/01/19 00:51:00.000   47.480950811   19.056533509   178.4060   5   9   2.1670   1.8342   4.0205  -1.0592  -0.7971   1.0631   0.00    0.0
2019/01/19 00:51:30.000   47.480950367   19.056534392   178.5028   5   9   2.1657   1.8356   4.0108  -1.0621  -0.7819   1.0409   0.00    0.0
2019/01/19 00:52:00.000   47.480948370   19.056535995   178.4691   5   9   2.1644   1.8370   4.0010  -1.0650  -0.7663   1.0183   0.00    0.0
2019/01/19 00:52:30.000   47.480947255   19.056535887   178.4080   5   9   2.1633   1.8385   3.9912  -1.0679  -0.7502   0.9953   0.00    0.0
2019/01/19 00:53:00.000   47.480946621   19.056535553   178.3257   5   9   2.1622   1.8399   3.9814  -1.0708  -0.7337   0.9717   0.00    0.0
2019/01/19 00:53:30.000   47.480947697   19.056535547   178.1930   5   9   2.1612   1.8415   3.9716  -1.0737  -0.7167   0.9477   0.00    0.0
2019/01/19 00:54:00.000   47.480948977   19.056536491   178.0889   5   9   2.1602   1.8430   3.9618  -1.0766  -0.6992   0.9231   0.00    0.0
2019/01/19 00:54:30.000   47.480949622   19.056537972   178.0742   5   9   2.1593   1.8446   3.9521  -1.0796  -0.6811   0.8979   0.00    0.0
2019/01/19 00:55:00.000   47.480948871   19.056538437   178.1361   5   9   2.1585   1.8462   3.9423  -1.0825  -0.6625   0.8722   0.00    0.0
2019/01/19 00:55:30.000   47.480947972   19.056537195   177.9820   5   9   2.1578   1.8478   3.9326  -1.0855  -0.6432   0.8457   0.00    0.0
2019/01/19 00:56:00.000   47.480947264   19.056536915   178.0255   5   9   2.1571   1.8494   3.9228  -1.0885  -0.6233   0.8186   0.00    0.0
2019/01/19 00:56:30.000   47.480945686   19.056536015   178.2098   5   9   2.1565   1.8511   3.9131  -1.0916  -0.6026   0.7906   0.00    0.0
2019/01/19 00:57:00.000   47.480945366   19.056535394   178.1045   5   9   2.1559   1.8529   3.9035  -1.0946  -0.5811   0.7618   0.00    0.0
2019/01/19 00:57:30.000   47.480946285   19.056535320   177.7433   5   9   2.1554   1.8546   3.8938  -1.0977  -0.5587   0.7321   0.00    0.0
2019/01/19 00:58:00.000   47.480946863   19.056534835   177.4348   5   9   2.1550   1.8564   3.8842  -1.1008  -0.5353   0.7012   0.00    0.0
2019/01/19 00:58:30.000   47.480946396   19.056534593   177.0683   5   9   2.1547   1.8582   3.8747  -1.1039  -0.5108   0.6691   0.00    0.0
2019/01/19 00:59:00.000   47.480946018   19.056533899   176.9051   5   9   2.1544   1.8600   3.8652  -1.1071  -0.4850   0.6356   0.00    0.0
2019/01/19 00:59:30.000   47.480947836   19.056533898   176.6361   5   9   2.1542   1.8619   3.8557  -1.1102  -0.4577   0.6005   0.00    0.0
2019/01/19 01:00:00.000   47.480950548   19.056535686   177.5615   5   9   2.1506   1.7841   3.7182  -1.0831  -0.8453   0.6626   0.00    0.0
2019/01/19 01:00:30.000   47.480952355   19.056534644   177.9752   5   9   2.1501   1.7846   3.7102  -1.0846  -0.8308   0.6335   0.00    0.0
2019/01/19 01:01:00.000   47.480954585   19.056533580   177.9855   5   9   2.1498   1.7851   3.7022  -1.0861  -0.8160   0.6033   0.00    0.0
2019/01/19 01:01:30.000   47.480955525   19.056532516   177.9853   5   9   2.1495   1.7856   3.6943  -1.0876  -0.8009   0.5716   0.00    0.0
2019/01/19 01:02:00.000   47.480955380   19.056532524   178.0601   5   9   2.1492   1.7861   3.6864  -1.0892  -0.7855   0.5383   0.00    0.0
2019/01/19 01:02:30.000   47.480954220   19.056532530   178.1239   5   9   2.1490   1.7867   3.6785  -1.0907  -0.7698   0.5030   0.00    0.0
2019/01/19 01:03:00.000   47.480953439   19.056532695   178.3426   5   9   2.1488   1.7872   3.6707  -1.0923  -0.7536   0.4653   0.00    0.0
2019/01/19 01:03:30.000   47.480952481   19.056534921   178.6852   5   9   2.1487   1.7879   3.6629  -1.0938  -0.7372   0.4245   0.00    0.0
2019/01/19 01:04:00.000   47.480953029   19.056534979   178.9861   5   9   2.1486   1.7885   3.6552  -1.0954  -0.7203   0.3796   0.00    0.0
2019/01/19 01:04:30.000   47.480952721   19.056534555   179.3612   5   9   2.1486   1.7892   3.6475  -1.0970  -0.7030   0.3291   0.00    0.0
2019/01/19 01:05:00.000   47.480951274   19.056533973   179.4614   5   9   2.1487   1.7898   3.6399  -1.0986  -0.6853   0.2697   0.00    0.0
2019/01/19 01:05:30.000   47.480951340   19.056531896   179.3733   5   9   2.1488   1.7905   3.6323  -1.1003  -0.6671   0.1934   0.00    0.0
2019/01/19 01:06:00.000   47.480952464   19.056528932   179.2658   5   9   2.1489   1.7913   3.6247  -1.1020  -0.6484   0.0485   0.00    0.0
2019/01/19 01:06:30.000   47.480952910   19.056527299   179.2015   5   9   2.1491   1.7920   3.6172  -1.1036  -0.6291  -0.1801   0.00    0.0
2019/01/19 01:07:00.000   47.480953839   19.056527501   179.2752   5   9   2.1493   1.7928   3.6098  -1.1053  -0.6092  -0.2587   0.00    0.0
2019/01/19 01:07:30.000   47.480953808   19.056527737   179.4389   5   9   2.1496   1.7937   3.6024  -1.1071  -0.5887  -0.3181   0.00    0.0
2019/01/19 01:08:00.000   47.480954425   19.056528524   179.3165   5   9   2.1500   1.7945   3.5950  -1.1088  -0.5675  -0.3676   0.00    0.0
2019/01/19 01:08:30.000   47.480955376   19.056528161   178.9360   5   9   2.1504   1.7954   3.5878  -1.1106  -0.5454  -0.4108   0.00    0.0
2019/01/19 01:09:00.000   47.480957350   19.056527413   178.7531   5   9   2.1508   1.7963   3.5805  -1.1123  -0.5225  -0.4496   0.00    0.0
2019/01/19 01:09:30.000   47.480958547   19.056527421   178.5571   5   9   2.1513   1.7972   3.5733  -1.1141  -0.4985  -0.4850   0.00    0.0
2019/01/19 01:10:00.000   47.480958675   19.056528165   178.4209   5   9   2.1518   1.7982   3.5662  -1.1160  -0.4734  -0.5177   0.00    0.0
2019/01/19 01:10:30.000   47.480958336   19.056529985   178.3333   5   9   2.1524   1.7992   3.5591  -1.1178  -0.4469  -0.5482   0.00    0.0
2019/01/19 01:11:00.000   47.480956608   19.056533309   178.4769   5   9   2.1530   1.8002   3.5521  -1.1197  -0.4188  -0.5768   0.00    0.0
2019/01/19 01:11:30.000   47.480954398   19.056534272   178.4679   5   9   2.1537   1.8012   3.5452  -1.1215  -0.3887  -0.6038   0.00    0.0
2019/01/19 01:12:00.000   47.480953603   19.056533208   178.2032   5   9   2.1544   1.8023   3.5383  -1.1234  -0.3562  -0.6294   0.00    0.0
2019/01/19 01:12:30.000   47.480952495   19.056532457   177.8010   5   9   2.1552   1.8034   3.5315  -1.1254  -0.3204  -0.6538   0.00    0.0
2019/01/19 01:13:00.000   47.480951613   19.056531501   177.8016   5   9   2.1560   1.8045   3.5247  -1.1273  -0.2803  -0.6770   0.00    0.0
2019/01/19 01:13:30.000   47.480952293   19.056531791   177.8806   5   9   2.1568   1.8057   3.5180  -1.1293  -0.2335  -0.6993   0.00    0.0
2019/01/19 01:14:00.000   47.480952806   19.056531706   178.1568   5   9   2.1577   1.8069   3.5113  -1.1312  -0.1748  -0.7206   0.00    0.0
2019/01/19 01:14:30.000   47.480954893   19.056530519   178.2877   5   9   2.1587   1.8081   3.5047  -1.1332  -0.0815  -0.7411   0.00    0.0
2019/01/19 01:15:00.000   47.480956561   19.056530195   178.3981   5   9   2.1596   1.8094   3.4982  -1.1352   0.1311  -0.7609   0.00    0.0
2019/01/19 01:15:30.000   47.480956907   19.056531549   178.5292   5   9   2.1607   1.8106   3.4917  -1.1373   0.2023  -0.7799   0.00    0.0
2019/01/19 01:16:00.000   47.480956838   19.056533333   178.6157   5   9   2.1617   1.8120   3.4853  -1.1393   0.2542  -0.7983   0.00    0.0
2019/01/19 01:16:30.000   47.480957741   19.056534076   178.5768   5   9   2.1628   1.8133   3.4790  -1.1414   0.2970  -0.8161   0.00    0.0
2019/01/19 01:17:00.000   47.480958165   19.056533946   178.6586   5   9   2.1640   1.8147   3.4727  -1.1434   0.3343  -0.8332   0.00    0.0
2019/01/19 01:17:30.000   47.480959325   19.056534834   178.6178   5   9   2.1651   1.8161   3.4665  -1.1455   0.3676  -0.8499   0.00    0.0
2019/01/19 01:18:00.000   47.480959242   19.056534606   178.6263   5   9   2.1663   1.8175   3.4604  -1.1477   0.3981  -0.8660   0.00    0.0
2019/01/19 01:18:30.000   47.480959601   19.056534609   178.5987   5   9   2.1676   1.8190   3.4543  -1.1498   0.4263  -0.8816   0.00    0.0
2019/01/19 01:19:00.000   47.480959862   19.056534963   178.4666   5   9   2.1689   1.8205   3.4483  -1.1519   0.4527  -0.8968   0.00    0.0
2019/01/19 01:19:30.000   47.480960757   19.056532445   178.3467   5   9   2.1702   1.8220   3.4423  -1.1541   0.4775  -0.9115   0.00    0.0
2019/01/19 01:20:00.000   47.480960227   19.056531249   178.4215   5   9   2.1716   1.8235   3.4365  -1.1562   0.5010  -0.9258   0.00    0.0
2019/01/19 01:20:30.000   47.480952790   19.056535979   177.7164   5  10   1.9632   1.7195   3.2720  -0.8786   0.9513  -1.3578   0.00    0.0
2019/01/19 01:21:00.000   47.480952371   19.056535069   177.9053   5  10   1.9638   1.7205   3.2713  -0.8798   0.9587  -1.3622   0.00    0.0
2019/01/19 01:21:30.000   47.480951829   19.056533977   178.1438   5  10   1.9644   1.7216   3.2706  -0.8810   0.9660  -1.3663   0.00    0.0
2019/01/19 01:22:00.000   47.480950920   19.056533127   178.1961   5  10   1.9651   1.7228   3.2699  -0.8822   0.9731  -1.3704   0.00    0.0
2019/01/19 01:22:30.000   47.480950371   19.056531970   178.3091   5  10   1.9657   1.7239   3.2692  -0.8834   0.9801  -1.3743   0.00    0.0
2019/01/19 01:23:00.000   47.480950412   19.056530667   178.2558   5  10   1.9664   1.7251   3.2685  -0.8845   0.9871  -1.3780   0.00    0.0
2019/01/19 01:23:30.000   47.480950745   19.056528858   178.2055   5  10   1.9670   1.7263   3.2677  -0.8856   0.9939  -1.3817   0.00    0.0
2019/01/19 01:24:00.000   47.480950894   19.056530655   178.2880   5  10   1.9677   1.7275   3.2669  -0.8868   1.0006  -1.3852   0.00    0.0
2019/01/19 01:24:30.000   47.480952051   19.056532916   178.2652   5  10   1.9684   1.7287   3.2662  -0.8878   1.0072  -1.3885   0.00    0.0
2019/01/19 01:25:00.000   47.480953032   19.056535518   178.1328   5  10   1.9691   1.7300   3.2653  -0.8889   1.0137  -1.3917   0.00    0.0
2019/01/19 01:25:30.000   47.480954647   19.056537319   177.6884   5  10   1.9698   1.7312   3.2645  -0.8900   1.0201  -1.3948   0.00    0.0
2019/01/19 01:26:00.000   47.480955108   19.056537753   177.2639   5  10   1.9706   1.7325   3.2637  -0.8910   1.0265  -1.3977   0.00    0.0
2019/01/19 01:26:30.000   47.480955588   19.056537327   177.1385   5  10   1.9713   1.7338   3.2628  -0.8920   1.0327  -1.4005   0.00    0.0
2019/01/19 01:27:00.000   47.480953795   19.056537927   177.2900   5  10   1.9721   1.7351   3.2619  -0.8930   1.0388  -1.4032   0.00    0.0
2019/01/19 01:27:30.000   47.480947078   19.056537863   178.3399   5   9   2.6224   1.7461   4.1448  -0.6950   0.7898  -2.5291   0.00    0.0
2019/01/19 01:28:00.000   47.480945927   19.056537937   178.0140   5   8   2.8024   1.7543   4.2651  -0.5812   0.9034  -2.3369   0.00    0.0
2019/01/19 01:28:30.000   47.480946125   19.056539209   178.1655   5   8   2.8035   1.7550   4.2709  -0.5929   0.9222  -2.3431   0.00    0.0
2019/01/19 01:29:00.000   47.480946182   19.056539614   178.4205   5   8   2.8046   1.7559   4.2766  -0.6044   0.9406  -2.3492   0.00    0.0
2019/01/19 01:29:30.000   47.480946827   19.056538872   178.4808   5   8   2.8056   1.7568   4.2822  -0.6157   0.9586  -2.3551   0.00    0.0
2019/01/19 01:30:00.000   47.480947777   19.056538512   178.4282   5   8   2.8066   1.7577   4.2877  -0.6268   0.9763  -2.3608   0.00    0.0
2019/01/19 01:30:30.000   47.480947263   19.056540087   178.4700   5   8   2.8075   1.7587   4.2931  -0.6377   0.9937  -2.3663   0.00    0.0
2019/01/19 01:31:00.000   47.480949926   19.056536887   177.8801   5   9   2.5455   1.5915   3.5405   0.6860  -0.8995  -1.6531   0.00    0.0
2019/01/19 01:31:30.000   47.480949147   19.056535316   177.9489   5   9   2.5436   1.5900   3.5429   0.6841  -0.8905  -1.6541   0.00    0.0
2019/01/19 01:32:00.000   47.480949891   19.056534686   178.0126   5   9   2.5417   1.5886   3.5452   0.6821  -0.8813  -1.6550   0.00    0.0
2019/01/19 01:32:30.000   47.480950893   19.056534551   178.0689   5   9   2.5397   1.5873   3.5475   0.6802  -0.8721  -1.6557   0.00    0.0
2019/01/19 01:33:00.000   47.480950336   19.056534914   178.2562   5   9   2.5378   1.5860   3.5499   0.6782  -0.8626  -1.6564   0.00    0.0
2019/01/19 01:33:30.000   47.480950005   19.056534743   178.1325   5   9   2.5358   1.5847   3.5522   0.6761  -0.8530  -1.6570   0.00    0.0
2019/01/19 01:34:00.000   47.480949232   19.056533577   177.9372   5   9   2.5338   1.5835   3.5545   0.6741  -0.8433  -1.6575   0.00    0.0
2019/01/19 01:34:30.000   47.480949288   19.056531860   177.8391   5   9   2.5318   1.5823   3.5569   0.6720  -0.8333  -1.6579   0.00    0.0
2019/01/19 01:35:00.000   47.480949683   19.056531337   177.7366   5   9   2.5298   1.5811   3.5592   0.6698  -0.8232  -1.6581   0.00    0.0
2019/01/19 01:35:30.000   47.480951756   19.056530932   177.4764   5   9   2.5278   1.5800   3.5615   0.6677  -0.8129  -1.6583   0.00    0.0
2019/01/19 01:36:00.000   47.480952311   19.056532255   177.4542   5   9   2.5257   1.5790   3.5638   0.6655  -0.8024  -1.6584   0.00    0.0
2019/01/19 01:36:30.000   47.480951828   19.056533139   177.8001   5   9   2.5236   1.5779   3.5661   0.6633  -0.7918  -1.6584   0.00    0.0
2019/01/19 01:37:00.000   47.480950321   19.056535387   178.0587   5   9   2.5215   1.5770   3.5684   0.6610  -0.7809  -1.6583   0.00    0.0
2019/01/19 01:37:30.000   47.480948987   19.056536645   178.1905   5   9   2.5194   1.5760   3.5706   0.6587  -0.7698  -1.6581   0.00    0.0
2019/01/19 01:38:00.000   47.480948065   19.056536932   178.1140   5   9   2.5172   1.5751   3.5729   0.6564  -0.7584  -1.6577   0.00    0.0
2019/01/19 01:38:30.000   47.480947874   19.056536469   177.9889   5   9   2.5151   1.5743   3.5751   0.6541  -0.7468  -1.6573   0.00    0.0
2019/01/19 01:39:00.000   47.480947913   19.056535798   178.0213   5   9   2.5129   1.5735   3.5773   0.6517  -0.7350  -1.6568   0.00    0.0
2019/01/19 01:39:30.000   47.480948379   19.056535464   178.0038   5   9   2.5107   1.5727   3.5795   0.6494  -0.7229  -1.6561   0.00    0.0
2019/01/19 01:40:00.000   47.480949061   19.056535570   178.0939   5   9   2.5084   1.5720   3.5816   0.6469  -0.7106  -1.6554   0.00    0.0
2019/01/19 01:40:30.000   47.480948476   19.056535216   178.1111   5   9   2.5062   1.5713   3.5838   0.6445  -0.6979  -1.6545   0.00    0.0
2019/01/19 01:41:00.000   47.480947111   19.056535162   178.1108   5   9   2.5039   1.5707   3.5859   0.6420  -0.6850  -1.6536   0.00    0.0
2019/01/19 01:41:30.000   47.480945256   19.056535368   178.3784   5   9   2.5016   1.5701   3.5879   0.6395  -0.6717  -1.6525   0.00    0.0
2019/01/19 01:42:00.000   47.480943370   19.056535229   178.6058   5   9   2.4993   1.5695   3.5900   0.6370  -0.6581  -1.6514   0.00    0.0
2019/01/19 01:42:30.000   47.480943531   19.056535285   178.6006   5   9   2.4970   1.5690   3.5920   0.6345  -0.6441  -1.6501   0.00    0.0
2019/01/19 01:43:00.000   47.480944076   19.056535139   178.5356   5   9   2.4947   1.5686   3.5940   0.6319  -0.6298  -1.6487   0.00    0.0
2019/01/19 01:43:30.000   47.480944873   19.056534834   178.3577   5   9   2.4923   1.5682   3.5960   0.6293  -0.6150  -1.6473   0.00    0.0
2019/01/19 01:44:00.000   47.480945093   19.056536763   178.3394   5   9   2.4900   1.5678   3.5979   0.6267  -0.5998  -1.6457   0.00    0.0
2019/01/19 01:44:30.000   47.480944752   19.056538646   178.3511   5   9   2.4876   1.5675   3.5998   0.6240  -0.5841  -1.6440   0.00    0.0
2019/01/19 01:45:00.000   47.480944704   19.056538632   178.3496   5   9   2.4852   1.5672   3.6017   0.6214  -0.5678  -1.6422   0.00    0.0
2019/01/19 01:45:30.000   47.480945243   19.056537904   178.3611   5   9   2.4827   1.5669   3.6036   0.6187  -0.5510  -1.6403   0.00    0.0
2019/01/19 01:46:00.000   47.480947080   19.056535733   178.1752   5   9   2.4803   1.5668   3.6054   0.6160  -0.5336  -1.6383   0.00    0.0
2019/01/19 01:46:30.000   47.480947437   19.056534107   177.9737   5   9   2.4779   1.5666   3.6072   0.6133  -0.5156  -1.6362   0.00    0.0
2019/01/19 01:47:00.000   47.480947615   19.056533720   178.0783   5   9   2.4754   1.5665   3.6089   0.6105  -0.4967  -1.6340   0.00    0.0
2019/01/19 01:47:30.000   47.480948049   19.056533407   178.0646   5   9   2.4729   1.5664   3.6106   0.6077  -0.4770  -1.6317   0.00    0.0
2019/01/19 01:48:00.000   47.480948427   19.056533474   178.1245   5   9   2.4704   1.5664   3.6123   0.6049  -0.4564  -1.6292   0.00    0.0
2019/01/19 01:48:30.000   47.480947814   19.056533459   178.1098   5   9   2.4679   1.5665   3.6140   0.6021  -0.4347  -1.6267   0.00    0.0
2019/01/19 01:49:00.000   47.480947536   19.056534448   177.9500   5   9   2.4654   1.5665   3.6156   0.5993  -0.4117  -1.6241   0.00    0.0
2019/01/19 01:49:30.000   47.480947189   19.056535027   177.8334   5   9   2.4629   1.5667   3.6172   0.5964  -0.3872  -1.6214   0.00    0.0
2019/01/19 01:50:00.000   47.480948617   19.056534152   177.6602   5   9   2.4603   1.5668   3.6188   0.5936  -0.3610  -1.6186   0.00    0.0
2019/01/19 01:50:30.000   47.480950094   19.056535551   177.6236   5   9   2.4578   1.5671   3.6203   0.5907  -0.3325  -1.6156   0.00    0.0
2019/01/19 01:51:00.000   47.480950383   19.056536105   177.5902   5   9   2.4552   1.5673   3.6218   0.5878  -0.3013  -1.6126   0.00    0.0
2019/01/19 01:51:30.000   47.480951333   19.056534821   177.4638   5   9   2.4527   1.5676   3.6233   0.5849  -0.2662  -1.6095   0.00    0.0
2019/01/19 01:52:00.000   47.480950466   19.056534984   177.5470   5   9   2.4501   1.5680   3.6248   0.5819  -0.2255  -1.6063   0.00    0.0
2019/01/19 01:52:30.000   47.480950416   19.056535580   177.6354   5   9   2.4475   1.5684   3.6262   0.5790  -0.1754  -1.6029   0.00    0.0
2019/01/19 01:53:00.000   47.480949376   19.056535947   177.7858   5   9   2.4449   1.5689   3.6276   0.5760  -0.1030  -1.5995   0.00    0.0
2019/01/19 01:53:30.000   47.480949072   19.056536486   177.7837   5  10   2.2853   1.5566   3.5119   0.7074   0.4385  -1.8262   0.00    0.0
2019/01/19 01:54:00.000   47.480950772   19.056535734   177.8220   5  10   2.2818   1.5572   3.5147   0.7050   0.4595  -1.8222   0.00    0.0
2019/01/19 01:54:30.000   47.480951989   19.056535896   177.8673   5  10   2.2782   1.5579   3.5175   0.7026   0.4798  -1.8182   0.00    0.0
2019/01/19 01:55:00.000   47.480953307   19.056534818   177.7763   5  10   2.2747   1.5586   3.5203   0.7003   0.4993  -1.8140   0.00    0.0
2019/01/19 01:55:30.000   47.480953254   19.056534753   177.6907   5  10   2.2712   1.5594   3.5231   0.6979   0.5181  -1.8097   0.00    0.0
2019/01/19 01:56:00.000   47.480952509   19.056534859   177.6408   5  10   2.2677   1.5602   3.5258   0.6955   0.5364  -1.8053   0.00    0.0
2019/01/19 01:56:30.000   47.480951253   19.056535155   177.6426   5  10   2.2642   1.5610   3.5286   0.6932   0.5542  -1.8008   0.00    0.0
2019/01/19 01:57:00.000   47.480950485   19.056535936   177.8363   5  10   2.2607   1.5619   3.5313   0.6908   0.5715  -1.7962   0.00    0.0
2019/01/19 01:57:30.000   47.480950957   19.056535716   177.9649   5  10   2.2572   1.5628   3.5340   0.6885   0.5884  -1.7915   0.00    0.0
2019/01/19 01:58:00.000   47.480951072   19.056536108   178.3990   5  10   2.2537   1.5638   3.5367   0.6861   0.6049  -1.7867   0.00    0.0
2019/01/19 01:58:30.000   47.480951814   19.056534462   178.6219   5  10   2.2502   1.5649   3.5393   0.6838   0.6210  -1.7818   0.00    0.0
2019/01/19 01:59:00.000   47.480951967   19.056534488   178.7081   5  10   2.2468   1.5660   3.5420   0.6815   0.6369  -1.7768   0.00    0.0
2019/01/19 01:59:30.000   47.480953681   19.056532813   178.1585   5  11   2.2087   1.4412   3.2256   0.8384  -0.6921  -1.6006   0.00    0.0
2019/01/19 02:00:00.000   47.480954117   19.056533544   177.9985   5  11   2.2053   1.4408   3.2275   0.8374  -0.6826  -1.5947   0.00    0.0
2019/01/19 02:00:30.000   47.480954719   19.056533054   177.7715   5  11   2.2018   1.4405   3.2294   0.8363  -0.6729  -1.5887   0.00    0.0
2019/01/19 02:01:00.000   47.480953825   19.056534043   177.8008   5  11   2.1984   1.4402   3.2313   0.8353  -0.6630  -1.5826   0.00    0.0
2019/01/19 02:01:30.000   47.480952897   19.056534205   177.7748   5  11   2.1950   1.4400   3.2332   0.8343  -0.6528  -1.5764   0.00    0.0
2019/01/19 02:02:00.000   47.480952851   19.056536224   177.4701   5  10   2.3474   1.7003   3.7444   1.2062  -1.4554  -2.0126   0.00    0.0
2019/01/19 02:02:30.000   47.480952036   19.056535960   177.5371   5  10   2.3410   1.6968   3.7453   1.1998  -1.4460  -2.0030   0.00    0.0
2019/01/19 02:03:00.000   47.480952192   19.056534564   177.4315   5  10   2.3346   1.6932   3.7462   1.1934  -1.4365  -1.9932   0.00    0.0
2019/01/19 02:03:30.000   47.480953016   19.056532308   177.2793   5  10   2.3282   1.6897   3.7471   1.1870  -1.4268  -1.9834   0.00    0.0
2019/01/19 02:04:00.000   47.480953731   19.056530509   177.2360   5  10   2.3219   1.6863   3.7481   1.1807  -1.4171  -1.9735   0.00    0.0
2019/01/19 02:04:30.000   47.480952640   19.056531784   177.4205   5  10   2.3157   1.6829   3.7490   1.1743  -1.4073  -1.9635   0.00    0.0
2019/01/19 02:05:00.000   47.480951547   19.056532541   177.8094   5  10   2.3095   1.6795   3.7499   1.1680  -1.3973  -1.9534   0.00    0.0
2019/01/19 02:05:30.000   47.480951279   19.056532403   178.1176   5  10   2.3033   1.6762   3.7509   1.1617  -1.3873  -1.9432   0.00    0.0
2019/01/19 02:06:00.000   47.480951746   19.056532574   178.3024   5  10   2.2972   1.6730   3.7519   1.1554  -1.3771  -1.9329   0.00    0.0
2019/01/19 02:06:30.000   47.480953310   19.056532133   177.9369   5  10   2.2911   1.6698   3.7529   1.1491  -1.3668  -1.9225   0.00    0.0
2019/01/19 02:07:00.000   47.480953862   19.056529777   177.3837   5  10   2.2851   1.6666   3.7539   1.1429  -1.3564  -1.9120   0.00    0.0
2019/01/19 02:07:30.000   47.480951781   19.056528887   177.1606   5  10   2.2792   1.6635   3.7549   1.1367  -1.3459  -1.9014   0.00    0.0
2019/01/19 02:08:00.000   47.480948108   19.056531557   177.6390   5  10   2.2733   1.6605   3.7560   1.1305  -1.3353  -1.8908   0.00    0.0
2019/01/19 02:08:30.000   47.480945580   19.056535708   178.2909   5  10   2.2675   1.6575   3.7571   1.1244  -1.3245  -1.8800   0.00    0.0
2019/01/19 02:09:00.000   47.480944469   19.056538058   178.8830   5  10   2.2617   1.6545   3.7582   1.1182  -1.3136  -1.8691   0.00    0.0
2019/01/19 02:09:30.000   47.480944564   19.056538206   179.0461   5  10   2.2560   1.6517   3.7593   1.1122  -1.3025  -1.8582   0.00    0.0
2019/01/19 02:10:00.000   47.480946927   19.056535477   178.5833   5  10   2.2503   1.6488   3.7605   1.1061  -1.2914  -1.8471   0.00    0.0
2019/01/19 02:10:30.000   47.480948359   19.056532624   178.1552   5  10   2.2448   1.6460   3.7617   1.1001  -1.2800  -1.8360   0.00    0.0
2019/01/19 02:11:00.000   47.480947449   19.056532563   178.2140   5  10   2.2392   1.6433   3.7630   1.0941  -1.2686  -1.8248   0.00    0.0
2019/01/19 02:11:30.000   47.480945525   19.056532947   178.3463   5  10   2.2338   1.6406   3.7642   1.0882  -1.2570  -1.8134   0.00    0.0
2019/01/19 02:12:00.000   47.480943436   19.056534361   178.8194   5  10   2.2284   1.6380   3.7655   1.0823  -1.2452  -1.8020   0.00    0.0
2019/01/19 02:12:30.000   47.480943027   19.056535273   178.9892   5  10   2.2231   1.6355   3.7669   1.0764  -1.2333  -1.7905   0.00    0.0
2019/01/19 02:13:00.000   47.480944212   19.056534552   178.8762   5  10   2.2178   1.6330   3.7683   1.0706  -1.2212  -1.7788   0.00    0.0
2019/01/19 02:13:30.000   47.480945966   19.056533949   178.5440   5  10   2.2126   1.6305   3.7697   1.0648  -1.2089  -1.7671   0.00    0.0
2019/01/19 02:14:00.000   47.480950128   19.056535245   178.3247   5  11   2.1397   1.5684   3.6743   0.9405  -1.3426  -1.8820   0.00    0.0
2019/01/19 02:14:30.000   47.480950467   19.056535820   178.1066   5  11   2.1341   1.5651   3.6750   0.9327  -1.3330  -1.8719   0.00    0.0
2019/01/19 02:15:00.000   47.480949391   19.056536831   178.1022   5  11   2.1285   1.5619   3.6757   0.9250  -1.3233  -1.8617   0.00    0.0
2019/01/19 02:15:30.000   47.480948890   19.056537401   178.0919   5  11   2.1229   1.5587   3.6765   0.9173  -1.3135  -1.8514   0.00    0.0
2019/01/19 02:16:00.000   47.480949664   19.056535676   177.8945   5  11   2.1175   1.5556   3.6773   0.9096  -1.3036  -1.8411   0.00    0.0
2019/01/19 02:16:30.000   47.480950216   19.056534712   177.8349   5  11   2.1121   1.5525   3.6781   0.9019  -1.2936  -1.8307   0.00    0.0
2019/01/19 02:17:00.000   47.480950360   19.056535246   177.8126   5  11   2.1068   1.5494   3.6790   0.8942  -1.2835  -1.8202   0.00    0.0
2019/01/19 02:17:30.000   47.480951430   19.056535849   178.0632   5  10   2.2625   1.5550   3.7949   0.9605  -1.2125  -1.5805   0.00    0.0
2019/01/19 02:18:00.000   47.480951272   19.056535674   177.8386   5  10   2.2554   1.5518   3.8030   0.9516  -1.2010  -1.5625   0.00    0.0
2019/01/19 02:18:30.000   47.480951314   19.056536070   177.5711   5  10   2.2485   1.5486   3.8115   0.9427  -1.1893  -1.5444   0.00    0.0
2019/01/19 02:19:00.000   47.480952179   19.056536145   177.1610   5  10   2.2417   1.5455   3.8201   0.9340  -1.1775  -1.5260   0.00    0.0
2019/01/19 02:19:30.000   47.480951854   19.056538131   177.0287   5  10   2.2351   1.5424   3.8290   0.9254  -1.1655  -1.5075   0.00    0.0
2019/01/19 02:20:00.000   47.480951624   19.056538551   177.0399   5  10   2.2286   1.5395   3.8382   0.9168  -1.1534  -1.4888   0.00    0.0
2019/01/19 02:20:30.000   47.480952154   19.056536962   177.1984   5  10   2.2223   1.5366   3.8476   0.9084  -1.1412  -1.4699   0.00    0.0
2019/01/19 02:21:00.000   47.480953389   19.056534683   177.4668   5  10   2.2161   1.5337   3.8572   0.9001  -1.1288  -1.4508   0.00    0.0
2019/01/19 02:21:30.000   47.480953760   19.056535431   177.7386   5  10   2.2101   1.5310   3.8671   0.8918  -1.1162  -1.4315   0.00    0.0
2019/01/19 02:22:00.000   47.480954440   19.056536953   178.1346   5  10   2.2043   1.5283   3.8773   0.8836  -1.1034  -1.4119   0.00    0.0
2019/01/19 02:22:30.000   47.480954417   19.056537985   178.6989   5  10   2.1986   1.5256   3.8877   0.8756  -1.0905  -1.3921   0.00    0.0
2019/01/19 02:23:00.000   47.480954351   19.056539433   179.2449   5  10   2.1930   1.5231   3.8984   0.8676  -1.0773  -1.3720   0.00    0.0
2019/01/19 02:23:30.000   47.480955368   19.056539477   179.5480   5  10   2.1877   1.5206   3.9093   0.8597  -1.0639  -1.3516   0.00    0.0
2019/01/19 02:24:00.000   47.480956274   19.056538595   179.4477   5  10   2.1824   1.5181   3.9204   0.8520  -1.0503  -1.3309   0.00    0.0
2019/01/19 02:24:30.000   47.480956669   19.056538389   179.2329   5  10   2.1773   1.5158   3.9318   0.8443  -1.0365  -1.3099   0.00    0.0
2019/01/19 02:25:00.000   47.480956519   19.056538117   178.8360   5  10   2.1724   1.5135   3.9434   0.8367  -1.0224  -1.2885   0.00    0.0
2019/01/19 02:25:30.000   47.480956116   19.056538712   178.5664   5  10   2.1676   1.5112   3.9553   0.8293  -1.0079  -1.2668   0.00    0.0
2019/01/19 02:26:00.000   47.480956003   19.056538874   178.1940   5  10   2.1629   1.5091   3.9674   0.8219  -0.9932  -1.2447   0.00    0.0
2019/01/19 02:26:30.000   47.480955860   19.056539270   178.0737   5  10   2.1585   1.5070   3.9798   0.8146  -0.9782  -1.2222   0.00    0.0
2019/01/19 02:27:00.000   47.480955766   19.056538771   178.0023   5  10   2.1541   1.5049   3.9924   0.8075  -0.9629  -1.1993   0.00    0.0
2019/01/19 02:27:30.000   47.480955754   19.056538624   178.3655   5  10   2.1499   1.5030   4.0052   0.8004  -0.9471  -1.1759   0.00    0.0
2019/01/19 02:28:00.000   47.480955826   19.056539529   178.7438   5  10   2.1458   1.5011   4.0183   0.7934  -0.9310  -1.1521   0.00    0.0
2019/01/19 02:28:30.000   47.480958248   19.056539689   178.5312   5  11   1.9460   1.4992   3.7041   0.7853  -0.9125   0.3912   0.00    0.0
2019/01/19 02:29:00.000   47.480959109   19.056539288   178.0617   5  11   1.9452   1.4975   3.7188   0.7819  -0.9006   0.4440   0.00    0.0
2019/01/19 02:29:30.000   47.480959107   19.056537185   177.4812   5  11   1.9444   1.4957   3.7338   0.7785  -0.8884   0.4914   0.00    0.0
2019/01/19 02:30:00.000   47.480958141   19.056536613   177.3366   5  11   1.9438   1.4941   3.7489   0.7752  -0.8759   0.5350   0.00    0.0
2019/01/19 02:30:30.000   47.480956658   19.056537792   177.5029   5  11   1.9433   1.4924   3.7641   0.7721  -0.8630   0.5756   0.00    0.0
2019/01/19 02:31:00.000   47.480956159   19.056539460   177.9549   5  11   1.9429   1.4908   3.7795   0.7690  -0.8497   0.6137   0.00    0.0
2019/01/19 02:31:30.000   47.480956581   19.056541140   178.5237   5  11   1.9426   1.4893   3.7951   0.7660  -0.8361   0.6499   0.00    0.0
2019/01/19 02:32:00.000   47.480957374   19.056541174   178.9604   5  11   1.9424   1.4878   3.8108   0.7632  -0.8220   0.6844   0.00    0.0
2019/01/19 02:32:30.000   47.480958754   19.056539595   178.7718   5  11   1.9423   1.4864   3.8266   0.7604  -0.8075   0.7175   0.00    0.0
2019/01/19 02:33:00.000   47.480958931   19.056538955   178.4320   5  11   1.9423   1.4850   3.8426   0.7577  -0.7925   0.7494   0.00    0.0
2019/01/19 02:33:30.000   47.480958206   19.056539329   178.1930   5  11   1.9424   1.4836   3.8587   0.7552  -0.7770   0.7801   0.00    0.0
2019/01/19 02:34:00.000   47.480957243   19.056540267   178.1372   5  11   1.9426   1.4823   3.8749   0.7527  -0.7609   0.8099   0.00    0.0
2019/01/19 02:34:30.000   47.480957259   19.056540713   178.3669   5  11   1.9429   1.4811   3.8913   0.7504  -0.7443   0.8388   0.00    0.0
2019/01/19 02:35:00.000   47.480957851   19.056540368   178.4015   5  11   1.9433   1.4799   3.9078   0.7481  -0.7271   0.8669   0.00    0.0
2019/01/19 02:35:30.000   47.480958925   19.056539387   178.4043   5  11   1.9439   1.4787   3.9243   0.7460  -0.7091   0.8944   0.00    0.0
2019/01/19 02:36:00.000   47.480960169   19.056538850   178.4983   5  11   1.9445   1.4776   3.9410   0.7440  -0.6905   0.9211   0.00    0.0
2019/01/19 02:36:30.000   47.480960756   19.056538938   178.7391   5  11   1.9452   1.4766   3.9578   0.7421  -0.6711   0.9473   0.00    0.0
2019/01/19 02:37:00.000   47.480961315   19.056539289   178.7351   5  11   1.9460   1.4756   3.9746   0.7403  -0.6508   0.9729   0.00    0.0
2019/01/19 02:37:30.000   47.480960059   19.056539855   178.9066   5  11   1.9469   1.4747   3.9916   0.7386  -0.6295   0.9980   0.00    0.0
2019/01/19 02:38:00.000   47.480957176   19.056540619   178.9088   5  11   1.9478   1.4738   4.0086   0.7370  -0.6072   1.0226   0.00    0.0
2019/01/19 02:38:30.000   47.480954661   19.056542251   178.8029   5  11   1.9489   1.4729   4.0257   0.7356  -0.5837   1.0467   0.00    0.0
2019/01/19 02:39:00.000   47.480953818   19.056543136   178.6392   5  11   1.9501   1.4722   4.0429   0.7342  -0.5589   1.0704   0.00    0.0
2019/01/19 02:39:30.000   47.480955031   19.056543947   178.5592   5  11   1.9513   1.4714   4.0601   0.7330  -0.5326   1.0937   0.00    0.0
2019/01/19 02:40:00.000   47.480956586   19.056542944   178.5008   5  11   1.9527   1.4708   4.0773   0.7319  -0.5045   1.1166   0.00    0.0
2019/01/19 02:40:30.000   47.480957357   19.056541548   178.6671   5  11   1.9541   1.4702   4.0946   0.7309  -0.4743   1.1391   0.00    0.0
2019/01/19 02:41:00.000   47.480957457   19.056540257   178.9566   5  11   1.9556   1.4696   4.1119   0.7301  -0.4417   1.1612   0.00    0.0
2019/01/19 02:41:30.000   47.480956935   19.056540501   179.2412   5  11   1.9572   1.4691   4.1292   0.7293  -0.4059   1.1830   0.00    0.0
2019/01/19 02:42:00.000   47.480956434   19.056540749   179.3323   5  11   1.9589   1.4687   4.1465   0.7287  -0.3661   1.2044   0.00    0.0
2019/01/19 02:42:30.000   47.480955752   19.056541948   179.0819   5  11   1.9606   1.4683   4.1638   0.7282  -0.3209   1.2256   0.00    0.0
2019/01/19 02:43:00.000   47.480956545   19.056542174   178.7200   5  11   1.9624   1.4680   4.1811   0.7278  -0.2674   1.2463   0.00    0.0
2019/01/19 02:43:30.000   47.480958564   19.056542399   178.3152   5  11   1.9643   1.4677   4.1984   0.7275  -0.1990   1.2668   0.00    0.0
2019/01/19 02:44:00.000   47.480959650   19.056542441   178.3280   5  11   1.9663   1.4675   4.2156   0.7273  -0.0858   1.2869   0.00    0.0
2019/01/19 02:44:30.000   47.480958919   19.056541503   178.4216   5  11   1.9683   1.4674   4.2327   0.7273   0.1590   1.3067   0.00    0.0
2019/01/19 02:45:00.000   47.480957020   19.056538905   178.3016   5  11   1.9704   1.4673   4.2498   0.7273   0.2414   1.3262   0.00    0.0
2019/01/19 02:45:30.000   47.480955709   19.056537640   178.1435   5  11   1.9725   1.4672   4.2668   0.7275   0.3028   1.3454   0.00    0.0
2019/01/19 02:46:00.000   47.480955498   19.056537899   178.1630   5  11   1.9747   1.4673   4.2837   0.7278   0.3541   1.3643   0.00    0.0
2019/01/19 02:46:30.000   47.480956699   19.056539177   178.4117   5  11   1.9770   1.4674   4.3006   0.7282   0.3994   1.3829   0.00    0.0
2019/01/19 02:47:00.000   47.480957621   19.056538952   178.5216   5  11   1.9793   1.4676   4.3172   0.7286   0.4404   1.4011   0.00    0.0
2019/01/19 02:47:30.000   47.480957440   19.056539328   178.7622   5  11   1.9817   1.4678   4.3338   0.7292   0.4782   1.4191   0.00    0.0
2019/01/19 02:48:00.000   47.480956176   19.056540421   178.7124   5  11   1.9841   1.4681   4.3502   0.7299   0.5136   1.4367   0.00    0.0
2019/01/19 02:48:30.000   47.480956319   19.056541746   178.8043   5  11   1.9866   1.4684   4.3664   0.7307   0.5470   1.4540   0.00    0.0
2019/01/19 02:49:00.000   47.480958008   19.056543435   178.8412   5  11   1.9891   1.4688   4.3825   0.7316   0.5787   1.4710   0.00    0.0
2019/01/19 02:49:30.000   47.480960208   19.056543627   178.7014   5  11   1.9916   1.4693   4.3983   0.7325   0.6090   1.4876   0.00    0.0
2019/01/19 02:50:00.000   47.480962400   19.056542947   178.5921   5  11   1.9941   1.4698   4.4140   0.7336   0.6381   1.5039   0.00    0.0
2019/01/19 02:50:30.000   47.480962899   19.056542119   178.7693   5  11   1.9967   1.4704   4.4294   0.7347   0.6661   1.5199   0.00    0.0
2019/01/19 02:51:00.000   47.480963147   19.056539529   178.8134   5  11   1.9993   1.4711   4.4445   0.7359   0.6932   1.5355   0.00    0.0
2019/01/19 02:51:30.000   47.480963814   19.056538325   179.1083   5  11   2.0020   1.4718   4.4594   0.7372   0.7193   1.5508   0.00    0.0
2019/01/19 02:52:00.000   47.480963776   19.056538369   179.3639   5  11   2.0046   1.4726   4.4740   0.7386   0.7447   1.5657   0.00    0.0
2019/01/19 02:52:30.000   47.480963218   19.056539189   179.4011   5  11   2.0073   1.4735   4.4884   0.7400   0.7694   1.5803   0.00    0.0
2019/01/19 02:53:00.000   47.480962339   19.056540219   179.5286   5  11   2.0099   1.4744   4.5024   0.7414   0.7934   1.5945   0.00    0.0
2019/01/19 02:53:30.000   47.480961800   19.056538344   179.2063   5  11   2.0126   1.4754   4.5161   0.7430   0.8168   1.6083   0.00    0.0
2019/01/19 02:54:00.000   47.480961145   19.056536986   179.1095   5  11   2.0153   1.4764   4.5294   0.7445   0.8395   1.6217   0.00    0.0
2019/01/19 02:54:30.000   47.480961685   19.056536634   179.0538   5  11   2.0179   1.4775   4.5424   0.7461   0.8618   1.6347   0.00    0.0
2019/01/19 02:55:00.000   47.480962232   19.056537269   179.2912   5  11   2.0206   1.4787   4.5550   0.7478   0.8835   1.6474   0.00    0.0
2019/01/19 02:55:30.000   47.480963113   19.056537959   179.6238   5  11   2.0232   1.4799   4.5672   0.7495   0.9047   1.6596   0.00    0.0
2019/01/19 02:56:00.000   47.480963080   19.056538297   179.9331   5  11   2.0258   1.4811   4.5790   0.7512   0.9254   1.6714   0.00    0.0
2019/01/19 02:56:30.000   47.480963011   19.056538440   179.8344   5  11   2.0284   1.4825   4.5904   0.7529   0.9456   1.6828   0.00    0.0
2019/01/19 02:57:00.000   47.480963528   19.056538628   179.5662   5  11   2.0310   1.4839   4.6013   0.7546   0.9654   1.6938   0.00    0.0
2019/01/19 02:57:30.000   47.480963184   19.056539069   179.6338   5  11   2.0336   1.4853   4.6118   0.7563   0.9848   1.7043   0.00    0.0
2019/01/19 02:58:00.000   47.480962726   19.056540224   179.5659   5  11   2.0361   1.4868   4.6218   0.7580   1.0037   1.7144   0.00    0.0
2019/01/19 02:58:30.000   47.480962606   19.056541635   179.6071   5  11   2.0385   1.4883   4.6314   0.7598   1.0222   1.7240   0.00    0.0
2019/01/19 02:59:00.000   47.480963176   19.056541124   179.5399   5  11   2.0410   1.4899   4.6404   0.7615   1.0402   1.7332   0.00    0.0
2019/01/19 02:59:30.000   47.480964234   19.056541931   179.7763   5  11   2.0433   1.4916   4.6490   0.7631   1.0579   1.7419   0.00    0.0
2019/01/19 03:00:00.000   47.480965317   19.056544573   179.9017   5  11   2.0457   1.4933   4.6570   0.7648   1.0752   1.7501   0.00    0.0
2019/01/19 03:00:30.000   47.480965049   19.056545569   179.8140   5  11   2.0480   1.4950   4.6645   0.7664   1.0920   1.7579   0.00    0.0
2019/01/19 03:01:00.000   47.480964853   19.056545937   179.9556   5  11   2.0502   1.4968   4.6714   0.7679   1.1085   1.7651   0.00    0.0
2019/01/19 03:01:30.000   47.480964869   19.056544320   180.1883   5  11   2.0523   1.4986   4.6778   0.7695   1.1245   1.7719   0.00    0.0
2019/01/19 03:02:00.000   47.480965195   19.056541735   180.4248   5  11   2.0544   1.5005   4.6836   0.7709   1.1402   1.7782   0.00    0.0
2019/01/19 03:02:30.000   47.480965134   19.056540301   180.5239   5  11   2.0565   1.5024   4.6889   0.7723   1.1555   1.7839   0.00    0.0
2019/01/19 03:03:00.000   47.480964447   19.056539769   180.6140   5  11   2.0584   1.5044   4.6936   0.7736   1.1703   1.7892   0.00    0.0
2019/01/19 03:03:30.000   47.480963079   19.056539673   180.4921   5  11   2.0603   1.5064   4.6977   0.7749   1.1848   1.7939   0.00    0.0
2019/01/19 03:04:00.000   47.480963096   19.056538621   180.4042   5  11   2.0621   1.5084   4.7012   0.7760   1.1990   1.7982   0.00    0.0
2019/01/19 03:04:30.000   47.480963013   19.056538482   180.5140   5  11   2.0639   1.5105   4.7042   0.7771   1.2127   1.8019   0.00    0.0
2019/01/19 03:05:00.000   47.480962282   19.056538146   180.6779   5  11   2.0655   1.5126   4.7065   0.7781   1.2260   1.8050   0.00    0.0
2019/01/19 03:05:30.000   47.480962140   19.056537534   180.7112   5  11   2.0671   1.5147   4.7082   0.7789   1.2390   1.8077   0.00    0.0
2019/01/19 03:06:00.000   47.480962744   19.056536291   181.2671   5  11   2.0686   1.5169   4.7094   0.7797   1.2515   1.8098   0.00    0.0
2019/01/19 03:06:30.000   47.480964432   19.056535572   181.9125   5  11   2.0701   1.5191   4.7099   0.7803   1.2637   1.8114   0.00    0.0
2019/01/19 03:07:00.000   47.480964778   19.056534895   181.9568   5  11   2.0714   1.5213   4.7099   0.7809   1.2755   1.8125   0.00    0.0
2019/01/19 03:07:30.000   47.480965065   19.056537389   181.8685   5  11   2.0727   1.5235   4.7093   0.7813   1.2869   1.8130   0.00    0.0
2019/01/19 03:08:00.000   47.480958213   19.056532425   179.7714   5  12   1.8773   1.4010   3.7711   0.2798  -0.1364   0.8962   0.00    0.0
2019/01/19 03:08:30.000   47.480960505   19.056538626   178.3845   5  11   1.9969   1.6138   4.5441   0.7849  -1.4257  -0.9541   0.00    0.0
2019/01/19 03:09:00.000   47.480960958   19.056538580   178.2727   5  11   1.9966   1.6113   4.5474   0.7774  -1.4171  -0.9486   0.00    0.0
2019/01/19 03:09:30.000   47.480962127   19.056536298   178.0015   5  11   1.9964   1.6089   4.5503   0.7699  -1.4083  -0.9433   0.00    0.0
2019/01/19 03:10:00.000   47.480961998   19.056535030   177.8883   5  11   1.9962   1.6065   4.5530   0.7624  -1.3994  -0.9382   0.00    0.0
2019/01/19 03:10:30.000   47.480961906   19.056535869   177.7329   5  11   1.9960   1.6042   4.5552   0.7548  -1.3903  -0.9332   0.00    0.0
2019/01/19 03:11:00.000   47.480962442   19.056536111   177.7175   5  11   1.9960   1.6018   4.5571   0.7473  -1.3809  -0.9285   0.00    0.0
2019/01/19 03:11:30.000   47.480963334   19.056535894   177.7910   5  11   1.9959   1.5996   4.5587   0.7397  -1.3714  -0.9241   0.00    0.0
2019/01/19 03:12:00.000   47.480963085   19.056535988   177.5853   5  11   1.9960   1.5973   4.5599   0.7322  -1.3617  -0.9198   0.00    0.0
2019/01/19 03:12:30.000   47.480961984   19.056536219   177.4312   5  11   1.9961   1.5951   4.5608   0.7246  -1.3518  -0.9158   0.00    0.0
2019/01/19 03:13:00.000   47.480960459   19.056536275   177.4544   5  11   1.9962   1.5930   4.5613   0.7169  -1.3418  -0.9120   0.00    0.0
2019/01/19 03:13:30.000   47.480959680   19.056537399   177.6649   5  11   1.9965   1.5908   4.5614   0.7093  -1.3315  -0.9084   0.00    0.0
2019/01/19 03:14:00.000   47.480960141   19.056539128   177.7126   5  11   1.9967   1.5887   4.5612   0.7016  -1.3210  -0.9052   0.00    0.0
2019/01/19 03:14:30.000   47.480960865   19.056539782   177.5227   5  11   1.9970   1.5867   4.5606   0.6939  -1.3104  -0.9022   0.00    0.0
2019/01/19 03:15:00.000   47.480960720   19.056540140   177.4415   5  11   1.9974   1.5847   4.5597   0.6861  -1.2995  -0.8994   0.00    0.0
2019/01/19 03:15:30.000   47.480959934   19.056539697   177.3012   5  11   1.9978   1.5827   4.5584   0.6783  -1.2885  -0.8969   0.00    0.0
2019/01/19 03:16:00.000   47.480959464   19.056539516   177.1566   5  11   1.9983   1.5808   4.5567   0.6705  -1.2773  -0.8947   0.00    0.0
2019/01/19 03:16:30.000   47.480959809   19.056540238   176.5542   5  11   1.9989   1.5789   4.5546   0.6626  -1.2659  -0.8928   0.00    0.0
2019/01/19 03:17:00.000   47.480961449   19.056539698   175.8414   5  11   1.9994   1.5771   4.5522   0.6546  -1.2543  -0.8912   0.00    0.0
2019/01/19 03:17:30.000   47.480962529   19.056539609   175.3798   5  11   2.0001   1.5753   4.5495   0.6466  -1.2425  -0.8898   0.00    0.0
2019/01/19 03:18:00.000   47.480961221   19.056540245   175.4421   5  11   2.0008   1.5736   4.5464   0.6386  -1.2305  -0.8888   0.00    0.0
2019/01/19 03:18:30.000   47.480959816   19.056540883   175.7735   5  11   2.0015   1.5719   4.5429   0.6305  -1.2183  -0.8880   0.00    0.0
2019/01/19 03:19:00.000   47.480959055   19.056541080   176.1055   5  11   2.0023   1.5702   4.5391   0.6223  -1.2060  -0.8875   0.00    0.0
2019/01/19 03:19:30.000   47.480960615   19.056541711   176.3005   5  11   2.0031   1.5686   4.5349   0.6140  -1.1934  -0.8873   0.00    0.0
2019/01/19 03:20:00.000   47.480961604   19.056541622   176.4585   5  11   2.0040   1.5671   4.5304   0.6057  -1.1807  -0.8874   0.00    0.0
2019/01/19 03:20:30.000   47.480961428   19.056541026   176.8554   5  11   2.0050   1.5656   4.5256   0.5973  -1.1678  -0.8878   0.00    0.0
2019/01/19 03:21:00.000   47.480959954   19.056540157   177.0523   5  11   2.0060   1.5641   4.5204   0.5887  -1.1547  -0.8885   0.00    0.0
2019/01/19 03:21:30.000   47.480958449   19.056539817   177.1970   5  11   2.0070   1.5627   4.5149   0.5801  -1.1414  -0.8895   0.00    0.0
2019/01/19 03:22:00.000   47.480957647   19.056539991   177.2296   5  11   2.0081   1.5614   4.5090   0.5714  -1.1279  -0.8907   0.00    0.0
2019/01/19 03:22:30.000   47.480958149   19.056541357   177.2001   5  11   2.0092   1.5600   4.5029   0.5626  -1.1143  -0.8923   0.00    0.0
2019/01/19 03:23:00.000   47.480958767   19.056542531   176.7658   5  11   2.0104   1.5588   4.4964   0.5536  -1.1004  -0.8941   0.00    0.0
2019/01/19 03:23:30.000   47.480958903   19.056541634   176.1615   5  11   2.0116   1.5576   4.4896   0.5445  -1.0864  -0.8961   0.00    0.0
2019/01/19 03:24:00.000   47.480959274   19.056540777   176.0378   5  11   2.0129   1.5564   4.4825   0.5353  -1.0721  -0.8985   0.00    0.0
2019/01/19 03:24:30.000   47.480959531   19.056539854   176.2867   5  11   2.0143   1.5553   4.4752   0.5259  -1.0577  -0.9011   0.00    0.0
2019/01/19 03:25:00.000   47.480960005   19.056540130   176.4525   5  11   2.0156   1.5543   4.4675   0.5164  -1.0431  -0.9040   0.00    0.0
2019/01/19 03:25:30.000   47.480959822   19.056540399   176.7548   5  11   2.0171   1.5533   4.4595   0.5067  -1.0283  -0.9071   0.00    0.0
2019/01/19 03:26:00.000   47.480961235   19.056541084   176.7587   5  11   2.0185   1.5523   4.4513   0.4968  -1.0133  -0.9104   0.00    0.0
2019/01/19 03:26:30.000   47.480962537   19.056540914   176.4378   5  11   2.0200   1.5514   4.4428   0.4867  -0.9980  -0.9140   0.00    0.0
2019/01/19 03:27:00.000   47.480961531   19.056541478   176.5374   5  11   2.0216   1.5506   4.4341   0.4763  -0.9826  -0.9178   0.00    0.0
2019/01/19 03:27:30.000   47.480960221   19.056541197   176.9005   5  11   2.0232   1.5498   4.4251   0.4658  -0.9670  -0.9219   0.00    0.0
2019/01/19 03:28:00.000   47.480959313   19.056543038   177.3230   5  11   2.0249   1.5491   4.4159   0.4550  -0.9511  -0.9261   0.00    0.0
2019/01/19 03:28:30.000   47.480959299   19.056545932   177.5408   5  11   2.0266   1.5484   4.4064   0.4439  -0.9351  -0.9306   0.00    0.0
2019/01/19 03:29:00.000   47.480959664   19.056546440   177.6706   5  11   2.0284   1.5477   4.3967   0.4325  -0.9188  -0.9353   0.00    0.0
2019/01/19 03:29:30.000   47.480960036   19.056544924   177.6877   5  11   2.0302   1.5472   4.3868   0.4208  -0.9023  -0.9401   0.00    0.0
