% program   : GINA 1.0
% inp file  : C:\Users\lus2bp\Source\Repos\GINA\70_EGNOS_Project\files\PositionComparisonInputFiles\bute0190\bute0190.19o
% inp file  : C:\Users\lus2bp\Source\Repos\GINA\70_EGNOS_Project\files\PositionComparisonInputFiles\bute0190\brdc0190.19n
% obs start : 2019/01/19 00:00:00.0 GPST (week2036 518400.0s)
% obs end   : 2019/01/19 23:59:30.0 GPST (week2036 604770.0s)
% pos mode  : single
% elev mask : 10.0 deg
% ionos opt : Ionex model
% tropo opt : Saas
% ephemeris : broadcasted
% (lat/lon/height=WGS84/ellipsoidal,Q=1:fix,2:float,3:sbas,4:dgps,5:single,6:ppp,ns=# of satellites)
%  GPST                  latitude(deg) longitude(deg)  height(m)   Q  ns   sdn(m)   sde(m)   sdu(m)  sdne(m)  sdeu(m)  sdun(m) age(s)  ratio
2019/01/19 00:00:00.000   47.480957422   19.056577218   185.6931   5   8   1.1045   1.4609   0.8544   0.9725  -0.7597  -0.5054   0.00    0.0
2019/01/19 00:00:30.000   47.480959209   19.056576947   185.6616   5   8   1.1091   1.4677   0.8572   0.9886  -0.7671  -0.5131   0.00    0.0
2019/01/19 00:01:00.000   47.480960933   19.056577664   185.9018   5   8   1.1137   1.4743   0.8601   1.0047  -0.7744  -0.5208   0.00    0.0
2019/01/19 00:01:30.000   47.480961111   19.056579519   185.8997   5   8   1.1183   1.4809   0.8629   1.0208  -0.7817  -0.5285   0.00    0.0
2019/01/19 00:02:00.000   47.480961602   19.056578499   186.0061   5   8   1.1229   1.4873   0.8657   1.0368  -0.7889  -0.5363   0.00    0.0
2019/01/19 00:02:30.000   47.480962483   19.056577314   186.7142   5   8   1.1276   1.4936   0.8686   1.0528  -0.7960  -0.5440   0.00    0.0
2019/01/19 00:03:00.000   47.480962610   19.056575941   186.8378   5   8   1.1322   1.4998   0.8714   1.0687  -0.8031  -0.5518   0.00    0.0
2019/01/19 00:03:30.000   47.480963209   19.056571559   186.5469   5   8   1.1369   1.5059   0.8742   1.0845  -0.8100  -0.5595   0.00    0.0
2019/01/19 00:04:00.000   47.480963035   19.056568697   186.3911   5   8   1.1415   1.5118   0.8769   1.1002  -0.8168  -0.5672   0.00    0.0
2019/01/19 00:04:30.000   47.480962417   19.056569347   186.3504   5   8   1.1462   1.5176   0.8797   1.1157  -0.8235  -0.5749   0.00    0.0
2019/01/19 00:05:00.000   47.480960790   19.056568429   186.3267   5   8   1.1508   1.5232   0.8824   1.1311  -0.8300  -0.5826   0.00    0.0
2019/01/19 00:05:30.000   47.480958689   19.056570728   186.5371   5   8   1.1554   1.5287   0.8852   1.1464  -0.8364  -0.5902   0.00    0.0
2019/01/19 00:06:00.000   47.480957624   19.056573044   186.8805   5   8   1.1600   1.5340   0.8879   1.1614  -0.8426  -0.5978   0.00    0.0
2019/01/19 00:06:30.000   47.480957201   19.056573570   186.9507   5   8   1.1646   1.5391   0.8905   1.1763  -0.8487  -0.6053   0.00    0.0
2019/01/19 00:07:00.000   47.480957851   19.056573850   186.7393   5   8   1.1691   1.5440   0.8932   1.1909  -0.8546  -0.6128   0.00    0.0
2019/01/19 00:07:30.000   47.480959143   19.056571283   186.7191   5   8   1.1736   1.5488   0.8958   1.2052  -0.8603  -0.6202   0.00    0.0
2019/01/19 00:08:00.000   47.480959725   19.056568866   186.7171   5   8   1.1780   1.5533   0.8984   1.2193  -0.8657  -0.6276   0.00    0.0
2019/01/19 00:08:30.000   47.480959185   19.056569310   186.8016   5   8   1.1825   1.5577   0.9009   1.2331  -0.8710  -0.6348   0.00    0.0
2019/01/19 00:09:00.000   47.480958630   19.056569188   186.8625   5   8   1.1868   1.5618   0.9035   1.2466  -0.8760  -0.6420   0.00    0.0
2019/01/19 00:09:30.000   47.480958211   19.056569663   187.1590   5   8   1.1911   1.5657   0.9059   1.2597  -0.8808  -0.6490   0.00    0.0
2019/01/19 00:10:00.000   47.480957835   19.056570936   187.4811   5   8   1.1953   1.5693   0.9084   1.2725  -0.8854  -0.6560   0.00    0.0
2019/01/19 00:10:30.000   47.480958916   19.056570402   187.6661   5   8   1.1995   1.5728   0.9108   1.2849  -0.8896  -0.6628   0.00    0.0
2019/01/19 00:11:00.000   47.480959934   19.056568578   187.3189   5   8   1.2035   1.5760   0.9131   1.2969  -0.8937  -0.6696   0.00    0.0
2019/01/19 00:11:30.000   47.480960083   19.056568912   186.8471   5   8   1.2075   1.5789   0.9155   1.3086  -0.8974  -0.6762   0.00    0.0
2019/01/19 00:12:00.000   47.480960145   19.056570692   186.7392   5   8   1.2115   1.5816   0.9177   1.3197  -0.9008  -0.6826   0.00    0.0
2019/01/19 00:12:30.000   47.480960009   19.056571243   186.5321   5   8   1.2153   1.5840   0.9199   1.3304  -0.9040  -0.6890   0.00    0.0
2019/01/19 00:13:00.000   47.480960132   19.056572742   186.3417   5   8   1.2190   1.5862   0.9221   1.3407  -0.9069  -0.6951   0.00    0.0
2019/01/19 00:13:30.000   47.480959369   19.056576617   186.5378   5   8   1.2226   1.5881   0.9242   1.3505  -0.9094  -0.7011   0.00    0.0
2019/01/19 00:14:00.000   47.480959565   19.056577889   186.6743   5   8   1.2261   1.5898   0.9263   1.3597  -0.9116  -0.7070   0.00    0.0
2019/01/19 00:14:30.000   47.480960529   19.056578124   186.7149   5   8   1.2295   1.5911   0.9283   1.3685  -0.9135  -0.7127   0.00    0.0
2019/01/19 00:15:00.000   47.480960906   19.056577599   186.6024   5   8   1.2328   1.5922   0.9303   1.3767  -0.9151  -0.7182   0.00    0.0
2019/01/19 00:15:30.000   47.480960342   19.056575446   186.3256   5   8   1.2360   1.5930   0.9322   1.3844  -0.9163  -0.7235   0.00    0.0
2019/01/19 00:16:00.000   47.480960559   19.056573596   186.1621   5   8   1.2390   1.5935   0.9341   1.3915  -0.9172  -0.7287   0.00    0.0
2019/01/19 00:16:30.000   47.480960789   19.056571878   185.4315   5   8   1.2420   1.5938   0.9359   1.3980  -0.9177  -0.7336   0.00    0.0
2019/01/19 00:17:00.000   47.480959202   19.056573514   184.9474   5   8   1.2448   1.5937   0.9377   1.4040  -0.9179  -0.7384   0.00    0.0
2019/01/19 00:17:30.000   47.480958044   19.056573085   184.8724   5   8   1.2474   1.5934   0.9394   1.4094  -0.9177  -0.7429   0.00    0.0
2019/01/19 00:18:00.000   47.480957516   19.056573109   184.8834   5   8   1.2499   1.5928   0.9410   1.4142  -0.9172  -0.7473   0.00    0.0
2019/01/19 00:18:30.000   47.480956863   19.056574226   184.9478   5   8   1.2523   1.5919   0.9426   1.4184  -0.9164  -0.7514   0.00    0.0
2019/01/19 00:19:00.000   47.480955344   19.056574228   185.0698   5   8   1.2546   1.5907   0.9441   1.4220  -0.9152  -0.7554   0.00    0.0
2019/01/19 00:19:30.000   47.480954671   19.056572235   185.0397   5   8   1.2567   1.5892   0.9456   1.4249  -0.9136  -0.7591   0.00    0.0
2019/01/19 00:20:00.000   47.480954484   19.056571300   184.9438   5   8   1.2587   1.5874   0.9470   1.4273  -0.9117  -0.7627   0.00    0.0
2019/01/19 00:20:30.000   47.480954720   19.056570548   184.8001   5   8   1.2605   1.5854   0.9484   1.4291  -0.9094  -0.7660   0.00    0.0
2019/01/19 00:21:00.000   47.480954249   19.056570702   184.8023   5   8   1.2622   1.5831   0.9497   1.4303  -0.9068  -0.7691   0.00    0.0
2019/01/19 00:21:30.000   47.480952605   19.056572764   185.1896   5   8   1.2637   1.5805   0.9510   1.4308  -0.9039  -0.7720   0.00    0.0
2019/01/19 00:22:00.000   47.480951559   19.056573923   185.4961   5   8   1.2651   1.5776   0.9522   1.4308  -0.9006  -0.7747   0.00    0.0
2019/01/19 00:22:30.000   47.480951107   19.056575581   185.5364   5   8   1.2663   1.5745   0.9534   1.4302  -0.8970  -0.7772   0.00    0.0
2019/01/19 00:23:00.000   47.480952023   19.056573771   185.2880   5   8   1.2674   1.5711   0.9545   1.4290  -0.8931  -0.7795   0.00    0.0
2019/01/19 00:23:30.000   47.480952627   19.056571518   184.9463   5   8   1.2684   1.5675   0.9556   1.4272  -0.8889  -0.7816   0.00    0.0
2019/01/19 00:24:00.000   47.480952788   19.056570800   184.8505   5   8   1.2692   1.5636   0.9566   1.4248  -0.8843  -0.7834   0.00    0.0
2019/01/19 00:24:30.000   47.480952182   19.056571136   184.7541   5   8   1.2699   1.5595   0.9576   1.4219  -0.8795  -0.7851   0.00    0.0
2019/01/19 00:25:00.000   47.480951036   19.056574117   184.8969   5   8   1.2704   1.5551   0.9586   1.4184  -0.8744  -0.7866   0.00    0.0
2019/01/19 00:25:30.000   47.480950465   19.056576924   185.1181   5   8   1.2708   1.5505   0.9595   1.4144  -0.8689  -0.7879   0.00    0.0
2019/01/19 00:26:00.000   47.480949654   19.056577228   185.0645   5   8   1.2710   1.5456   0.9604   1.4099  -0.8632  -0.7890   0.00    0.0
2019/01/19 00:26:30.000   47.480949411   19.056574452   184.6907   5   8   1.2711   1.5406   0.9612   1.4048  -0.8573  -0.7900   0.00    0.0
2019/01/19 00:27:00.000   47.480948952   19.056571470   184.5127   5   8   1.2711   1.5353   0.9620   1.3993  -0.8511  -0.7907   0.00    0.0
2019/01/19 00:27:30.000   47.480948807   19.056570617   184.5933   5   8   1.2710   1.5299   0.9628   1.3932  -0.8446  -0.7913   0.00    0.0
2019/01/19 00:28:00.000   47.480949819   19.056568679   184.5304   5   8   1.2707   1.5242   0.9635   1.3868  -0.8379  -0.7917   0.00    0.0
2019/01/19 00:28:30.000   47.480950324   19.056567784   184.3885   5   8   1.2703   1.5183   0.9643   1.3798  -0.8310  -0.7920   0.00    0.0
2019/01/19 00:29:00.000   47.480951197   19.056566240   184.0340   5   8   1.2698   1.5123   0.9649   1.3724  -0.8239  -0.7921   0.00    0.0
2019/01/19 00:29:30.000   47.480952427   19.056566905   183.8812   5   8   1.2691   1.5061   0.9656   1.3646  -0.8166  -0.7920   0.00    0.0
2019/01/19 00:30:00.000   47.480953250   19.056567890   183.7280   5   8   1.2684   1.4997   0.9663   1.3565  -0.8091  -0.7918   0.00    0.0
2019/01/19 00:30:30.000   47.480952210   19.056570024   183.6842   5   8   1.2675   1.4932   0.9669   1.3479  -0.8014  -0.7915   0.00    0.0
2019/01/19 00:31:00.000   47.480950204   19.056572524   183.8664   5   8   1.2665   1.4865   0.9675   1.3389  -0.7935  -0.7910   0.00    0.0
2019/01/19 00:31:30.000   47.480950922   19.056568361   183.7029   5   8   1.2654   1.4797   0.9681   1.3297  -0.7855  -0.7905   0.00    0.0
2019/01/19 00:32:00.000   47.480949117   19.056568175   183.5847   5   8   1.2642   1.4727   0.9687   1.3201  -0.7773  -0.7898   0.00    0.0
2019/01/19 00:32:30.000   47.480946086   19.056570124   183.3511   5   8   1.2630   1.4656   0.9693   1.3101  -0.7690  -0.7890   0.00    0.0
2019/01/19 00:33:00.000   47.480943714   19.056572042   183.2565   5   8   1.2616   1.4584   0.9699   1.2999  -0.7606  -0.7880   0.00    0.0
2019/01/19 00:33:30.000   47.480942906   19.056573824   183.4144   5   8   1.2601   1.4511   0.9705   1.2894  -0.7520  -0.7870   0.00    0.0
2019/01/19 00:34:00.000   47.480943111   19.056574746   183.5482   5   8   1.2586   1.4437   0.9710   1.2787  -0.7434  -0.7859   0.00    0.0
2019/01/19 00:34:30.000   47.480944557   19.056572416   183.3725   5   8   1.2569   1.4362   0.9716   1.2677  -0.7346  -0.7847   0.00    0.0
2019/01/19 00:35:00.000   47.480944884   19.056571664   183.5523   5   8   1.2552   1.4286   0.9722   1.2565  -0.7258  -0.7835   0.00    0.0
2019/01/19 00:35:30.000   47.480944526   19.056570713   183.4879   5   8   1.2534   1.4209   0.9727   1.2451  -0.7169  -0.7821   0.00    0.0
2019/01/19 00:36:00.000   47.480944039   19.056569197   183.2139   5   8   1.2515   1.4131   0.9733   1.2336  -0.7079  -0.7807   0.00    0.0
2019/01/19 00:36:30.000   47.480943800   19.056567529   182.9874   5   8   1.2496   1.4053   0.9739   1.2218  -0.6988  -0.7793   0.00    0.0
2019/01/19 00:37:00.000   47.480943374   19.056566585   182.9183   5   8   1.2476   1.3975   0.9744   1.2099  -0.6897  -0.7777   0.00    0.0
2019/01/19 00:37:30.000   47.480943126   19.056566050   182.9415   5   8   1.2456   1.3895   0.9750   1.1978  -0.6806  -0.7762   0.00    0.0
2019/01/19 00:38:00.000   47.480942878   19.056568688   183.1148   5   8   1.2434   1.3816   0.9757   1.1856  -0.6714  -0.7745   0.00    0.0
2019/01/19 00:38:30.000   47.480944032   19.056570241   183.2350   5   8   1.2413   1.3735   0.9763   1.1733  -0.6622  -0.7729   0.00    0.0
2019/01/19 00:39:00.000   47.480944147   19.056570286   183.2826   5   8   1.2391   1.3655   0.9769   1.1609  -0.6530  -0.7712   0.00    0.0
2019/01/19 00:39:30.000   47.480943166   19.056569444   183.1809   5   8   1.2368   1.3574   0.9776   1.1485  -0.6437  -0.7695   0.00    0.0
2019/01/19 00:40:00.000   47.480943773   19.056566836   182.9516   5   8   1.2345   1.3493   0.9782   1.1359  -0.6345  -0.7677   0.00    0.0
2019/01/19 00:40:30.000   47.480943739   19.056567355   183.0187   5   8   1.2321   1.3412   0.9789   1.1233  -0.6252  -0.7660   0.00    0.0
2019/01/19 00:41:00.000   47.480943451   19.056570908   183.0723   5   8   1.2297   1.3331   0.9796   1.1106  -0.6160  -0.7642   0.00    0.0
2019/01/19 00:41:30.000   47.480943912   19.056571213   182.6248   5   8   1.2273   1.3250   0.9803   1.0979  -0.6068  -0.7624   0.00    0.0
2019/01/19 00:42:00.000   47.480941886   19.056572544   182.4760   5   8   1.2249   1.3169   0.9811   1.0852  -0.5976  -0.7606   0.00    0.0
2019/01/19 00:42:30.000   47.480940290   19.056572899   182.5615   5   8   1.2224   1.3088   0.9818   1.0725  -0.5884  -0.7588   0.00    0.0
2019/01/19 00:43:00.000   47.480941160   19.056571564   182.7609   5   8   1.2198   1.3007   0.9826   1.0597  -0.5792  -0.7570   0.00    0.0
2019/01/19 00:43:30.000   47.480944693   19.056571522   183.1724   5   8   1.2173   1.2926   0.9834   1.0470  -0.5700  -0.7552   0.00    0.0
2019/01/19 00:44:00.000   47.480947558   19.056569312   183.1248   5   8   1.2148   1.2845   0.9842   1.0342  -0.5609  -0.7534   0.00    0.0
2019/01/19 00:44:30.000   47.480948881   19.056566477   182.7847   5   8   1.2122   1.2764   0.9851   1.0215  -0.5518  -0.7516   0.00    0.0
2019/01/19 00:45:00.000   47.480947729   19.056567928   182.6423   5   8   1.2096   1.2684   0.9860   1.0088  -0.5428  -0.7498   0.00    0.0
2019/01/19 00:45:30.000   47.480946895   19.056569801   182.6538   5   8   1.2070   1.2604   0.9869   0.9962  -0.5338  -0.7480   0.00    0.0
2019/01/19 00:46:00.000   47.480947175   19.056570308   182.8448   5   8   1.2043   1.2524   0.9878   0.9836  -0.5248  -0.7463   0.00    0.0
2019/01/19 00:46:30.000   47.480946864   19.056570953   182.9281   5   8   1.2017   1.2445   0.9888   0.9710  -0.5159  -0.7446   0.00    0.0
2019/01/19 00:47:00.000   47.480946553   19.056558597   180.7404   5   9   1.0414   1.1104   0.6736   0.6350  -0.1123  -0.3119   0.00    0.0
2019/01/19 00:47:30.000   47.480946001   19.056558388   180.8441   5   9   1.0413   1.1074   0.6752   0.6323  -0.1121  -0.3140   0.00    0.0
2019/01/19 00:48:00.000   47.480946004   19.056557688   180.8340   5   9   1.0411   1.1043   0.6769   0.6295  -0.1119  -0.3161   0.00    0.0
2019/01/19 00:48:30.000   47.480947215   19.056555809   180.8910   5   9   1.0409   1.1012   0.6785   0.6266  -0.1117  -0.3182   0.00    0.0
2019/01/19 00:49:00.000   47.480947977   19.056556209   180.8502   5   9   1.0407   1.0980   0.6802   0.6236  -0.1115  -0.3202   0.00    0.0
2019/01/19 00:49:30.000   47.480948299   19.056558007   180.9865   5   9   1.0404   1.0948   0.6818   0.6205  -0.1112  -0.3223   0.00    0.0
2019/01/19 00:50:00.000   47.480947055   19.056559058   180.9895   5   9   1.0400   1.0915   0.6835   0.6172  -0.1110  -0.3243   0.00    0.0
2019/01/19 00:50:30.000   47.480946269   19.056560585   181.1709   5   9   1.0397   1.0881   0.6852   0.6139  -0.1107  -0.3264   0.00    0.0
2019/01/19 00:51:00.000   47.480946423   19.056560947   181.1743   5   9   1.0393   1.0847   0.6868   0.6105  -0.1104  -0.3284   0.00    0.0
2019/01/19 00:51:30.000   47.480946064   19.056561927   181.2986   5   9   1.0389   1.0812   0.6885   0.6070  -0.1100  -0.3304   0.00    0.0
2019/01/19 00:52:00.000   47.480944234   19.056563143   181.1890   5   9   1.0384   1.0777   0.6902   0.6034  -0.1097  -0.3324   0.00    0.0
2019/01/19 00:52:30.000   47.480943134   19.056562645   181.0728   5   9   1.0379   1.0742   0.6919   0.5997  -0.1093  -0.3344   0.00    0.0
2019/01/19 00:53:00.000   47.480942452   19.056561789   180.9410   5   9   1.0374   1.0706   0.6936   0.5960  -0.1089  -0.3364   0.00    0.0
2019/01/19 00:53:30.000   47.480943479   19.056561106   180.7316   5   9   1.0369   1.0669   0.6953   0.5922  -0.1085  -0.3384   0.00    0.0
2019/01/19 00:54:00.000   47.480944688   19.056561763   180.5846   5   9   1.0363   1.0633   0.6970   0.5883  -0.1080  -0.3403   0.00    0.0
2019/01/19 00:54:30.000   47.480945201   19.056563061   180.5402   5   9   1.0357   1.0595   0.6987   0.5844  -0.1076  -0.3423   0.00    0.0
2019/01/19 00:55:00.000   47.480944316   19.056563031   180.5611   5   9   1.0351   1.0558   0.7004   0.5803  -0.1071  -0.3442   0.00    0.0
2019/01/19 00:55:30.000   47.480943521   19.056561571   180.3912   5   9   1.0344   1.0520   0.7021   0.5763  -0.1066  -0.3461   0.00    0.0
2019/01/19 00:56:00.000   47.480943074   19.056561520   180.4616   5   9   1.0338   1.0482   0.7038   0.5721  -0.1061  -0.3480   0.00    0.0
2019/01/19 00:56:30.000   47.480941713   19.056560738   180.6768   5   9   1.0331   1.0443   0.7055   0.5680  -0.1056  -0.3499   0.00    0.0
2019/01/19 00:57:00.000   47.480941431   19.056559966   180.5730   5   9   1.0323   1.0405   0.7072   0.5637  -0.1050  -0.3518   0.00    0.0
2019/01/19 00:57:30.000   47.480942193   19.056560062   180.2474   5   9   1.0316   1.0366   0.7089   0.5595  -0.1045  -0.3536   0.00    0.0
2019/01/19 00:58:00.000   47.480942666   19.056559436   179.9419   5   9   1.0308   1.0326   0.7106   0.5551  -0.1039  -0.3555   0.00    0.0
2019/01/19 00:58:30.000   47.480942250   19.056558435   179.4955   5   9   1.0300   1.0287   0.7124   0.5508  -0.1033  -0.3573   0.00    0.0
2019/01/19 00:59:00.000   47.480941848   19.056557133   179.2604   5   9   1.0292   1.0247   0.7141   0.5464  -0.1027  -0.3591   0.00    0.0
2019/01/19 00:59:30.000   47.480943617   19.056557250   178.9600   5   9   1.0283   1.0208   0.7158   0.5420  -0.1021  -0.3609   0.00    0.0
2019/01/19 01:00:00.000   47.480944843   19.056556775   179.2793   5   9   1.0275   1.0168   0.7176   0.5375  -0.1014  -0.3627   0.00    0.0
2019/01/19 01:00:30.000   47.480946552   19.056555224   179.6823   5   9   1.0266   1.0128   0.7193   0.5330  -0.1008  -0.3645   0.00    0.0
2019/01/19 01:01:00.000   47.480948806   19.056553765   179.6638   5   9   1.0257   1.0088   0.7210   0.5285  -0.1001  -0.3662   0.00    0.0
2019/01/19 01:01:30.000   47.480949736   19.056552254   179.6623   5   9   1.0248   1.0047   0.7227   0.5240  -0.0994  -0.3680   0.00    0.0
2019/01/19 01:02:00.000   47.480949619   19.056552091   179.7544   5   9   1.0238   1.0007   0.7245   0.5194  -0.0987  -0.3697   0.00    0.0
2019/01/19 01:02:30.000   47.480948716   19.056551874   179.8278   5   9   1.0229   0.9967   0.7262   0.5148  -0.0980  -0.3714   0.00    0.0
2019/01/19 01:03:00.000   47.480948157   19.056552339   180.0730   5   9   1.0219   0.9926   0.7279   0.5103  -0.0973  -0.3731   0.00    0.0
2019/01/19 01:03:30.000   47.480947269   19.056554652   180.4267   5   9   1.0209   0.9886   0.7297   0.5057  -0.0966  -0.3748   0.00    0.0
2019/01/19 01:04:00.000   47.480947801   19.056554721   180.7267   5   9   1.0199   0.9845   0.7314   0.5011  -0.0958  -0.3765   0.00    0.0
2019/01/19 01:04:30.000   47.480947563   19.056554373   181.0975   5   9   1.0188   0.9805   0.7331   0.4964  -0.0951  -0.3781   0.00    0.0
2019/01/19 01:05:00.000   47.480946249   19.056553579   181.1615   5   9   1.0178   0.9764   0.7349   0.4918  -0.0943  -0.3797   0.00    0.0
2019/01/19 01:05:30.000   47.480946348   19.056551153   181.0516   5   9   1.0167   0.9724   0.7366   0.4872  -0.0935  -0.3813   0.00    0.0
2019/01/19 01:06:00.000   47.480947358   19.056547754   180.9373   5   9   1.0157   0.9683   0.7383   0.4826  -0.0927  -0.3829   0.00    0.0
2019/01/19 01:06:30.000   47.480947784   19.056545679   180.8696   5   9   1.0146   0.9643   0.7401   0.4779  -0.0919  -0.3845   0.00    0.0
2019/01/19 01:07:00.000   47.480948781   19.056545630   180.9311   5   9   1.0135   0.9603   0.7418   0.4733  -0.0911  -0.3860   0.00    0.0
2019/01/19 01:07:30.000   47.480948771   19.056545513   181.0986   5   9   1.0123   0.9562   0.7435   0.4687  -0.0903  -0.3876   0.00    0.0
2019/01/19 01:08:00.000   47.480949583   19.056545956   180.9764   5   9   1.0112   0.9522   0.7452   0.4640  -0.0894  -0.3891   0.00    0.0
2019/01/19 01:08:30.000   47.480950797   19.056545189   180.6039   5   9   1.0101   0.9482   0.7470   0.4594  -0.0886  -0.3906   0.00    0.0
2019/01/19 01:09:00.000   47.480952905   19.056544136   180.4281   5   9   1.0089   0.9442   0.7487   0.4548  -0.0877  -0.3920   0.00    0.0
2019/01/19 01:09:30.000   47.480954164   19.056543950   180.2368   5   9   1.0077   0.9402   0.7504   0.4502  -0.0869  -0.3935   0.00    0.0
2019/01/19 01:10:00.000   47.480954388   19.056544670   180.1060   5   9   1.0065   0.9363   0.7521   0.4457  -0.0860  -0.3949   0.00    0.0
2019/01/19 01:10:30.000   47.480954115   19.056546531   180.0217   5   9   1.0053   0.9323   0.7538   0.4411  -0.0851  -0.3964   0.00    0.0
2019/01/19 01:11:00.000   47.480952414   19.056549964   180.1737   5   9   1.0041   0.9284   0.7555   0.4365  -0.0843  -0.3977   0.00    0.0
2019/01/19 01:11:30.000   47.480950349   19.056550728   180.1820   5   9   1.0029   0.9244   0.7572   0.4320  -0.0834  -0.3991   0.00    0.0
2019/01/19 01:12:00.000   47.480949576   19.056549488   179.9522   5   9   1.0016   0.9205   0.7589   0.4275  -0.0825  -0.4005   0.00    0.0
2019/01/19 01:12:30.000   47.480948531   19.056548545   179.5618   5   9   1.0004   0.9166   0.7606   0.4230  -0.0816  -0.4018   0.00    0.0
2019/01/19 01:13:00.000   47.480947537   19.056547395   179.5905   5   9   0.9991   0.9127   0.7623   0.4185  -0.0807  -0.4031   0.00    0.0
2019/01/19 01:13:30.000   47.480948097   19.056547677   179.6635   5   9   0.9978   0.9089   0.7640   0.4140  -0.0798  -0.4044   0.00    0.0
2019/01/19 01:14:00.000   47.480948544   19.056547257   179.9311   5   9   0.9965   0.9050   0.7656   0.4096  -0.0788  -0.4056   0.00    0.0
2019/01/19 01:14:30.000   47.480950647   19.056545710   180.0788   5   9   0.9952   0.9012   0.7673   0.4051  -0.0779  -0.4069   0.00    0.0
2019/01/19 01:15:00.000   47.480952279   19.056545322   180.2192   5   9   0.9939   0.8974   0.7690   0.4007  -0.0770  -0.4081   0.00    0.0
2019/01/19 01:15:30.000   47.480952715   19.056546683   180.3705   5   9   0.9926   0.8936   0.7706   0.3964  -0.0760  -0.4093   0.00    0.0
2019/01/19 01:16:00.000   47.480952894   19.056548429   180.4801   5   9   0.9912   0.8899   0.7723   0.3920  -0.0751  -0.4104   0.00    0.0
2019/01/19 01:16:30.000   47.480954186   19.056549121   180.4485   5   9   0.9899   0.8861   0.7739   0.3877  -0.0742  -0.4116   0.00    0.0
2019/01/19 01:17:00.000   47.480954695   19.056548732   180.5557   5   9   0.9885   0.8824   0.7756   0.3834  -0.0732  -0.4127   0.00    0.0
2019/01/19 01:17:30.000   47.480956055   19.056549406   180.5286   5   9   0.9872   0.8787   0.7772   0.3791  -0.0723  -0.4137   0.00    0.0
2019/01/19 01:18:00.000   47.480956097   19.056548903   180.5661   5   9   0.9858   0.8750   0.7788   0.3749  -0.0713  -0.4148   0.00    0.0
2019/01/19 01:18:30.000   47.480956335   19.056548862   180.5614   5   9   0.9844   0.8714   0.7804   0.3706  -0.0703  -0.4158   0.00    0.0
2019/01/19 01:19:00.000   47.480956463   19.056549165   180.4282   5   9   0.9830   0.8678   0.7821   0.3664  -0.0694  -0.4168   0.00    0.0
2019/01/19 01:19:30.000   47.480957171   19.056546324   180.3287   5   9   0.9816   0.8642   0.7837   0.3623  -0.0684  -0.4178   0.00    0.0
2019/01/19 01:20:00.000   47.480954422   19.056546916   180.1472   5  10   0.9685   0.6931   0.7752   0.2815  -0.1312  -0.4376   0.00    0.0
2019/01/19 01:20:30.000   47.480953256   19.056545055   180.2201   5  10   0.9679   0.6925   0.7763   0.2810  -0.1312  -0.4382   0.00    0.0
2019/01/19 01:21:00.000   47.480952718   19.056543650   180.3987   5  10   0.9673   0.6919   0.7774   0.2805  -0.1312  -0.4389   0.00    0.0
2019/01/19 01:21:30.000   47.480952033   19.056542107   180.6390   5  10   0.9666   0.6913   0.7784   0.2799  -0.1311  -0.4394   0.00    0.0
2019/01/19 01:22:00.000   47.480951218   19.056540787   180.6602   5  10   0.9658   0.6907   0.7794   0.2793  -0.1311  -0.4399   0.00    0.0
2019/01/19 01:22:30.000   47.480950639   19.056539604   180.7674   5  10   0.9651   0.6900   0.7804   0.2787  -0.1310  -0.4404   0.00    0.0
2019/01/19 01:23:00.000   47.480950607   19.056538425   180.7207   5  10   0.9642   0.6894   0.7814   0.2780  -0.1309  -0.4408   0.00    0.0
2019/01/19 01:23:30.000   47.480950906   19.056536620   180.6827   5  10   0.9634   0.6887   0.7823   0.2773  -0.1307  -0.4411   0.00    0.0
2019/01/19 01:24:00.000   47.480950961   19.056538491   180.7542   5  10   0.9625   0.6880   0.7833   0.2765  -0.1305  -0.4413   0.00    0.0
2019/01/19 01:24:30.000   47.480952041   19.056540824   180.7189   5  10   0.9615   0.6873   0.7842   0.2757  -0.1303  -0.4415   0.00    0.0
2019/01/19 01:25:00.000   47.480952718   19.056543616   180.6028   5  10   0.9605   0.6866   0.7850   0.2749  -0.1301  -0.4417   0.00    0.0
2019/01/19 01:25:30.000   47.480954228   19.056545491   180.1735   5  10   0.9595   0.6859   0.7859   0.2741  -0.1299  -0.4418   0.00    0.0
2019/01/19 01:26:00.000   47.480954875   19.056545680   179.7664   5  10   0.9584   0.6851   0.7867   0.2732  -0.1296  -0.4418   0.00    0.0
2019/01/19 01:26:30.000   47.480956506   19.056545096   179.5118   5   9   1.4700   0.6847   0.8690   0.2964  -0.1372  -0.8515   0.00    0.0
2019/01/19 01:27:00.000   47.480955686   19.056545634   179.5706   5   9   1.4713   0.6840   0.8716   0.2951  -0.1369  -0.8574   0.00    0.0
2019/01/19 01:27:30.000   47.480954935   19.056546452   179.6617   5   9   1.4725   0.6832   0.8742   0.2938  -0.1365  -0.8632   0.00    0.0
2019/01/19 01:28:00.000   47.480956486   19.056547169   179.6265   5   9   1.4736   0.6824   0.8767   0.2924  -0.1361  -0.8689   0.00    0.0
2019/01/19 01:28:30.000   47.480942314   19.056543087   178.0874   5   8   1.4750   0.8331   0.8969   0.3075  -0.2204  -0.8805   0.00    0.0
2019/01/19 01:29:00.000   47.480942738   19.056543125   178.2422   5   8   1.4761   0.8336   0.9001   0.3094  -0.2221  -0.8873   0.00    0.0
2019/01/19 01:29:30.000   47.480943410   19.056542256   178.2109   5   8   1.4771   0.8341   0.9033   0.3113  -0.2237  -0.8941   0.00    0.0
2019/01/19 01:30:00.000   47.480944385   19.056541851   178.0687   5   8   1.4781   0.8346   0.9065   0.3132  -0.2253  -0.9007   0.00    0.0
2019/01/19 01:30:30.000   47.480943931   19.056543295   178.0303   5   8   1.4790   0.8351   0.9096   0.3150  -0.2269  -0.9073   0.00    0.0
2019/01/19 01:31:00.000   47.480945932   19.056540622   177.5575   5   9   1.1975   0.8271   0.6190   0.2142  -0.1494  -0.3306   0.00    0.0
2019/01/19 01:31:30.000   47.480945269   19.056538886   177.5763   5   9   1.1977   0.8276   0.6208   0.2163  -0.1510  -0.3340   0.00    0.0
2019/01/19 01:32:00.000   47.480946307   19.056537886   177.5537   5   9   1.1979   0.8281   0.6225   0.2183  -0.1526  -0.3373   0.00    0.0
2019/01/19 01:32:30.000   47.480947430   19.056537442   177.5536   5   9   1.1980   0.8286   0.6243   0.2203  -0.1542  -0.3407   0.00    0.0
2019/01/19 01:33:00.000   47.480946714   19.056537865   177.7484   5   9   1.1982   0.8291   0.6261   0.2222  -0.1558  -0.3441   0.00    0.0
2019/01/19 01:33:30.000   47.480946377   19.056537671   177.5848   5   9   1.1983   0.8295   0.6279   0.2242  -0.1574  -0.3474   0.00    0.0
2019/01/19 01:34:00.000   47.480945517   19.056536336   177.3422   5   9   1.1984   0.8299   0.6297   0.2261  -0.1590  -0.3508   0.00    0.0
2019/01/19 01:34:30.000   47.480945586   19.056534355   177.1890   5   9   1.1985   0.8303   0.6315   0.2280  -0.1605  -0.3541   0.00    0.0
2019/01/19 01:35:00.000   47.480946037   19.056533576   177.0135   5   9   1.1985   0.8307   0.6333   0.2299  -0.1621  -0.3574   0.00    0.0
2019/01/19 01:35:30.000   47.480948182   19.056532997   176.6897   5   9   1.1986   0.8311   0.6351   0.2317  -0.1637  -0.3607   0.00    0.0
2019/01/19 01:36:00.000   47.480948794   19.056534153   176.6072   5   9   1.1986   0.8315   0.6369   0.2335  -0.1653  -0.3640   0.00    0.0
2019/01/19 01:36:30.000   47.480948324   19.056534871   176.9253   5   9   1.1986   0.8318   0.6388   0.2353  -0.1668  -0.3673   0.00    0.0
2019/01/19 01:37:00.000   47.480946963   19.056536935   177.1224   5   9   1.1985   0.8321   0.6406   0.2370  -0.1684  -0.3705   0.00    0.0
2019/01/19 01:37:30.000   47.480945767   19.056537965   177.1964   5   9   1.1985   0.8324   0.6425   0.2388  -0.1700  -0.3738   0.00    0.0
2019/01/19 01:38:00.000   47.480945090   19.056537912   177.0507   5   9   1.1984   0.8327   0.6444   0.2404  -0.1715  -0.3770   0.00    0.0
2019/01/19 01:38:30.000   47.480945190   19.056537182   176.8403   5   9   1.1983   0.8330   0.6462   0.2421  -0.1731  -0.3802   0.00    0.0
2019/01/19 01:39:00.000   47.480945369   19.056536431   176.8301   5   9   1.1981   0.8332   0.6481   0.2437  -0.1746  -0.3834   0.00    0.0
2019/01/19 01:39:30.000   47.480945987   19.056535894   176.7526   5   9   1.1980   0.8334   0.6500   0.2453  -0.1761  -0.3865   0.00    0.0
2019/01/19 01:40:00.000   47.480946712   19.056535793   176.8076   5   9   1.1978   0.8336   0.6519   0.2468  -0.1776  -0.3897   0.00    0.0
2019/01/19 01:40:30.000   47.480946189   19.056535261   176.7703   5   9   1.1975   0.8338   0.6538   0.2483  -0.1791  -0.3928   0.00    0.0
2019/01/19 01:41:00.000   47.480945028   19.056535004   176.6981   5   9   1.1973   0.8340   0.6557   0.2498  -0.1806  -0.3959   0.00    0.0
2019/01/19 01:41:30.000   47.480943014   19.056535383   176.9651   5   9   1.1970   0.8341   0.6576   0.2512  -0.1821  -0.3990   0.00    0.0
2019/01/19 01:42:00.000   47.480941090   19.056535227   177.1827   5   9   1.1967   0.8343   0.6595   0.2526  -0.1836  -0.4020   0.00    0.0
2019/01/19 01:42:30.000   47.480941442   19.056534929   177.0972   5   9   1.1964   0.8344   0.6614   0.2540  -0.1850  -0.4050   0.00    0.0
2019/01/19 01:43:00.000   47.480942163   19.056534442   176.9551   5   9   1.1960   0.8345   0.6633   0.2553  -0.1865  -0.4080   0.00    0.0
2019/01/19 01:43:30.000   47.480943248   19.056533704   176.6894   5   9   1.1956   0.8345   0.6653   0.2566  -0.1879  -0.4110   0.00    0.0
2019/01/19 01:44:00.000   47.480943550   19.056535398   176.6377   5   9   1.1952   0.8346   0.6672   0.2578  -0.1893  -0.4140   0.00    0.0
2019/01/19 01:44:30.000   47.480943196   19.056537113   176.6593   5   9   1.1948   0.8346   0.6691   0.2590  -0.1907  -0.4169   0.00    0.0
2019/01/19 01:45:00.000   47.480943214   19.056536876   176.6379   5   9   1.1943   0.8346   0.6710   0.2601  -0.1921  -0.4198   0.00    0.0
2019/01/19 01:45:30.000   47.480943841   19.056535951   176.6090   5   9   1.1938   0.8345   0.6730   0.2612  -0.1935  -0.4227   0.00    0.0
2019/01/19 01:46:00.000   47.480945796   19.056533625   176.3706   5   9   1.1932   0.8345   0.6749   0.2623  -0.1948  -0.4255   0.00    0.0
2019/01/19 01:46:30.000   47.480946193   19.056531803   176.1335   5   9   1.1927   0.8344   0.6768   0.2633  -0.1961  -0.4283   0.00    0.0
2019/01/19 01:47:00.000   47.480946064   19.056531516   176.2770   5   9   1.1921   0.8343   0.6788   0.2642  -0.1975  -0.4311   0.00    0.0
2019/01/19 01:47:30.000   47.480946297   19.056531027   176.2801   5   9   1.1914   0.8342   0.6807   0.2651  -0.1988  -0.4338   0.00    0.0
2019/01/19 01:48:00.000   47.480946616   19.056530840   176.3131   5   9   1.1908   0.8341   0.6827   0.2660  -0.2000  -0.4365   0.00    0.0
2019/01/19 01:48:30.000   47.480945938   19.056531015   176.2909   5   9   1.1901   0.8339   0.6846   0.2668  -0.2013  -0.4392   0.00    0.0
2019/01/19 01:49:00.000   47.480945933   19.056531783   176.0599   5   9   1.1893   0.8337   0.6865   0.2676  -0.2025  -0.4419   0.00    0.0
2019/01/19 01:49:30.000   47.480945860   19.056531855   175.8715   5   9   1.1886   0.8335   0.6885   0.2683  -0.2037  -0.4445   0.00    0.0
2019/01/19 01:50:00.000   47.480947449   19.056530436   175.6542   5   9   1.1878   0.8333   0.6904   0.2690  -0.2049  -0.4471   0.00    0.0
2019/01/19 01:50:30.000   47.480948831   19.056531204   175.6092   5   9   1.1870   0.8330   0.6924   0.2696  -0.2061  -0.4496   0.00    0.0
2019/01/19 01:51:00.000   47.480948913   19.056531356   175.5940   5   9   1.1861   0.8328   0.6943   0.2702  -0.2072  -0.4521   0.00    0.0
2019/01/19 01:51:30.000   47.480949856   19.056529774   175.4644   5   9   1.1852   0.8325   0.6962   0.2707  -0.2083  -0.4546   0.00    0.0
2019/01/19 01:52:00.000   47.480949030   19.056529798   175.5282   5   9   1.1843   0.8321   0.6982   0.2712  -0.2094  -0.4571   0.00    0.0
2019/01/19 01:52:30.000   47.480949042   19.056530507   175.5943   5   9   1.1833   0.8318   0.7001   0.2716  -0.2105  -0.4595   0.00    0.0
2019/01/19 01:53:00.000   47.480948534   19.056530826   175.7889   5  10   1.1795   0.6952   0.7014   0.2345  -0.1987  -0.4595   0.00    0.0
2019/01/19 01:53:30.000   47.480948649   19.056531078   175.7521   5  10   1.1787   0.6962   0.7034   0.2364  -0.2004  -0.4620   0.00    0.0
2019/01/19 01:54:00.000   47.480950472   19.056530095   175.7083   5  10   1.1778   0.6971   0.7054   0.2383  -0.2021  -0.4645   0.00    0.0
2019/01/19 01:54:30.000   47.480951955   19.056529969   175.6854   5  10   1.1770   0.6981   0.7074   0.2401  -0.2037  -0.4670   0.00    0.0
2019/01/19 01:55:00.000   47.480953305   19.056528552   175.5649   5  10   1.1760   0.6990   0.7093   0.2419  -0.2054  -0.4694   0.00    0.0
2019/01/19 01:55:30.000   47.480953037   19.056528156   175.4937   5  10   1.1751   0.6999   0.7113   0.2436  -0.2071  -0.4717   0.00    0.0
2019/01/19 01:56:00.000   47.480952043   19.056527896   175.4579   5  10   1.1741   0.7008   0.7133   0.2453  -0.2087  -0.4740   0.00    0.0
2019/01/19 01:56:30.000   47.480950385   19.056528005   175.4702   5  10   1.1731   0.7017   0.7152   0.2469  -0.2103  -0.4763   0.00    0.0
2019/01/19 01:57:00.000   47.480949395   19.056528559   175.6681   5  10   1.1720   0.7026   0.7171   0.2485  -0.2119  -0.4785   0.00    0.0
2019/01/19 01:57:30.000   47.480949721   19.056528134   175.7721   5  10   1.1709   0.7035   0.7191   0.2501  -0.2135  -0.4807   0.00    0.0
2019/01/19 01:58:00.000   47.480949858   19.056528408   176.1662   5  10   1.1697   0.7043   0.7210   0.2515  -0.2151  -0.4828   0.00    0.0
2019/01/19 01:58:30.000   47.480950654   19.056526839   176.3838   5  10   1.1685   0.7051   0.7229   0.2530  -0.2166  -0.4849   0.00    0.0
2019/01/19 01:59:00.000   47.480950749   19.056526880   176.4801   5  10   1.1673   0.7059   0.7248   0.2543  -0.2181  -0.4869   0.00    0.0
2019/01/19 01:59:30.000   47.480945572   19.056540728   178.6845   5  11   1.0887   0.6900   0.5771   0.1918  -0.1521  -0.3045   0.00    0.0
2019/01/19 02:00:00.000   47.480946029   19.056542631   178.5321   5  11   1.0875   0.6908   0.5786   0.1933  -0.1535  -0.3061   0.00    0.0
2019/01/19 02:00:30.000   47.480945808   19.056543551   178.3621   5  11   1.0862   0.6917   0.5801   0.1947  -0.1550  -0.3076   0.00    0.0
2019/01/19 02:01:00.000   47.480944835   19.056544083   178.3528   5  11   1.0849   0.6925   0.5816   0.1961  -0.1564  -0.3092   0.00    0.0
2019/01/19 02:01:30.000   47.480943953   19.056543745   178.3067   5  11   1.0836   0.6934   0.5831   0.1974  -0.1578  -0.3107   0.00    0.0
2019/01/19 02:02:00.000   47.480947107   19.056549978   177.3142   5  10   1.3968   0.7157   0.5854   0.3526  -0.1539  -0.2850   0.00    0.0
2019/01/19 02:02:30.000   47.480946432   19.056549360   177.3596   5  10   1.3949   0.7173   0.5867   0.3565  -0.1556  -0.2884   0.00    0.0
2019/01/19 02:03:00.000   47.480946822   19.056547490   177.1884   5  10   1.3930   0.7189   0.5881   0.3604  -0.1573  -0.2916   0.00    0.0
2019/01/19 02:03:30.000   47.480947952   19.056544829   176.9415   5  10   1.3911   0.7204   0.5895   0.3642  -0.1589  -0.2949   0.00    0.0
2019/01/19 02:04:00.000   47.480948940   19.056542837   176.8057   5  10   1.3891   0.7220   0.5909   0.3679  -0.1606  -0.2981   0.00    0.0
2019/01/19 02:04:30.000   47.480947996   19.056544036   176.9053   5  10   1.3871   0.7235   0.5923   0.3715  -0.1623  -0.3013   0.00    0.0
2019/01/19 02:05:00.000   47.480946821   19.056544859   177.2806   5  10   1.3850   0.7251   0.5938   0.3751  -0.1640  -0.3044   0.00    0.0
2019/01/19 02:05:30.000   47.480946222   19.056544668   177.6267   5  10   1.3829   0.7266   0.5952   0.3786  -0.1657  -0.3075   0.00    0.0
2019/01/19 02:06:00.000   47.480946478   19.056544464   177.8099   5  10   1.3808   0.7281   0.5966   0.3820  -0.1674  -0.3106   0.00    0.0
2019/01/19 02:06:30.000   47.480948331   19.056543317   177.3261   5  10   1.3786   0.7296   0.5981   0.3853  -0.1690  -0.3136   0.00    0.0
2019/01/19 02:07:00.000   47.480949476   19.056540310   176.6256   5  10   1.3764   0.7311   0.5995   0.3885  -0.1707  -0.3166   0.00    0.0
2019/01/19 02:07:30.000   47.480947887   19.056539173   176.3136   5  10   1.3742   0.7325   0.6010   0.3916  -0.1724  -0.3195   0.00    0.0
2019/01/19 02:08:00.000   47.480944342   19.056542029   176.7897   5  10   1.3719   0.7340   0.6024   0.3947  -0.1740  -0.3224   0.00    0.0
2019/01/19 02:08:30.000   47.480941681   19.056546384   177.4591   5  10   1.3696   0.7354   0.6039   0.3977  -0.1757  -0.3252   0.00    0.0
2019/01/19 02:09:00.000   47.480940140   19.056548727   178.0816   5  10   1.3672   0.7368   0.6054   0.4006  -0.1773  -0.3280   0.00    0.0
2019/01/19 02:09:30.000   47.480939940   19.056548645   178.2343   5  10   1.3648   0.7382   0.6068   0.4033  -0.1789  -0.3308   0.00    0.0
2019/01/19 02:10:00.000   47.480942442   19.056545558   177.7127   5  10   1.3623   0.7396   0.6083   0.4060  -0.1805  -0.3335   0.00    0.0
2019/01/19 02:10:30.000   47.480944223   19.056542315   177.1973   5  10   1.3598   0.7409   0.6098   0.4086  -0.1821  -0.3361   0.00    0.0
2019/01/19 02:11:00.000   47.480943424   19.056541996   177.2079   5  10   1.3573   0.7422   0.6113   0.4111  -0.1837  -0.3387   0.00    0.0
2019/01/19 02:11:30.000   47.480941469   19.056542285   177.3265   5  10   1.3547   0.7435   0.6127   0.4136  -0.1853  -0.3413   0.00    0.0
2019/01/19 02:12:00.000   47.480939254   19.056543665   177.8109   5  10   1.3521   0.7448   0.6142   0.4159  -0.1869  -0.3438   0.00    0.0
2019/01/19 02:12:30.000   47.480938894   19.056544343   177.9697   5  10   1.3495   0.7460   0.6157   0.4181  -0.1884  -0.3462   0.00    0.0
2019/01/19 02:13:00.000   47.480940159   19.056543329   177.8562   5  10   1.3468   0.7473   0.6172   0.4202  -0.1899  -0.3487   0.00    0.0
2019/01/19 02:13:30.000   47.480939372   19.056539189   177.1095   5  11   1.3436   0.6913   0.5725   0.4118  -0.1242  -0.3425   0.00    0.0
2019/01/19 02:14:00.000   47.480941946   19.056538239   176.6067   5  11   1.3408   0.6928   0.5738   0.4138  -0.1256  -0.3448   0.00    0.0
2019/01/19 02:14:30.000   47.480942194   19.056538449   176.3627   5  11   1.3380   0.6943   0.5752   0.4157  -0.1271  -0.3471   0.00    0.0
2019/01/19 02:15:00.000   47.480941024   19.056539194   176.3369   5  11   1.3351   0.6957   0.5766   0.4175  -0.1285  -0.3493   0.00    0.0
2019/01/19 02:15:30.000   47.480940621   19.056539461   176.2906   5  11   1.3323   0.6971   0.5780   0.4192  -0.1299  -0.3515   0.00    0.0
2019/01/19 02:16:00.000   47.480941631   19.056537473   176.0454   5  11   1.3293   0.6985   0.5793   0.4209  -0.1313  -0.3536   0.00    0.0
2019/01/19 02:16:30.000   47.480942104   19.056536321   175.9658   5  11   1.3264   0.6999   0.5807   0.4224  -0.1327  -0.3557   0.00    0.0
2019/01/19 02:17:00.000   47.480942066   19.056536771   175.9348   5  11   1.3234   0.7012   0.5821   0.4239  -0.1341  -0.3578   0.00    0.0
2019/01/19 02:17:30.000   47.480941473   19.056537065   176.0454   5  11   1.3204   0.7025   0.5835   0.4252  -0.1355  -0.3598   0.00    0.0
2019/01/19 02:18:00.000   47.480941009   19.056536790   175.8124   5  10   1.3182   0.8213   0.6001   0.4470  -0.1937  -0.3683   0.00    0.0
2019/01/19 02:18:30.000   47.480940804   19.056536870   175.4992   5  10   1.3156   0.8258   0.6024   0.4536  -0.1977  -0.3720   0.00    0.0
2019/01/19 02:19:00.000   47.480941622   19.056536606   175.0575   5  10   1.3130   0.8305   0.6047   0.4601  -0.2017  -0.3758   0.00    0.0
2019/01/19 02:19:30.000   47.480941189   19.056538208   174.8913   5  10   1.3105   0.8351   0.6070   0.4667  -0.2058  -0.3796   0.00    0.0
2019/01/19 02:20:00.000   47.480940861   19.056538398   174.8907   5  10   1.3081   0.8399   0.6094   0.4734  -0.2100  -0.3835   0.00    0.0
2019/01/19 02:20:30.000   47.480941349   19.056536629   175.0318   5  10   1.3057   0.8447   0.6118   0.4801  -0.2143  -0.3874   0.00    0.0
2019/01/19 02:21:00.000   47.480942391   19.056534240   175.2799   5  10   1.3035   0.8495   0.6143   0.4869  -0.2187  -0.3913   0.00    0.0
2019/01/19 02:21:30.000   47.480942546   19.056534830   175.5159   5  10   1.3012   0.8544   0.6168   0.4937  -0.2231  -0.3954   0.00    0.0
2019/01/19 02:22:00.000   47.480943113   19.056536260   175.8765   5  10   1.2991   0.8593   0.6193   0.5006  -0.2276  -0.3994   0.00    0.0
2019/01/19 02:22:30.000   47.480942976   19.056537217   176.4053   5  10   1.2970   0.8643   0.6219   0.5075  -0.2322  -0.4035   0.00    0.0
2019/01/19 02:23:00.000   47.480942810   19.056538690   176.9305   5  10   1.2950   0.8693   0.6245   0.5145  -0.2369  -0.4077   0.00    0.0
2019/01/19 02:23:30.000   47.480943752   19.056538639   177.2129   5  10   1.2930   0.8744   0.6271   0.5215  -0.2417  -0.4119   0.00    0.0
2019/01/19 02:24:00.000   47.480944417   19.056537516   177.0877   5  10   1.2911   0.8795   0.6298   0.5286  -0.2465  -0.4162   0.00    0.0
2019/01/19 02:24:30.000   47.480944501   19.056536870   176.8369   5  10   1.2893   0.8847   0.6325   0.5358  -0.2515  -0.4205   0.00    0.0
2019/01/19 02:25:00.000   47.480944023   19.056536177   176.4193   5  10   1.2875   0.8899   0.6353   0.5430  -0.2565  -0.4249   0.00    0.0
2019/01/19 02:25:30.000   47.480943370   19.056536386   176.1384   5  10   1.2858   0.8952   0.6381   0.5503  -0.2616  -0.4293   0.00    0.0
2019/01/19 02:26:00.000   47.480943192   19.056536152   175.7335   5  10   1.2841   0.9005   0.6410   0.5576  -0.2668  -0.4338   0.00    0.0
2019/01/19 02:26:30.000   47.480942937   19.056536214   175.5622   5  10   1.2825   0.9059   0.6438   0.5650  -0.2722  -0.4384   0.00    0.0
2019/01/19 02:27:00.000   47.480942694   19.056535437   175.4267   5  10   1.2810   0.9113   0.6468   0.5724  -0.2776  -0.4430   0.00    0.0
2019/01/19 02:27:30.000   47.480942375   19.056535116   175.7389   5  10   1.2795   0.9168   0.6498   0.5799  -0.2830  -0.4477   0.00    0.0
2019/01/19 02:28:00.000   47.480942126   19.056535835   176.0750   5  10   1.2781   0.9223   0.6528   0.5875  -0.2886  -0.4524   0.00    0.0
2019/01/19 02:28:30.000   47.480942227   19.056535758   176.2240   5  10   1.2767   0.9279   0.6558   0.5951  -0.2943  -0.4572   0.00    0.0
2019/01/19 02:29:00.000   47.480940260   19.056535119   176.2059   5  11   1.0303   0.9309   0.5908   0.5507  -0.2799  -0.2427   0.00    0.0
2019/01/19 02:29:30.000   47.480940854   19.056532795   175.4402   5  11   1.0314   0.9364   0.5933   0.5574  -0.2851  -0.2471   0.00    0.0
2019/01/19 02:30:00.000   47.480939375   19.056531950   175.3603   5  11   1.0326   0.9420   0.5957   0.5641  -0.2904  -0.2514   0.00    0.0
2019/01/19 02:30:30.000   47.480936976   19.056532752   175.6596   5  11   1.0337   0.9476   0.5982   0.5709  -0.2958  -0.2559   0.00    0.0
2019/01/19 02:31:00.000   47.480935798   19.056534139   176.1813   5  11   1.0349   0.9533   0.6007   0.5777  -0.3012  -0.2603   0.00    0.0
2019/01/19 02:31:30.000   47.480935714   19.056535638   176.7568   5  11   1.0361   0.9589   0.6033   0.5846  -0.3068  -0.2648   0.00    0.0
2019/01/19 02:32:00.000   47.480936442   19.056535506   177.1265   5  11   1.0372   0.9647   0.6059   0.5915  -0.3124  -0.2694   0.00    0.0
2019/01/19 02:32:30.000   47.480938255   19.056533779   176.8223   5  11   1.0384   0.9704   0.6086   0.5985  -0.3181  -0.2740   0.00    0.0
2019/01/19 02:33:00.000   47.480938715   19.056532979   176.3974   5  11   1.0396   0.9762   0.6112   0.6055  -0.3239  -0.2786   0.00    0.0
2019/01/19 02:33:30.000   47.480938012   19.056533217   176.0945   5  11   1.0407   0.9821   0.6140   0.6125  -0.3298  -0.2832   0.00    0.0
2019/01/19 02:34:00.000   47.480936798   19.056533998   176.0073   5  11   1.0419   0.9879   0.6167   0.6196  -0.3358  -0.2879   0.00    0.0
2019/01/19 02:34:30.000   47.480936252   19.056534282   176.2804   5  11   1.0431   0.9938   0.6195   0.6268  -0.3419  -0.2927   0.00    0.0
2019/01/19 02:35:00.000   47.480936795   19.056533668   176.2690   5  11   1.0443   0.9997   0.6223   0.6339  -0.3480  -0.2975   0.00    0.0
2019/01/19 02:35:30.000   47.480938064   19.056532536   176.2176   5  11   1.0454   1.0057   0.6252   0.6411  -0.3543  -0.3023   0.00    0.0
2019/01/19 02:36:00.000   47.480939706   19.056531900   176.2227   5  11   1.0466   1.0116   0.6281   0.6484  -0.3606  -0.3071   0.00    0.0
2019/01/19 02:36:30.000   47.480940327   19.056531931   176.4359   5  11   1.0478   1.0176   0.6310   0.6556  -0.3670  -0.3120   0.00    0.0
2019/01/19 02:37:00.000   47.480940820   19.056532121   176.4028   5  11   1.0489   1.0236   0.6340   0.6629  -0.3735  -0.3169   0.00    0.0
2019/01/19 02:37:30.000   47.480939159   19.056532441   176.5959   5  11   1.0501   1.0296   0.6370   0.6702  -0.3800  -0.3219   0.00    0.0
2019/01/19 02:38:00.000   47.480935978   19.056532903   176.6098   5  11   1.0512   1.0357   0.6400   0.6775  -0.3867  -0.3269   0.00    0.0
2019/01/19 02:38:30.000   47.480933209   19.056534343   176.5221   5  11   1.0524   1.0417   0.6431   0.6849  -0.3934  -0.3319   0.00    0.0
2019/01/19 02:39:00.000   47.480932433   19.056535000   176.2940   5  11   1.0535   1.0478   0.6462   0.6922  -0.4002  -0.3369   0.00    0.0
2019/01/19 02:39:30.000   47.480933947   19.056535512   176.0810   5  11   1.0546   1.0539   0.6493   0.6995  -0.4070  -0.3419   0.00    0.0
2019/01/19 02:40:00.000   47.480935679   19.056534198   175.9342   5  11   1.0557   1.0600   0.6524   0.7069  -0.4140  -0.3470   0.00    0.0
2019/01/19 02:40:30.000   47.480936333   19.056532667   176.0846   5  11   1.0568   1.0660   0.6556   0.7142  -0.4210  -0.3521   0.00    0.0
2019/01/19 02:41:00.000   47.480935947   19.056531428   176.4676   5  11   1.0578   1.0721   0.6588   0.7215  -0.4280  -0.3572   0.00    0.0
2019/01/19 02:41:30.000   47.480935050   19.056531773   176.7979   5  11   1.0589   1.0782   0.6621   0.7288  -0.4352  -0.3624   0.00    0.0
2019/01/19 02:42:00.000   47.480934610   19.056531936   176.8480   5  11   1.0599   1.0843   0.6653   0.7361  -0.4423  -0.3675   0.00    0.0
2019/01/19 02:42:30.000   47.480934278   19.056532765   176.4695   5  11   1.0609   1.0903   0.6686   0.7434  -0.4496  -0.3726   0.00    0.0
2019/01/19 02:43:00.000   47.480935179   19.056532563   176.0363   5  11   1.0619   1.0963   0.6719   0.7506  -0.4569  -0.3778   0.00    0.0
2019/01/19 02:43:30.000   47.480937239   19.056532321   175.5763   5  11   1.0629   1.1024   0.6752   0.7578  -0.4642  -0.3830   0.00    0.0
2019/01/19 02:44:00.000   47.480937984   19.056532147   175.5914   5  11   1.0638   1.1084   0.6785   0.7649  -0.4716  -0.3881   0.00    0.0
2019/01/19 02:44:30.000   47.480936976   19.056531060   175.6469   5  11   1.0647   1.1143   0.6819   0.7720  -0.4790  -0.3933   0.00    0.0
2019/01/19 02:45:00.000   47.480934643   19.056528502   175.5529   5  11   1.0656   1.1203   0.6853   0.7790  -0.4865  -0.3984   0.00    0.0
2019/01/19 02:45:30.000   47.480933145   19.056527122   175.3624   5  11   1.0664   1.1262   0.6886   0.7859  -0.4940  -0.4035   0.00    0.0
2019/01/19 02:46:00.000   47.480932797   19.056527205   175.3652   5  11   1.0672   1.1320   0.6920   0.7928  -0.5015  -0.4087   0.00    0.0
2019/01/19 02:46:30.000   47.480934011   19.056528180   175.5668   5  11   1.0680   1.1379   0.6954   0.7996  -0.5090  -0.4138   0.00    0.0
2019/01/19 02:47:00.000   47.480934805   19.056527702   175.6711   5  11   1.0687   1.1436   0.6988   0.8062  -0.5165  -0.4188   0.00    0.0
2019/01/19 02:47:30.000   47.480934500   19.056527970   175.9365   5  11   1.0694   1.1494   0.7023   0.8128  -0.5241  -0.4239   0.00    0.0
2019/01/19 02:48:00.000   47.480933111   19.056529016   175.9240   5  11   1.0700   1.1550   0.7057   0.8193  -0.5316  -0.4289   0.00    0.0
2019/01/19 02:48:30.000   47.480933288   19.056530129   176.0092   5  11   1.0706   1.1606   0.7091   0.8256  -0.5391  -0.4339   0.00    0.0
2019/01/19 02:49:00.000   47.480935045   19.056531379   175.9636   5  11   1.0711   1.1661   0.7125   0.8318  -0.5466  -0.4388   0.00    0.0
2019/01/19 02:49:30.000   47.480937264   19.056531128   175.7705   5  11   1.0716   1.1716   0.7159   0.8379  -0.5541  -0.4437   0.00    0.0
2019/01/19 02:50:00.000   47.480939573   19.056530018   175.6199   5  11   1.0721   1.1769   0.7193   0.8439  -0.5616  -0.4486   0.00    0.0
2019/01/19 02:50:30.000   47.480939665   19.056529259   175.8849   5  11   1.0724   1.1822   0.7227   0.8496  -0.5690  -0.4533   0.00    0.0
2019/01/19 02:51:00.000   47.480939600   19.056526694   176.0022   5  11   1.0727   1.1874   0.7261   0.8552  -0.5764  -0.4581   0.00    0.0
2019/01/19 02:51:30.000   47.480940176   19.056525434   176.2879   5  11   1.0730   1.1925   0.7295   0.8607  -0.5837  -0.4627   0.00    0.0
2019/01/19 02:52:00.000   47.480940238   19.056525318   176.4519   5  11   1.0732   1.1975   0.7328   0.8659  -0.5909  -0.4673   0.00    0.0
2019/01/19 02:52:30.000   47.480939563   19.056526117   176.5043   5  11   1.0733   1.2024   0.7361   0.8710  -0.5981  -0.4718   0.00    0.0
2019/01/19 02:53:00.000   47.480938330   19.056527340   176.7018   5  11   1.0734   1.2072   0.7394   0.8758  -0.6052  -0.4762   0.00    0.0
2019/01/19 02:53:30.000   47.480937848   19.056525169   176.3779   5  11   1.0734   1.2119   0.7427   0.8804  -0.6122  -0.4805   0.00    0.0
2019/01/19 02:54:00.000   47.480937108   19.056523714   176.2888   5  11   1.0733   1.2164   0.7459   0.8848  -0.6191  -0.4848   0.00    0.0
2019/01/19 02:54:30.000   47.480937755   19.056523253   176.1991   5  11   1.0731   1.2208   0.7492   0.8890  -0.6259  -0.4889   0.00    0.0
2019/01/19 02:55:00.000   47.480938497   19.056523703   176.3610   5  11   1.0729   1.2251   0.7523   0.8929  -0.6326  -0.4929   0.00    0.0
2019/01/19 02:55:30.000   47.480939325   19.056524456   176.7264   5  11   1.0725   1.2293   0.7555   0.8966  -0.6392  -0.4969   0.00    0.0
2019/01/19 02:56:00.000   47.480939096   19.056524986   177.1109   5  11   1.0721   1.2333   0.7586   0.9000  -0.6456  -0.5007   0.00    0.0
2019/01/19 02:56:30.000   47.480939119   19.056525001   176.9905   5  11   1.0716   1.2371   0.7616   0.9032  -0.6518  -0.5043   0.00    0.0
2019/01/19 02:57:00.000   47.480939975   19.056524724   176.6638   5  11   1.0711   1.2408   0.7646   0.9060  -0.6580  -0.5079   0.00    0.0
2019/01/19 02:57:30.000   47.480939567   19.056525034   176.7827   5  11   1.0704   1.2443   0.7676   0.9086  -0.6639  -0.5113   0.00    0.0
2019/01/19 02:58:00.000   47.480939182   19.056525853   176.7273   5  11   1.0696   1.2477   0.7705   0.9109  -0.6697  -0.5146   0.00    0.0
2019/01/19 02:58:30.000   47.480939134   19.056526914   176.7888   5  11   1.0688   1.2509   0.7733   0.9129  -0.6752  -0.5177   0.00    0.0
2019/01/19 02:59:00.000   47.480939756   19.056526090   176.7550   5  11   1.0679   1.2539   0.7761   0.9146  -0.6806  -0.5207   0.00    0.0
2019/01/19 02:59:30.000   47.480940760   19.056526793   177.0312   5  11   1.0668   1.2567   0.7788   0.9159  -0.6858  -0.5235   0.00    0.0
2019/01/19 03:00:00.000   47.480941459   19.056528414   177.1698   5  11   1.0657   1.2594   0.7815   0.9170  -0.6908  -0.5262   0.00    0.0
2019/01/19 03:00:30.000   47.480941237   19.056529165   177.1686   5  11   1.0645   1.2619   0.7841   0.9177  -0.6955  -0.5287   0.00    0.0
2019/01/19 03:01:00.000   47.480941027   19.056529664   177.3895   5  11   1.0632   1.2642   0.7866   0.9181  -0.7000  -0.5311   0.00    0.0
2019/01/19 03:01:30.000   47.480940890   19.056528412   177.7495   5  11   1.0618   1.2662   0.7890   0.9181  -0.7043  -0.5333   0.00    0.0
2019/01/19 03:02:00.000   47.480941065   19.056526155   178.1463   5  11   1.0603   1.2681   0.7914   0.9178  -0.7083  -0.5353   0.00    0.0
2019/01/19 03:02:30.000   47.480941069   19.056524766   178.3748   5  11   1.0587   1.2698   0.7937   0.9172  -0.7121  -0.5371   0.00    0.0
2019/01/19 03:03:00.000   47.480940638   19.056523776   178.5317   5  11   1.0570   1.2713   0.7959   0.9162  -0.7156  -0.5388   0.00    0.0
2019/01/19 03:03:30.000   47.480939590   19.056523133   178.4050   5  11   1.0552   1.2726   0.7980   0.9149  -0.7189  -0.5403   0.00    0.0
2019/01/19 03:04:00.000   47.480940029   19.056521389   178.3049   5  11   1.0533   1.2737   0.8001   0.9132  -0.7219  -0.5416   0.00    0.0
2019/01/19 03:04:30.000   47.480940368   19.056520684   178.3901   5  11   1.0513   1.2746   0.8021   0.9112  -0.7246  -0.5428   0.00    0.0
2019/01/19 03:05:00.000   47.480939883   19.056520057   178.6461   5  11   1.0492   1.2752   0.8039   0.9089  -0.7270  -0.5437   0.00    0.0
2019/01/19 03:05:30.000   47.480939954   19.056519275   178.7459   5  11   1.0471   1.2757   0.8057   0.9062  -0.7292  -0.5445   0.00    0.0
2019/01/19 03:06:00.000   47.480940699   19.056517964   179.3914   5  11   1.0448   1.2759   0.8074   0.9032  -0.7310  -0.5451   0.00    0.0
2019/01/19 03:06:30.000   47.480942732   19.056516871   180.0282   5  11   1.0424   1.2760   0.8090   0.8998  -0.7326  -0.5455   0.00    0.0
2019/01/19 03:07:00.000   47.480943392   19.056515792   180.1520   5  11   1.0400   1.2758   0.8106   0.8961  -0.7339  -0.5457   0.00    0.0
2019/01/19 03:07:30.000   47.480949099   19.056522562   181.6140   5  12   0.9342   0.9324   0.6049   0.4994  -0.2635  -0.3013   0.00    0.0
2019/01/19 03:08:00.000   47.480947865   19.056523511   181.7529   5  12   0.9327   0.9337   0.6063   0.4986  -0.2651  -0.3026   0.00    0.0
2019/01/19 03:08:30.000   47.480946930   19.056525646   181.5306   5  11   1.2917   1.0042   0.6080   0.8257  -0.2736  -0.3207   0.00    0.0
2019/01/19 03:09:00.000   47.480947329   19.056525481   181.4464   5  11   1.2917   1.0066   0.6096   0.8286  -0.2762  -0.3245   0.00    0.0
2019/01/19 03:09:30.000   47.480949189   19.056523196   181.2159   5  11   1.2916   1.0089   0.6111   0.8312  -0.2787  -0.3282   0.00    0.0
2019/01/19 03:10:00.000   47.480949269   19.056521878   181.1450   5  11   1.2915   1.0112   0.6126   0.8337  -0.2812  -0.3318   0.00    0.0
2019/01/19 03:10:30.000   47.480949439   19.056522632   180.9671   5  11   1.2912   1.0133   0.6141   0.8359  -0.2837  -0.3354   0.00    0.0
2019/01/19 03:11:00.000   47.480949921   19.056522759   181.0070   5  11   1.2909   1.0154   0.6155   0.8380  -0.2861  -0.3389   0.00    0.0
2019/01/19 03:11:30.000   47.480950831   19.056522494   181.2368   5  11   1.2906   1.0174   0.6170   0.8398  -0.2884  -0.3423   0.00    0.0
2019/01/19 03:12:00.000   47.480951115   19.056522615   181.1143   5  11   1.2901   1.0192   0.6185   0.8414  -0.2907  -0.3457   0.00    0.0
2019/01/19 03:12:30.000   47.480950811   19.056522882   180.9892   5  11   1.2895   1.0210   0.6200   0.8429  -0.2929  -0.3490   0.00    0.0
2019/01/19 03:13:00.000   47.480949540   19.056522950   181.0888   5  11   1.2889   1.0227   0.6214   0.8440  -0.2951  -0.3523   0.00    0.0
2019/01/19 03:13:30.000   47.480948568   19.056523991   181.3223   5  11   1.2882   1.0243   0.6229   0.8450  -0.2971  -0.3554   0.00    0.0
2019/01/19 03:14:00.000   47.480949009   19.056525611   181.3840   5  11   1.2874   1.0258   0.6243   0.8458  -0.2992  -0.3585   0.00    0.0
2019/01/19 03:14:30.000   47.480949326   19.056526126   181.2563   5  11   1.2865   1.0271   0.6257   0.8463  -0.3011  -0.3615   0.00    0.0
2019/01/19 03:15:00.000   47.480948745   19.056526325   181.2030   5  11   1.2855   1.0284   0.6272   0.8466  -0.3030  -0.3645   0.00    0.0
2019/01/19 03:15:30.000   47.480947719   19.056525750   181.1176   5  11   1.2844   1.0296   0.6286   0.8466  -0.3048  -0.3673   0.00    0.0
2019/01/19 03:16:00.000   47.480947207   19.056525530   181.0893   5  11   1.2833   1.0307   0.6299   0.8465  -0.3065  -0.3701   0.00    0.0
2019/01/19 03:16:30.000   47.480947827   19.056526214   180.5558   5  11   1.2821   1.0316   0.6313   0.8461  -0.3082  -0.3728   0.00    0.0
2019/01/19 03:17:00.000   47.480949916   19.056525596   179.8924   5  11   1.2808   1.0325   0.6327   0.8455  -0.3097  -0.3754   0.00    0.0
2019/01/19 03:17:30.000   47.480951351   19.056525465   179.5141   5  11   1.2794   1.0333   0.6340   0.8446  -0.3112  -0.3779   0.00    0.0
2019/01/19 03:18:00.000   47.480950494   19.056526131   179.6638   5  11   1.2779   1.0339   0.6353   0.8435  -0.3126  -0.3803   0.00    0.0
2019/01/19 03:18:30.000   47.480949431   19.056526820   180.0518   5  11   1.2763   1.0345   0.6366   0.8422  -0.3139  -0.3827   0.00    0.0
2019/01/19 03:19:00.000   47.480948819   19.056527063   180.4461   5  11   1.2747   1.0349   0.6379   0.8407  -0.3151  -0.3849   0.00    0.0
2019/01/19 03:19:30.000   47.480950961   19.056527514   180.5605   5  11   1.2729   1.0352   0.6392   0.8389  -0.3162  -0.3871   0.00    0.0
2019/01/19 03:20:00.000   47.480952112   19.056527243   180.7171   5  11   1.2711   1.0355   0.6404   0.8369  -0.3173  -0.3891   0.00    0.0
2019/01/19 03:20:30.000   47.480951778   19.056526562   181.1829   5  11   1.2692   1.0356   0.6416   0.8347  -0.3182  -0.3911   0.00    0.0
2019/01/19 03:21:00.000   47.480950400   19.056525646   181.4540   5  11   1.2672   1.0356   0.6428   0.8322  -0.3191  -0.3930   0.00    0.0
2019/01/19 03:21:30.000   47.480948787   19.056525228   181.6415   5  11   1.2652   1.0355   0.6440   0.8295  -0.3199  -0.3948   0.00    0.0
2019/01/19 03:22:00.000   47.480948088   19.056525205   181.6756   5  11   1.2631   1.0353   0.6452   0.8266  -0.3205  -0.3965   0.00    0.0
2019/01/19 03:22:30.000   47.480948567   19.056526392   181.6639   5  11   1.2608   1.0350   0.6463   0.8235  -0.3211  -0.3981   0.00    0.0
2019/01/19 03:23:00.000   47.480949077   19.056527447   181.2870   5  11   1.2586   1.0346   0.6474   0.8202  -0.3216  -0.3996   0.00    0.0
2019/01/19 03:23:30.000   47.480949048   19.056526515   180.7670   5  11   1.2562   1.0341   0.6485   0.8167  -0.3220  -0.4010   0.00    0.0
2019/01/19 03:24:00.000   47.480949373   19.056525707   180.7113   5  11   1.2538   1.0334   0.6496   0.8130  -0.3223  -0.4024   0.00    0.0
2019/01/19 03:24:30.000   47.480949939   19.056524836   181.0133   5  11   1.2513   1.0327   0.6506   0.8090  -0.3225  -0.4036   0.00    0.0
2019/01/19 03:25:00.000   47.480950758   19.056525041   181.1929   5  11   1.2487   1.0319   0.6516   0.8049  -0.3226  -0.4048   0.00    0.0
2019/01/19 03:25:30.000   47.480950585   19.056525382   181.5867   5  11   1.2461   1.0310   0.6526   0.8006  -0.3226  -0.4058   0.00    0.0
2019/01/19 03:26:00.000   47.480952049   19.056526108   181.6625   5  11   1.2434   1.0300   0.6536   0.7960  -0.3225  -0.4068   0.00    0.0
2019/01/19 03:26:30.000   47.480953732   19.056525871   181.3657   5  11   1.2406   1.0289   0.6546   0.7913  -0.3223  -0.4077   0.00    0.0
2019/01/19 03:27:00.000   47.480953128   19.056526425   181.4827   5  11   1.2378   1.0276   0.6555   0.7865  -0.3220  -0.4085   0.00    0.0
2019/01/19 03:27:30.000   47.480952095   19.056526087   181.8560   5  11   1.2349   1.0263   0.6564   0.7814  -0.3217  -0.4092   0.00    0.0
2019/01/19 03:28:00.000   47.480951150   19.056527897   182.3211   5  11   1.2320   1.0249   0.6573   0.7762  -0.3212  -0.4099   0.00    0.0
2019/01/19 03:28:30.000   47.480951070   19.056530679   182.5452   5  11   1.2290   1.0235   0.6581   0.7708  -0.3207  -0.4105   0.00    0.0
2019/01/19 03:29:00.000   47.480951683   19.056531076   182.6666   5  11   1.2259   1.0219   0.6590   0.7653  -0.3200  -0.4109   0.00    0.0
2019/01/19 03:29:30.000   47.480952719   19.056529353   182.6081   5  11   1.2228   1.0202   0.6598   0.7596  -0.3193  -0.4113   0.00    0.0
