% program   : GINA 1.0
% inp file  : C:\Users\lus2bp\Source\Repos\GINA\70_EGNOS_Project\files\PositionComparisonInputFiles\bute0190\bute0190.19o
% inp file  : C:\Users\lus2bp\Source\Repos\GINA\70_EGNOS_Project\files\PositionComparisonInputFiles\bute0190\brdc0190.19n
% obs start : 2019/01/19 00:00:00.0 GPST (week2036 518400.0s)
% obs end   : 2019/01/19 23:59:30.0 GPST (week2036 604770.0s)
% pos mode  : single
% elev mask : 10.0 deg
% ionos opt : ems
% tropo opt : Saas
% ephemeris : broadcasted
% (lat/lon/height=WGS84/ellipsoidal,Q=1:fix,2:float,3:sbas,4:dgps,5:single,6:ppp,ns=# of satellites)
%  GPST                  latitude(deg) longitude(deg)  height(m)   Q  ns   sdn(m)   sde(m)   sdu(m)  sdne(m)  sdeu(m)  sdun(m) age(s)  ratio
2019/01/19 00:00:00.000   47.480967889   19.056569124   184.6131   5   8   1.2716   1.3180   0.8544   1.0729  -0.6494  -0.6409   0.00    0.0
2019/01/19 00:00:30.000   47.480969646   19.056568961   184.5891   5   8   1.2781   1.3231   0.8572   1.0897  -0.6552  -0.6499   0.00    0.0
2019/01/19 00:01:00.000   47.480971326   19.056569787   184.8354   5   8   1.2846   1.3281   0.8601   1.1064  -0.6610  -0.6589   0.00    0.0
2019/01/19 00:01:30.000   47.480971457   19.056571749   184.8392   5   8   1.2910   1.3330   0.8629   1.1230  -0.6666  -0.6678   0.00    0.0
2019/01/19 00:02:00.000   47.480971903   19.056570836   184.9517   5   8   1.2975   1.3377   0.8657   1.1395  -0.6722  -0.6768   0.00    0.0
2019/01/19 00:02:30.000   47.480972741   19.056569756   185.6662   5   8   1.3039   1.3424   0.8686   1.1558  -0.6777  -0.6858   0.00    0.0
2019/01/19 00:03:00.000   47.480971860   19.056577695   185.5259   5   8   1.3103   1.3470   0.8714   1.1721  -0.6832  -0.6947   0.00    0.0
2019/01/19 00:03:30.000   47.480972398   19.056573401   185.2407   5   8   1.3167   1.3515   0.8742   1.1882  -0.6885  -0.7036   0.00    0.0
2019/01/19 00:04:00.000   47.480972163   19.056570625   185.0907   5   8   1.3230   1.3558   0.8769   1.2041  -0.6937  -0.7125   0.00    0.0
2019/01/19 00:04:30.000   47.480972406   19.056566135   184.1090   5   8   1.3293   1.3600   0.8797   1.2198  -0.6988  -0.7213   0.00    0.0
2019/01/19 00:05:00.000   47.480970735   19.056565309   184.0960   5   8   1.3356   1.3641   0.8824   1.2353  -0.7038  -0.7301   0.00    0.0
2019/01/19 00:05:30.000   47.480968651   19.056568036   184.2641   5   8   1.3418   1.3681   0.8852   1.2506  -0.7086  -0.7388   0.00    0.0
2019/01/19 00:06:00.000   47.480967670   19.056571155   184.5045   5   8   1.3479   1.3718   0.8879   1.2656  -0.7133  -0.7474   0.00    0.0
2019/01/19 00:06:30.000   47.480967285   19.056572233   184.5100   5   8   1.3539   1.3755   0.8905   1.2803  -0.7178  -0.7560   0.00    0.0
2019/01/19 00:07:00.000   47.480967892   19.056572590   184.3101   5   8   1.3599   1.3790   0.8932   1.2947  -0.7221  -0.7644   0.00    0.0
2019/01/19 00:07:30.000   47.480969143   19.056570098   184.3015   5   8   1.3658   1.3823   0.8958   1.3088  -0.7263  -0.7728   0.00    0.0
2019/01/19 00:08:00.000   47.480969686   19.056567755   184.3113   5   8   1.3716   1.3854   0.8984   1.3225  -0.7302  -0.7810   0.00    0.0
2019/01/19 00:08:30.000   47.480969109   19.056568271   184.4077   5   8   1.3773   1.3884   0.9009   1.3359  -0.7340  -0.7892   0.00    0.0
2019/01/19 00:09:00.000   47.480968489   19.056568199   184.4750   5   8   1.3829   1.3911   0.9035   1.3489  -0.7376  -0.7972   0.00    0.0
2019/01/19 00:09:30.000   47.480967925   19.056568663   184.7627   5   8   1.3884   1.3937   0.9059   1.3614  -0.7410  -0.8050   0.00    0.0
2019/01/19 00:10:00.000   47.480967407   19.056569921   185.0761   5   8   1.3937   1.3961   0.9084   1.3735  -0.7441  -0.8127   0.00    0.0
2019/01/19 00:10:30.000   47.480968431   19.056569435   185.2691   5   8   1.3990   1.3983   0.9108   1.3852  -0.7470  -0.8202   0.00    0.0
2019/01/19 00:11:00.000   47.480969424   19.056567684   184.9358   5   8   1.4041   1.4003   0.9131   1.3964  -0.7497  -0.8276   0.00    0.0
2019/01/19 00:11:30.000   47.480969549   19.056568090   184.4780   5   8   1.4090   1.4020   0.9154   1.4071  -0.7521  -0.8348   0.00    0.0
2019/01/19 00:12:00.000   47.480969588   19.056569938   184.3839   5   8   1.4139   1.4036   0.9177   1.4173  -0.7542  -0.8418   0.00    0.0
2019/01/19 00:12:30.000   47.480969355   19.056570470   184.1601   5   8   1.4185   1.4049   0.9199   1.4269  -0.7561  -0.8486   0.00    0.0
2019/01/19 00:13:00.000   47.480969296   19.056571842   183.9190   5   8   1.4230   1.4061   0.9221   1.4360  -0.7577  -0.8552   0.00    0.0
2019/01/19 00:13:30.000   47.480968406   19.056575655   184.0855   5   8   1.4274   1.4069   0.9242   1.4446  -0.7591  -0.8616   0.00    0.0
2019/01/19 00:14:00.000   47.480968585   19.056576994   184.2348   5   8   1.4316   1.4076   0.9263   1.4525  -0.7602  -0.8678   0.00    0.0
2019/01/19 00:14:30.000   47.480969533   19.056577294   184.2881   5   8   1.4356   1.4080   0.9283   1.4599  -0.7609  -0.8737   0.00    0.0
2019/01/19 00:15:00.000   47.480969904   19.056576970   184.1567   5   8   1.4394   1.4082   0.9303   1.4666  -0.7614  -0.8794   0.00    0.0
2019/01/19 00:15:30.000   47.480969336   19.056575026   183.8585   5   8   1.4430   1.4082   0.9322   1.4727  -0.7616  -0.8849   0.00    0.0
2019/01/19 00:16:00.000   47.480969549   19.056573258   183.7021   5   8   1.4465   1.4079   0.9341   1.4782  -0.7615  -0.8901   0.00    0.0
2019/01/19 00:16:30.000   47.480969774   19.056571591   182.9850   5   8   1.4498   1.4074   0.9359   1.4831  -0.7611  -0.8951   0.00    0.0
2019/01/19 00:17:00.000   47.480968190   19.056573269   182.5142   5   8   1.4528   1.4066   0.9377   1.4873  -0.7603  -0.8998   0.00    0.0
2019/01/19 00:17:30.000   47.480967037   19.056572878   182.4520   5   8   1.4557   1.4056   0.9394   1.4909  -0.7593  -0.9042   0.00    0.0
2019/01/19 00:18:00.000   47.480966681   19.056572900   182.4732   5   8   1.4584   1.4044   0.9410   1.4938  -0.7580  -0.9084   0.00    0.0
2019/01/19 00:18:30.000   47.480966441   19.056573956   182.5432   5   8   1.4609   1.4029   0.9426   1.4960  -0.7564  -0.9123   0.00    0.0
2019/01/19 00:19:00.000   47.480965137   19.056573987   182.6627   5   8   1.4631   1.4012   0.9441   1.4976  -0.7544  -0.9160   0.00    0.0
2019/01/19 00:19:30.000   47.480964347   19.056572197   182.6215   5   8   1.4652   1.3993   0.9456   1.4985  -0.7522  -0.9193   0.00    0.0
2019/01/19 00:20:00.000   47.480964062   19.056571456   182.5203   5   8   1.4671   1.3971   0.9470   1.4987  -0.7496  -0.9224   0.00    0.0
2019/01/19 00:20:30.000   47.480964305   19.056570744   182.3898   5   8   1.4687   1.3947   0.9484   1.4983  -0.7468  -0.9253   0.00    0.0
2019/01/19 00:21:00.000   47.480963834   19.056570940   182.4050   5   8   1.4702   1.3921   0.9497   1.4972  -0.7436  -0.9278   0.00    0.0
2019/01/19 00:21:30.000   47.480962081   19.056572969   182.7659   5   8   1.4714   1.3892   0.9510   1.4955  -0.7402  -0.9301   0.00    0.0
2019/01/19 00:22:00.000   47.480960931   19.056574096   183.0460   5   8   1.4724   1.3861   0.9522   1.4931  -0.7365  -0.9322   0.00    0.0
2019/01/19 00:22:30.000   47.480960457   19.056575775   183.0890   5   8   1.4733   1.3828   0.9534   1.4901  -0.7325  -0.9339   0.00    0.0
2019/01/19 00:23:00.000   47.480961381   19.056574005   182.8537   5   8   1.4739   1.3793   0.9545   1.4864  -0.7282  -0.9354   0.00    0.0
2019/01/19 00:23:30.000   47.480961994   19.056571791   182.5251   5   8   1.4743   1.3756   0.9556   1.4822  -0.7236  -0.9366   0.00    0.0
2019/01/19 00:24:00.000   47.480962166   19.056571112   182.4423   5   8   1.4745   1.3716   0.9566   1.4773  -0.7188  -0.9376   0.00    0.0
2019/01/19 00:24:30.000   47.480961570   19.056571485   182.3588   5   8   1.4746   1.3675   0.9576   1.4719  -0.7137  -0.9384   0.00    0.0
2019/01/19 00:25:00.000   47.480960315   19.056574126   182.5587   5   8   1.4744   1.3632   0.9586   1.4659  -0.7084  -0.9388   0.00    0.0
2019/01/19 00:25:30.000   47.480959522   19.056576259   182.8762   5   8   1.4740   1.3587   0.9595   1.4593  -0.7028  -0.9391   0.00    0.0
2019/01/19 00:26:00.000   47.480958578   19.056576167   182.8861   5   8   1.4735   1.3540   0.9604   1.4522  -0.6970  -0.9391   0.00    0.0
2019/01/19 00:26:30.000   47.480958344   19.056573419   182.5256   5   8   1.4727   1.3492   0.9612   1.4445  -0.6910  -0.9389   0.00    0.0
2019/01/19 00:27:00.000   47.480957896   19.056570468   182.3611   5   8   1.4718   1.3441   0.9620   1.4364  -0.6848  -0.9384   0.00    0.0
2019/01/19 00:27:30.000   47.480957768   19.056569657   182.4561   5   8   1.4707   1.3390   0.9628   1.4277  -0.6783  -0.9378   0.00    0.0
2019/01/19 00:28:00.000   47.480958795   19.056567759   182.4074   5   8   1.4695   1.3336   0.9635   1.4186  -0.6717  -0.9369   0.00    0.0
2019/01/19 00:28:30.000   47.480959307   19.056566466   182.4097   5   8   1.4680   1.3281   0.9643   1.4090  -0.6648  -0.9358   0.00    0.0
2019/01/19 00:29:00.000   47.480960186   19.056564540   182.1962   5   8   1.4664   1.3225   0.9649   1.3990  -0.6578  -0.9346   0.00    0.0
2019/01/19 00:29:30.000   47.480961430   19.056565246   182.0579   5   8   1.4647   1.3167   0.9656   1.3885  -0.6507  -0.9331   0.00    0.0
2019/01/19 00:30:00.000   47.480962269   19.056566285   181.9148   5   8   1.4627   1.3108   0.9663   1.3777  -0.6433  -0.9315   0.00    0.0
2019/01/19 00:30:30.000   47.480961245   19.056568473   181.8806   5   8   1.4607   1.3048   0.9669   1.3665  -0.6358  -0.9297   0.00    0.0
2019/01/19 00:31:00.000   47.480959239   19.056571021   182.0693   5   8   1.4584   1.2987   0.9675   1.3550  -0.6282  -0.9278   0.00    0.0
2019/01/19 00:31:30.000   47.480959921   19.056566821   181.9038   5   8   1.4561   1.2925   0.9681   1.3431  -0.6204  -0.9257   0.00    0.0
2019/01/19 00:32:00.000   47.480958048   19.056566490   181.7738   5   8   1.4536   1.2861   0.9687   1.3309  -0.6125  -0.9234   0.00    0.0
2019/01/19 00:32:30.000   47.480954981   19.056568356   181.5358   5   8   1.4510   1.2797   0.9693   1.3184  -0.6045  -0.9211   0.00    0.0
2019/01/19 00:33:00.000   47.480952622   19.056570289   181.4482   5   8   1.4483   1.2732   0.9699   1.3057  -0.5964  -0.9186   0.00    0.0
2019/01/19 00:33:30.000   47.480951826   19.056572085   181.6127   5   8   1.4454   1.2666   0.9705   1.2927  -0.5882  -0.9159   0.00    0.0
2019/01/19 00:34:00.000   47.480952044   19.056573019   181.7527   5   8   1.4424   1.2600   0.9710   1.2794  -0.5800  -0.9132   0.00    0.0
2019/01/19 00:34:30.000   47.480953492   19.056570678   181.5876   5   8   1.4394   1.2533   0.9716   1.2660  -0.5716  -0.9104   0.00    0.0
2019/01/19 00:35:00.000   47.480953675   19.056569620   181.8423   5   8   1.4362   1.2465   0.9721   1.2523  -0.5632  -0.9074   0.00    0.0
2019/01/19 00:35:30.000   47.480953164   19.056568370   181.8499   5   8   1.4329   1.2397   0.9727   1.2385  -0.5547  -0.9044   0.00    0.0
2019/01/19 00:36:00.000   47.480952654   19.056566814   181.5924   5   8   1.4295   1.2328   0.9733   1.2245  -0.5461  -0.9013   0.00    0.0
2019/01/19 00:36:30.000   47.480952425   19.056565169   181.3698   5   8   1.4261   1.2259   0.9739   1.2104  -0.5375  -0.8982   0.00    0.0
2019/01/19 00:37:00.000   47.480952009   19.056564249   181.3043   5   8   1.4226   1.2189   0.9744   1.1961  -0.5289  -0.8949   0.00    0.0
2019/01/19 00:37:30.000   47.480951773   19.056563735   181.3307   5   8   1.4189   1.2119   0.9750   1.1818  -0.5202  -0.8916   0.00    0.0
2019/01/19 00:38:00.000   47.480951552   19.056566316   181.5399   5   8   1.4153   1.2049   0.9757   1.1673  -0.5115  -0.8883   0.00    0.0
2019/01/19 00:38:30.000   47.480952748   19.056567744   181.7261   5   8   1.4115   1.1979   0.9763   1.1528  -0.5028  -0.8849   0.00    0.0
2019/01/19 00:39:00.000   47.480952891   19.056567717   181.8154   5   8   1.4077   1.1909   0.9769   1.1382  -0.4940  -0.8815   0.00    0.0
2019/01/19 00:39:30.000   47.480951920   19.056566889   181.7171   5   8   1.4038   1.1839   0.9775   1.1236  -0.4853  -0.8781   0.00    0.0
2019/01/19 00:40:00.000   47.480952538   19.056564294   181.4906   5   8   1.3999   1.1768   0.9782   1.1089  -0.4765  -0.8746   0.00    0.0
2019/01/19 00:40:30.000   47.480952515   19.056564828   181.5602   5   8   1.3959   1.1698   0.9789   1.0942  -0.4678  -0.8711   0.00    0.0
2019/01/19 00:41:00.000   47.480952231   19.056568398   181.6166   5   8   1.3919   1.1627   0.9796   1.0795  -0.4591  -0.8676   0.00    0.0
2019/01/19 00:41:30.000   47.480952744   19.056568729   181.1800   5   8   1.3879   1.1557   0.9803   1.0648  -0.4503  -0.8641   0.00    0.0
2019/01/19 00:42:00.000   47.480950829   19.056570096   181.0525   5   8   1.3838   1.1487   0.9811   1.0501  -0.4416  -0.8605   0.00    0.0
2019/01/19 00:42:30.000   47.480949342   19.056570484   181.1588   5   8   1.3796   1.1418   0.9818   1.0355  -0.4329  -0.8570   0.00    0.0
2019/01/19 00:43:00.000   47.480950221   19.056569162   181.3609   5   8   1.3755   1.1348   0.9826   1.0208  -0.4243  -0.8535   0.00    0.0
2019/01/19 00:43:30.000   47.480953764   19.056569131   181.7748   5   8   1.3713   1.1279   0.9834   1.0062  -0.4156  -0.8500   0.00    0.0
2019/01/19 00:44:00.000   47.480956642   19.056566934   181.7285   5   8   1.3671   1.1210   0.9842   0.9917  -0.4070  -0.8465   0.00    0.0
2019/01/19 00:44:30.000   47.480957979   19.056564109   181.3894   5   8   1.3629   1.1141   0.9851   0.9772  -0.3985  -0.8430   0.00    0.0
2019/01/19 00:45:00.000   47.480956995   19.056565550   181.2384   5   8   1.3586   1.1073   0.9860   0.9628  -0.3899  -0.8395   0.00    0.0
2019/01/19 00:45:30.000   47.480956482   19.056567391   181.2313   5   8   1.3544   1.1005   0.9869   0.9485  -0.3814  -0.8361   0.00    0.0
2019/01/19 00:46:00.000   47.480957077   19.056567864   181.4032   5   8   1.3501   1.0937   0.9878   0.9342  -0.3730  -0.8326   0.00    0.0
2019/01/19 00:46:30.000   47.480956817   19.056568509   181.4839   5   8   1.3458   1.0870   0.9888   0.9201  -0.3646  -0.8292   0.00    0.0
2019/01/19 00:47:00.000   47.480956498   19.056555863   179.2377   5   9   1.1522   0.9949   0.6736   0.6166  -0.0508  -0.3276   0.00    0.0
2019/01/19 00:47:30.000   47.480955942   19.056555503   179.3438   5   9   1.1516   0.9922   0.6752   0.6130  -0.0502  -0.3296   0.00    0.0
2019/01/19 00:48:00.000   47.480955928   19.056554548   179.3394   5   9   1.1508   0.9895   0.6769   0.6092  -0.0496  -0.3316   0.00    0.0
2019/01/19 00:48:30.000   47.480957138   19.056552520   179.3997   5   9   1.1501   0.9866   0.6785   0.6053  -0.0490  -0.3336   0.00    0.0
2019/01/19 00:49:00.000   47.480957915   19.056552900   179.3584   5   9   1.1492   0.9838   0.6802   0.6012  -0.0484  -0.3356   0.00    0.0
2019/01/19 00:49:30.000   47.480958252   19.056554678   179.4943   5   9   1.1484   0.9809   0.6818   0.5971  -0.0478  -0.3376   0.00    0.0
2019/01/19 00:50:00.000   47.480957026   19.056555704   179.4975   5   9   1.1474   0.9779   0.6835   0.5929  -0.0471  -0.3395   0.00    0.0
2019/01/19 00:50:30.000   47.480956266   19.056557200   179.6806   5   9   1.1465   0.9749   0.6852   0.5886  -0.0464  -0.3415   0.00    0.0
2019/01/19 00:51:00.000   47.480956573   19.056557494   179.6977   5   9   1.1455   0.9719   0.6868   0.5842  -0.0457  -0.3434   0.00    0.0
2019/01/19 00:51:30.000   47.480956365   19.056558411   179.8355   5   9   1.1444   0.9689   0.6885   0.5797  -0.0450  -0.3453   0.00    0.0
2019/01/19 00:52:00.000   47.480954567   19.056559592   179.7252   5   9   1.1433   0.9658   0.6902   0.5751  -0.0443  -0.3472   0.00    0.0
2019/01/19 00:52:30.000   47.480953485   19.056559048   179.6050   5   9   1.1422   0.9626   0.6919   0.5705  -0.0436  -0.3491   0.00    0.0
2019/01/19 00:53:00.000   47.480952821   19.056558148   179.4693   5   9   1.1410   0.9595   0.6936   0.5658  -0.0428  -0.3510   0.00    0.0
2019/01/19 00:53:30.000   47.480953863   19.056557417   179.2563   5   9   1.1397   0.9563   0.6953   0.5610  -0.0420  -0.3528   0.00    0.0
2019/01/19 00:54:00.000   47.480955086   19.056558026   179.1057   5   9   1.1385   0.9531   0.6969   0.5562  -0.0412  -0.3547   0.00    0.0
2019/01/19 00:54:30.000   47.480955619   19.056559283   179.0563   5   9   1.1372   0.9498   0.6987   0.5512  -0.0404  -0.3565   0.00    0.0
2019/01/19 00:55:00.000   47.480954757   19.056559215   179.0712   5   9   1.1358   0.9465   0.7004   0.5463  -0.0396  -0.3583   0.00    0.0
2019/01/19 00:55:30.000   47.480953986   19.056557718   178.8952   5   9   1.1345   0.9432   0.7021   0.5413  -0.0387  -0.3601   0.00    0.0
2019/01/19 00:56:00.000   47.480953564   19.056557629   178.9592   5   9   1.1331   0.9399   0.7038   0.5362  -0.0378  -0.3618   0.00    0.0
2019/01/19 00:56:30.000   47.480952229   19.056556808   179.1679   5   9   1.1316   0.9366   0.7055   0.5311  -0.0370  -0.3636   0.00    0.0
2019/01/19 00:57:00.000   47.480951971   19.056556009   179.0593   5   9   1.1302   0.9333   0.7072   0.5259  -0.0361  -0.3653   0.00    0.0
2019/01/19 00:57:30.000   47.480952756   19.056556079   178.7292   5   9   1.1287   0.9299   0.7089   0.5208  -0.0352  -0.3671   0.00    0.0
2019/01/19 00:58:00.000   47.480953252   19.056555436   178.4185   5   9   1.1271   0.9265   0.7106   0.5155  -0.0342  -0.3688   0.00    0.0
2019/01/19 00:58:30.000   47.480952859   19.056554441   177.9658   5   9   1.1256   0.9232   0.7124   0.5103  -0.0333  -0.3704   0.00    0.0
2019/01/19 00:59:00.000   47.480952481   19.056553147   177.7241   5   9   1.1240   0.9198   0.7141   0.5050  -0.0324  -0.3721   0.00    0.0
2019/01/19 00:59:30.000   47.480954274   19.056553272   177.4169   5   9   1.1224   0.9164   0.7158   0.4997  -0.0314  -0.3738   0.00    0.0
2019/01/19 01:00:00.000   47.480955524   19.056552807   177.7292   5   9   1.1207   0.9130   0.7176   0.4944  -0.0304  -0.3754   0.00    0.0
2019/01/19 01:00:30.000   47.480957239   19.056551345   178.1257   5   9   1.1191   0.9095   0.7193   0.4890  -0.0295  -0.3770   0.00    0.0
2019/01/19 01:01:00.000   47.480959499   19.056549962   178.1014   5   9   1.1174   0.9061   0.7210   0.4837  -0.0285  -0.3786   0.00    0.0
2019/01/19 01:01:30.000   47.480960449   19.056548527   178.0915   5   9   1.1157   0.9027   0.7227   0.4783  -0.0275  -0.3802   0.00    0.0
2019/01/19 01:02:00.000   47.480960355   19.056548446   178.1747   5   9   1.1139   0.8993   0.7245   0.4729  -0.0265  -0.3817   0.00    0.0
2019/01/19 01:02:30.000   47.480959475   19.056548319   178.2384   5   9   1.1122   0.8959   0.7262   0.4675  -0.0254  -0.3833   0.00    0.0
2019/01/19 01:03:00.000   47.480958939   19.056548873   178.4740   5   9   1.1104   0.8925   0.7279   0.4622  -0.0244  -0.3848   0.00    0.0
2019/01/19 01:03:30.000   47.480958075   19.056551273   178.8178   5   9   1.1086   0.8891   0.7297   0.4568  -0.0234  -0.3863   0.00    0.0
2019/01/19 01:04:00.000   47.480958623   19.056551424   179.1079   5   9   1.1068   0.8856   0.7314   0.4514  -0.0223  -0.3878   0.00    0.0
2019/01/19 01:04:30.000   47.480958116   19.056551061   179.4745   5   9   1.1050   0.8822   0.7331   0.4460  -0.0212  -0.3893   0.00    0.0
2019/01/19 01:05:00.000   47.480956534   19.056550253   179.5324   5   9   1.1032   0.8788   0.7349   0.4406  -0.0202  -0.3907   0.00    0.0
2019/01/19 01:05:30.000   47.480956628   19.056547901   179.4108   5   9   1.1013   0.8755   0.7366   0.4353  -0.0191  -0.3922   0.00    0.0
2019/01/19 01:06:00.000   47.480957664   19.056544584   179.2840   5   9   1.0994   0.8721   0.7383   0.4299  -0.0180  -0.3936   0.00    0.0
2019/01/19 01:06:30.000   47.480958107   19.056542592   179.2028   5   9   1.0975   0.8687   0.7401   0.4246  -0.0169  -0.3949   0.00    0.0
2019/01/19 01:07:00.000   47.480959123   19.056542623   179.2506   5   9   1.0956   0.8653   0.7418   0.4193  -0.0158  -0.3963   0.00    0.0
2019/01/19 01:07:30.000   47.480959130   19.056542584   179.4043   5   9   1.0937   0.8620   0.7435   0.4140  -0.0147  -0.3977   0.00    0.0
2019/01/19 01:08:00.000   47.480959961   19.056543102   179.2682   5   9   1.0918   0.8587   0.7452   0.4087  -0.0136  -0.3990   0.00    0.0
2019/01/19 01:08:30.000   47.480961194   19.056542409   178.8813   5   9   1.0898   0.8553   0.7470   0.4034  -0.0125  -0.4003   0.00    0.0
2019/01/19 01:09:00.000   47.480963326   19.056541419   178.6906   5   9   1.0879   0.8520   0.7487   0.3982  -0.0114  -0.4016   0.00    0.0
2019/01/19 01:09:30.000   47.480964614   19.056541293   178.4847   5   9   1.0859   0.8487   0.7504   0.3929  -0.0103  -0.4028   0.00    0.0
2019/01/19 01:10:00.000   47.480964867   19.056542072   178.3391   5   9   1.0839   0.8454   0.7521   0.3877  -0.0092  -0.4041   0.00    0.0
2019/01/19 01:10:30.000   47.480964623   19.056543990   178.2399   5   9   1.0819   0.8422   0.7538   0.3826  -0.0080  -0.4053   0.00    0.0
2019/01/19 01:11:00.000   47.480962954   19.056547479   178.3769   5   9   1.0799   0.8389   0.7555   0.3774  -0.0069  -0.4065   0.00    0.0
2019/01/19 01:11:30.000   47.480960958   19.056548116   178.3620   5   9   1.0779   0.8357   0.7572   0.3723  -0.0058  -0.4077   0.00    0.0
2019/01/19 01:12:00.000   47.480960259   19.056546733   178.1085   5   9   1.0759   0.8325   0.7589   0.3672  -0.0046  -0.4088   0.00    0.0
2019/01/19 01:12:30.000   47.480959254   19.056545807   177.7006   5   9   1.0739   0.8293   0.7606   0.3622  -0.0035  -0.4100   0.00    0.0
2019/01/19 01:13:00.000   47.480958294   19.056544708   177.7129   5   9   1.0718   0.8261   0.7623   0.3572  -0.0024  -0.4111   0.00    0.0
2019/01/19 01:13:30.000   47.480958890   19.056545049   177.7708   5   9   1.0698   0.8230   0.7640   0.3522  -0.0012  -0.4122   0.00    0.0
2019/01/19 01:14:00.000   47.480959373   19.056544685   178.0233   5   9   1.0677   0.8199   0.7656   0.3473  -0.0001  -0.4132   0.00    0.0
2019/01/19 01:14:30.000   47.480961567   19.056543107   178.1677   5   9   1.0656   0.8167   0.7673   0.3423   0.0011  -0.4142   0.00    0.0
2019/01/19 01:15:00.000   47.480963400   19.056542517   178.3289   5   9   1.0636   0.8136   0.7690   0.3375   0.0022  -0.4153   0.00    0.0
2019/01/19 01:15:30.000   47.480964010   19.056543725   178.4937   5   9   1.0615   0.8106   0.7706   0.3326   0.0034  -0.4162   0.00    0.0
2019/01/19 01:16:00.000   47.480964234   19.056545518   178.5878   5   9   1.0594   0.8075   0.7723   0.3278   0.0045  -0.4172   0.00    0.0
2019/01/19 01:16:30.000   47.480965571   19.056546256   178.5406   5   9   1.0573   0.8045   0.7739   0.3231   0.0056  -0.4181   0.00    0.0
2019/01/19 01:17:00.000   47.480966128   19.056545908   178.6319   5   9   1.0552   0.8015   0.7756   0.3184   0.0068  -0.4190   0.00    0.0
2019/01/19 01:17:30.000   47.480967537   19.056546621   178.5889   5   9   1.0531   0.7985   0.7772   0.3137   0.0079  -0.4199   0.00    0.0
2019/01/19 01:18:00.000   47.480967668   19.056546143   178.6148   5   9   1.0510   0.7956   0.7788   0.3091   0.0091  -0.4208   0.00    0.0
2019/01/19 01:18:30.000   47.480968022   19.056546118   178.6012   5   9   1.0488   0.7926   0.7804   0.3045   0.0102  -0.4216   0.00    0.0
2019/01/19 01:19:00.000   47.480968241   19.056546440   178.4561   5   9   1.0467   0.7897   0.7821   0.2999   0.0113  -0.4224   0.00    0.0
2019/01/19 01:19:30.000   47.480969007   19.056543631   178.3432   5   9   1.0446   0.7868   0.7837   0.2954   0.0125  -0.4232   0.00    0.0
2019/01/19 01:20:00.000   47.480965737   19.056544850   178.0832   5  10   1.0133   0.6259   0.7752   0.1754  -0.0454  -0.4545   0.00    0.0
2019/01/19 01:20:30.000   47.480964642   19.056543008   178.1463   5  10   1.0126   0.6254   0.7763   0.1750  -0.0453  -0.4552   0.00    0.0
2019/01/19 01:21:00.000   47.480964174   19.056541620   178.3149   5  10   1.0119   0.6248   0.7774   0.1746  -0.0451  -0.4558   0.00    0.0
2019/01/19 01:21:30.000   47.480963498   19.056540149   178.5376   5  10   1.0112   0.6243   0.7784   0.1742  -0.0450  -0.4564   0.00    0.0
2019/01/19 01:22:00.000   47.480962695   19.056538897   178.5412   5  10   1.0104   0.6237   0.7794   0.1737  -0.0448  -0.4569   0.00    0.0
2019/01/19 01:22:30.000   47.480962182   19.056537721   178.6361   5  10   1.0095   0.6232   0.7804   0.1733  -0.0446  -0.4573   0.00    0.0
2019/01/19 01:23:00.000   47.480962225   19.056536538   178.5776   5  10   1.0086   0.6226   0.7814   0.1728  -0.0444  -0.4576   0.00    0.0
2019/01/19 01:23:30.000   47.480962599   19.056534726   178.5276   5  10   1.0076   0.6221   0.7823   0.1722  -0.0442  -0.4579   0.00    0.0
2019/01/19 01:24:00.000   47.480962731   19.056536590   178.5869   5  10   1.0066   0.6215   0.7833   0.1717  -0.0440  -0.4581   0.00    0.0
2019/01/19 01:24:30.000   47.480964063   19.056538946   178.5104   5  10   1.0056   0.6210   0.7842   0.1711  -0.0438  -0.4583   0.00    0.0
2019/01/19 01:25:00.000   47.480965215   19.056541790   178.3162   5  10   1.0045   0.6204   0.7850   0.1705  -0.0435  -0.4584   0.00    0.0
2019/01/19 01:25:30.000   47.480967122   19.056543697   177.8216   5  10   1.0034   0.6199   0.7859   0.1699  -0.0433  -0.4584   0.00    0.0
2019/01/19 01:26:00.000   47.480967832   19.056543867   177.4045   5  10   1.0022   0.6193   0.7867   0.1693  -0.0430  -0.4584   0.00    0.0
2019/01/19 01:26:30.000   47.480962768   19.056542383   178.2613   5   9   1.4867   0.6476   0.8690  -0.0417   0.0276  -0.8621   0.00    0.0
2019/01/19 01:27:00.000   47.480962057   19.056542840   178.2494   5   9   1.4878   0.6473   0.8716  -0.0438   0.0290  -0.8678   0.00    0.0
2019/01/19 01:27:30.000   47.480961428   19.056543561   178.2612   5   9   1.4887   0.6470   0.8742  -0.0458   0.0305  -0.8734   0.00    0.0
2019/01/19 01:28:00.000   47.480962974   19.056544284   178.2208   5   9   1.4896   0.6467   0.8767  -0.0479   0.0320  -0.8789   0.00    0.0
2019/01/19 01:28:30.000   47.480948902   19.056540266   176.7015   5   8   1.4956   0.7955   0.8969   0.0080  -0.0486  -0.9064   0.00    0.0
2019/01/19 01:29:00.000   47.480949341   19.056540339   176.8670   5   8   1.4969   0.7956   0.9001   0.0093  -0.0489  -0.9134   0.00    0.0
2019/01/19 01:29:30.000   47.480950029   19.056539502   176.8465   5   8   1.4981   0.7958   0.9033   0.0107  -0.0492  -0.9203   0.00    0.0
2019/01/19 01:30:00.000   47.480951020   19.056539129   176.7150   5   8   1.4993   0.7959   0.9065   0.0120  -0.0495  -0.9272   0.00    0.0
2019/01/19 01:30:30.000   47.480950582   19.056540605   176.6873   5   8   1.5004   0.7960   0.9096   0.0133  -0.0498  -0.9339   0.00    0.0
2019/01/19 01:31:00.000   47.480955151   19.056535567   175.6416   5   9   1.2194   0.7945   0.6190   0.0584  -0.0837  -0.3530   0.00    0.0
2019/01/19 01:31:30.000   47.480954513   19.056533851   175.6715   5   9   1.2199   0.7945   0.6208   0.0603  -0.0846  -0.3566   0.00    0.0
2019/01/19 01:32:00.000   47.480955573   19.056532872   175.6598   5   9   1.2204   0.7946   0.6225   0.0623  -0.0855  -0.3602   0.00    0.0
2019/01/19 01:32:30.000   47.480956733   19.056532438   175.6721   5   9   1.2209   0.7946   0.6243   0.0642  -0.0864  -0.3638   0.00    0.0
2019/01/19 01:33:00.000   47.480956059   19.056532868   175.8799   5   9   1.2213   0.7946   0.6261   0.0661  -0.0873  -0.3675   0.00    0.0
2019/01/19 01:33:30.000   47.480955760   19.056532678   175.7291   5   9   1.2217   0.7946   0.6279   0.0680  -0.0883  -0.3710   0.00    0.0
2019/01/19 01:34:00.000   47.480955100   19.056531519   175.4987   5   9   1.2221   0.7946   0.6297   0.0699  -0.0892  -0.3746   0.00    0.0
2019/01/19 01:34:30.000   47.480955429   19.056529788   175.3570   5   9   1.2225   0.7945   0.6315   0.0717  -0.0901  -0.3782   0.00    0.0
2019/01/19 01:35:00.000   47.480956001   19.056529107   175.1942   5   9   1.2229   0.7945   0.6333   0.0735  -0.0910  -0.3817   0.00    0.0
2019/01/19 01:35:30.000   47.480958179   19.056528533   174.8827   5   9   1.2232   0.7944   0.6351   0.0753  -0.0920  -0.3853   0.00    0.0
2019/01/19 01:36:00.000   47.480958818   19.056529692   174.8126   5   9   1.2235   0.7944   0.6369   0.0771  -0.0929  -0.3888   0.00    0.0
2019/01/19 01:36:30.000   47.480958373   19.056530412   175.1427   5   9   1.2237   0.7943   0.6388   0.0789  -0.0938  -0.3923   0.00    0.0
2019/01/19 01:37:00.000   47.480957036   19.056532477   175.3517   5   9   1.2240   0.7942   0.6406   0.0806  -0.0947  -0.3958   0.00    0.0
2019/01/19 01:37:30.000   47.480955859   19.056533528   175.4383   5   9   1.2242   0.7941   0.6425   0.0823  -0.0956  -0.3993   0.00    0.0
2019/01/19 01:38:00.000   47.480955184   19.056533577   175.3088   5   9   1.2244   0.7940   0.6444   0.0840  -0.0965  -0.4027   0.00    0.0
2019/01/19 01:38:30.000   47.480955287   19.056532942   175.1140   5   9   1.2245   0.7939   0.6462   0.0857  -0.0974  -0.4062   0.00    0.0
2019/01/19 01:39:00.000   47.480955501   19.056532212   175.1117   5   9   1.2246   0.7937   0.6481   0.0873  -0.0983  -0.4096   0.00    0.0
2019/01/19 01:39:30.000   47.480956143   19.056531702   175.0415   5   9   1.2247   0.7936   0.6500   0.0889  -0.0992  -0.4130   0.00    0.0
2019/01/19 01:40:00.000   47.480956868   19.056531648   175.1083   5   9   1.2248   0.7934   0.6519   0.0905  -0.1001  -0.4164   0.00    0.0
2019/01/19 01:40:30.000   47.480956344   19.056531164   175.0826   5   9   1.2248   0.7932   0.6538   0.0921  -0.1010  -0.4197   0.00    0.0
2019/01/19 01:41:00.000   47.480955181   19.056530954   175.0217   5   9   1.2248   0.7930   0.6557   0.0936  -0.1019  -0.4230   0.00    0.0
2019/01/19 01:41:30.000   47.480953163   19.056531379   175.2996   5   9   1.2248   0.7928   0.6576   0.0951  -0.1027  -0.4263   0.00    0.0
2019/01/19 01:42:00.000   47.480951234   19.056531268   175.5277   5   9   1.2247   0.7926   0.6595   0.0966  -0.1036  -0.4296   0.00    0.0
2019/01/19 01:42:30.000   47.480951580   19.056531014   175.4525   5   9   1.2246   0.7924   0.6614   0.0980  -0.1044  -0.4329   0.00    0.0
2019/01/19 01:43:00.000   47.480952294   19.056530571   175.3203   5   9   1.2245   0.7921   0.6633   0.0994  -0.1053  -0.4361   0.00    0.0
2019/01/19 01:43:30.000   47.480953370   19.056529875   175.0641   5   9   1.2243   0.7919   0.6653   0.1008  -0.1061  -0.4393   0.00    0.0
2019/01/19 01:44:00.000   47.480953663   19.056531610   175.0216   5   9   1.2241   0.7916   0.6672   0.1021  -0.1070  -0.4425   0.00    0.0
2019/01/19 01:44:30.000   47.480953297   19.056533365   175.0521   5   9   1.2239   0.7913   0.6691   0.1034  -0.1078  -0.4456   0.00    0.0
2019/01/19 01:45:00.000   47.480953301   19.056533166   175.0400   5   9   1.2236   0.7910   0.6710   0.1047  -0.1086  -0.4487   0.00    0.0
2019/01/19 01:45:30.000   47.480953912   19.056532278   175.0202   5   9   1.2233   0.7907   0.6730   0.1059  -0.1094  -0.4518   0.00    0.0
2019/01/19 01:46:00.000   47.480955850   19.056529989   174.7904   5   9   1.2229   0.7904   0.6749   0.1071  -0.1101  -0.4548   0.00    0.0
2019/01/19 01:46:30.000   47.480956229   19.056528202   174.5616   5   9   1.2225   0.7900   0.6768   0.1083  -0.1109  -0.4578   0.00    0.0
2019/01/19 01:47:00.000   47.480956081   19.056527948   174.7130   5   9   1.2221   0.7897   0.6788   0.1094  -0.1117  -0.4608   0.00    0.0
2019/01/19 01:47:30.000   47.480956287   19.056527506   174.7232   5   9   1.2216   0.7893   0.6807   0.1105  -0.1124  -0.4638   0.00    0.0
2019/01/19 01:48:00.000   47.480956523   19.056527506   174.7583   5   9   1.2211   0.7889   0.6827   0.1116  -0.1132  -0.4667   0.00    0.0
2019/01/19 01:48:30.000   47.480955765   19.056527866   174.7375   5   9   1.2206   0.7885   0.6846   0.1126  -0.1139  -0.4695   0.00    0.0
2019/01/19 01:49:00.000   47.480955741   19.056528670   174.5125   5   9   1.2200   0.7881   0.6865   0.1136  -0.1146  -0.4724   0.00    0.0
2019/01/19 01:49:30.000   47.480955650   19.056528768   174.3298   5   9   1.2194   0.7877   0.6885   0.1145  -0.1153  -0.4752   0.00    0.0
2019/01/19 01:50:00.000   47.480957224   19.056527364   174.1174   5   9   1.2188   0.7872   0.6904   0.1154  -0.1159  -0.4779   0.00    0.0
2019/01/19 01:50:30.000   47.480958582   19.056528144   174.0787   5   9   1.2181   0.7868   0.6924   0.1163  -0.1166  -0.4807   0.00    0.0
2019/01/19 01:51:00.000   47.480958612   19.056528320   174.0841   5   9   1.2174   0.7863   0.6943   0.1171  -0.1172  -0.4833   0.00    0.0
2019/01/19 01:51:30.000   47.480959463   19.056526781   173.9955   5   9   1.2166   0.7858   0.6962   0.1179  -0.1179  -0.4860   0.00    0.0
2019/01/19 01:52:00.000   47.480958560   19.056526842   174.0909   5   9   1.2158   0.7853   0.6982   0.1186  -0.1185  -0.4886   0.00    0.0
2019/01/19 01:52:30.000   47.480958539   19.056527563   174.1626   5   9   1.2150   0.7848   0.7001   0.1193  -0.1191  -0.4912   0.00    0.0
2019/01/19 01:53:00.000   47.480957067   19.056528171   174.2577   5  10   1.2025   0.6546   0.7014   0.0476  -0.1074  -0.4889   0.00    0.0
2019/01/19 01:53:30.000   47.480957164   19.056528428   174.2292   5  10   1.2020   0.6550   0.7034   0.0500  -0.1086  -0.4917   0.00    0.0
2019/01/19 01:54:00.000   47.480958968   19.056527449   174.1933   5  10   1.2015   0.6554   0.7054   0.0523  -0.1098  -0.4945   0.00    0.0
2019/01/19 01:54:30.000   47.480960645   19.056527233   174.1924   5  10   1.2010   0.6558   0.7074   0.0547  -0.1110  -0.4972   0.00    0.0
2019/01/19 01:55:00.000   47.480962281   19.056525687   174.0999   5  10   1.2004   0.6562   0.7093   0.0570  -0.1122  -0.4999   0.00    0.0
2019/01/19 01:55:30.000   47.480962129   19.056525236   174.0446   5  10   1.1998   0.6566   0.7113   0.0592  -0.1134  -0.5025   0.00    0.0
2019/01/19 01:56:00.000   47.480961119   19.056524978   174.0150   5  10   1.1992   0.6570   0.7133   0.0615  -0.1145  -0.5051   0.00    0.0
2019/01/19 01:56:30.000   47.480959444   19.056525089   174.0329   5  10   1.1985   0.6574   0.7152   0.0637  -0.1157  -0.5076   0.00    0.0
2019/01/19 01:57:00.000   47.480958435   19.056525648   174.2367   5  10   1.1977   0.6577   0.7171   0.0658  -0.1168  -0.5101   0.00    0.0
2019/01/19 01:57:30.000   47.480958742   19.056525229   174.3468   5  10   1.1969   0.6581   0.7191   0.0680  -0.1180  -0.5126   0.00    0.0
2019/01/19 01:58:00.000   47.480958858   19.056525513   174.7467   5  10   1.1961   0.6585   0.7210   0.0701  -0.1191  -0.5149   0.00    0.0
2019/01/19 01:58:30.000   47.480959631   19.056523953   174.9694   5  10   1.1952   0.6589   0.7229   0.0721  -0.1202  -0.5173   0.00    0.0
2019/01/19 01:59:00.000   47.480959702   19.056524004   175.0700   5  10   1.1943   0.6592   0.7248   0.0742  -0.1213  -0.5195   0.00    0.0
2019/01/19 01:59:30.000   47.480954671   19.056537474   177.2102   5  11   1.1097   0.6558   0.5771   0.0451  -0.0912  -0.3279   0.00    0.0
2019/01/19 02:00:00.000   47.480955104   19.056539379   177.0595   5  11   1.1088   0.6562   0.5786   0.0472  -0.0924  -0.3297   0.00    0.0
2019/01/19 02:00:30.000   47.480954885   19.056540347   176.8921   5  11   1.1078   0.6566   0.5801   0.0493  -0.0935  -0.3315   0.00    0.0
2019/01/19 02:01:00.000   47.480953825   19.056540932   176.8692   5  11   1.1068   0.6569   0.5816   0.0514  -0.0946  -0.3333   0.00    0.0
2019/01/19 02:01:30.000   47.480952676   19.056540648   176.7773   5  11   1.1058   0.6573   0.5831   0.0534  -0.0957  -0.3351   0.00    0.0
2019/01/19 02:02:00.000   47.480955761   19.056547163   175.7079   5  10   1.4250   0.6577   0.5854   0.0578  -0.0968  -0.3091   0.00    0.0
2019/01/19 02:02:30.000   47.480955074   19.056546548   175.7580   5  10   1.4238   0.6581   0.5867   0.0629  -0.0978  -0.3127   0.00    0.0
2019/01/19 02:03:00.000   47.480955455   19.056544684   175.5914   5  10   1.4225   0.6585   0.5881   0.0678  -0.0988  -0.3163   0.00    0.0
2019/01/19 02:03:30.000   47.480956571   19.056542027   175.3503   5  10   1.4212   0.6589   0.5895   0.0728  -0.0998  -0.3198   0.00    0.0
2019/01/19 02:04:00.000   47.480957558   19.056540059   175.2201   5  10   1.4199   0.6594   0.5909   0.0777  -0.1009  -0.3233   0.00    0.0
2019/01/19 02:04:30.000   47.480956548   19.056541379   175.3478   5  10   1.4185   0.6598   0.5923   0.0825  -0.1019  -0.3267   0.00    0.0
2019/01/19 02:05:00.000   47.480955286   19.056542363   175.7601   5  10   1.4171   0.6603   0.5938   0.0873  -0.1030  -0.3301   0.00    0.0
2019/01/19 02:05:30.000   47.480954646   19.056542263   176.1262   5  10   1.4156   0.6607   0.5952   0.0920  -0.1040  -0.3335   0.00    0.0
2019/01/19 02:06:00.000   47.480954894   19.056542100   176.3173   5  10   1.4141   0.6612   0.5966   0.0967  -0.1051  -0.3368   0.00    0.0
2019/01/19 02:06:30.000   47.480956739   19.056540993   175.8417   5  10   1.4125   0.6617   0.5981   0.1013  -0.1062  -0.3401   0.00    0.0
2019/01/19 02:07:00.000   47.480957877   19.056538027   175.1491   5  10   1.4109   0.6622   0.5995   0.1058  -0.1072  -0.3433   0.00    0.0
2019/01/19 02:07:30.000   47.480956290   19.056536924   174.8448   5  10   1.4092   0.6627   0.6010   0.1103  -0.1083  -0.3465   0.00    0.0
2019/01/19 02:08:00.000   47.480952855   19.056539771   175.2917   5  10   1.4075   0.6632   0.6024   0.1147  -0.1094  -0.3497   0.00    0.0
2019/01/19 02:08:30.000   47.480950308   19.056544116   175.9308   5  10   1.4057   0.6637   0.6039   0.1190  -0.1104  -0.3528   0.00    0.0
2019/01/19 02:09:00.000   47.480948817   19.056546472   176.5455   5  10   1.4039   0.6642   0.6054   0.1233  -0.1115  -0.3558   0.00    0.0
2019/01/19 02:09:30.000   47.480948625   19.056546418   176.7042   5  10   1.4020   0.6647   0.6068   0.1275  -0.1126  -0.3588   0.00    0.0
2019/01/19 02:10:00.000   47.480951120   19.056543380   176.1858   5  10   1.4001   0.6653   0.6083   0.1316  -0.1137  -0.3618   0.00    0.0
2019/01/19 02:10:30.000   47.480952876   19.056540208   175.6704   5  10   1.3982   0.6658   0.6098   0.1357  -0.1147  -0.3647   0.00    0.0
2019/01/19 02:11:00.000   47.480952057   19.056539953   175.6831   5  10   1.3962   0.6663   0.6112   0.1397  -0.1158  -0.3675   0.00    0.0
2019/01/19 02:11:30.000   47.480950109   19.056540275   175.8077   5  10   1.3941   0.6668   0.6127   0.1436  -0.1169  -0.3704   0.00    0.0
2019/01/19 02:12:00.000   47.480947900   19.056541690   176.2978   5  10   1.3920   0.6674   0.6142   0.1474  -0.1179  -0.3731   0.00    0.0
2019/01/19 02:12:30.000   47.480947547   19.056542403   176.4620   5  10   1.3898   0.6679   0.6157   0.1511  -0.1190  -0.3758   0.00    0.0
2019/01/19 02:13:00.000   47.480948818   19.056541426   176.3536   5  10   1.3876   0.6684   0.6172   0.1548  -0.1200  -0.3785   0.00    0.0
2019/01/19 02:13:30.000   47.480948305   19.056537672   175.6555   5  11   1.3824   0.6100   0.5725   0.1336  -0.0566  -0.3598   0.00    0.0
2019/01/19 02:14:00.000   47.480950888   19.056536773   175.1583   5  11   1.3801   0.6108   0.5738   0.1372  -0.0576  -0.3624   0.00    0.0
2019/01/19 02:14:30.000   47.480951146   19.056537036   174.9197   5  11   1.3778   0.6116   0.5752   0.1407  -0.0586  -0.3649   0.00    0.0
2019/01/19 02:15:00.000   47.480950002   19.056537827   174.8966   5  11   1.3754   0.6123   0.5766   0.1442  -0.0596  -0.3674   0.00    0.0
2019/01/19 02:15:30.000   47.480949631   19.056538143   174.8533   5  11   1.3729   0.6131   0.5780   0.1476  -0.0605  -0.3698   0.00    0.0
2019/01/19 02:16:00.000   47.480950673   19.056536206   174.6107   5  11   1.3705   0.6139   0.5793   0.1510  -0.0615  -0.3722   0.00    0.0
2019/01/19 02:16:30.000   47.480951181   19.056535106   174.5336   5  11   1.3679   0.6147   0.5807   0.1542  -0.0625  -0.3745   0.00    0.0
2019/01/19 02:17:00.000   47.480951181   19.056535613   174.5051   5  11   1.3654   0.6155   0.5821   0.1574  -0.0634  -0.3768   0.00    0.0
2019/01/19 02:17:30.000   47.480950638   19.056535950   174.6150   5  11   1.3627   0.6163   0.5835   0.1605  -0.0644  -0.3790   0.00    0.0
2019/01/19 02:18:00.000   47.480950919   19.056535820   174.4473   5  10   1.3661   0.7388   0.6001   0.2157  -0.1200  -0.3985   0.00    0.0
2019/01/19 02:18:30.000   47.480950819   19.056535902   174.1303   5  10   1.3647   0.7419   0.6024   0.2244  -0.1232  -0.4029   0.00    0.0
2019/01/19 02:19:00.000   47.480951703   19.056535705   173.6969   5  10   1.3633   0.7450   0.6047   0.2332  -0.1264  -0.4073   0.00    0.0
2019/01/19 02:19:30.000   47.480951334   19.056537374   173.5387   5  10   1.3620   0.7482   0.6070   0.2420  -0.1297  -0.4119   0.00    0.0
2019/01/19 02:20:00.000   47.480951070   19.056537631   173.5462   5  10   1.3608   0.7515   0.6094   0.2508  -0.1331  -0.4165   0.00    0.0
2019/01/19 02:20:30.000   47.480951625   19.056535929   173.6957   5  10   1.3596   0.7549   0.6118   0.2597  -0.1366  -0.4211   0.00    0.0
2019/01/19 02:21:00.000   47.480952737   19.056533605   173.9524   5  10   1.3586   0.7582   0.6143   0.2687  -0.1401  -0.4258   0.00    0.0
2019/01/19 02:21:30.000   47.480952958   19.056534260   174.1966   5  10   1.3576   0.7617   0.6168   0.2776  -0.1437  -0.4306   0.00    0.0
2019/01/19 02:22:00.000   47.480953589   19.056535750   174.5651   5  10   1.3566   0.7652   0.6193   0.2866  -0.1473  -0.4355   0.00    0.0
2019/01/19 02:22:30.000   47.480953516   19.056536769   175.1024   5  10   1.3558   0.7688   0.6219   0.2957  -0.1511  -0.4404   0.00    0.0
2019/01/19 02:23:00.000   47.480953408   19.056538301   175.6369   5  10   1.3550   0.7724   0.6245   0.3048  -0.1549  -0.4454   0.00    0.0
2019/01/19 02:23:30.000   47.480954408   19.056538311   175.9285   5  10   1.3543   0.7761   0.6271   0.3139  -0.1587  -0.4504   0.00    0.0
2019/01/19 02:24:00.000   47.480955131   19.056537247   175.8122   5  10   1.3536   0.7799   0.6298   0.3231  -0.1627  -0.4555   0.00    0.0
2019/01/19 02:24:30.000   47.480955266   19.056536656   175.5691   5  10   1.3530   0.7837   0.6325   0.3323  -0.1667  -0.4607   0.00    0.0
2019/01/19 02:25:00.000   47.480954839   19.056536018   175.1589   5  10   1.3525   0.7875   0.6353   0.3416  -0.1708  -0.4660   0.00    0.0
2019/01/19 02:25:30.000   47.480954236   19.056536284   174.8852   5  10   1.3521   0.7915   0.6381   0.3509  -0.1750  -0.4713   0.00    0.0
2019/01/19 02:26:00.000   47.480954108   19.056536109   174.4873   5  10   1.3517   0.7954   0.6410   0.3603  -0.1793  -0.4767   0.00    0.0
2019/01/19 02:26:30.000   47.480953905   19.056536226   174.3221   5  10   1.3514   0.7995   0.6438   0.3697  -0.1836  -0.4822   0.00    0.0
2019/01/19 02:27:00.000   47.480953763   19.056535557   174.1850   5  10   1.3512   0.8036   0.6468   0.3792  -0.1880  -0.4878   0.00    0.0
2019/01/19 02:27:30.000   47.480953608   19.056535410   174.4857   5  10   1.3510   0.8077   0.6498   0.3888  -0.1925  -0.4934   0.00    0.0
2019/01/19 02:28:00.000   47.480953496   19.056536276   174.8139   5  10   1.3509   0.8119   0.6528   0.3983  -0.1971  -0.4991   0.00    0.0
2019/01/19 02:28:30.000   47.480953658   19.056536265   174.9663   5  10   1.3509   0.8162   0.6558   0.4080  -0.2018  -0.5049   0.00    0.0
2019/01/19 02:29:00.000   47.480955909   19.056535782   174.1392   5  11   1.1227   0.8170   0.5908   0.4742  -0.2285  -0.2916   0.00    0.0
2019/01/19 02:29:30.000   47.480956489   19.056533473   173.3867   5  11   1.1250   0.8216   0.5933   0.4819  -0.2328  -0.2969   0.00    0.0
2019/01/19 02:30:00.000   47.480954996   19.056532644   173.3209   5  11   1.1273   0.8263   0.5957   0.4896  -0.2371  -0.3022   0.00    0.0
2019/01/19 02:30:30.000   47.480952583   19.056533466   173.6340   5  11   1.1296   0.8310   0.5982   0.4975  -0.2416  -0.3075   0.00    0.0
2019/01/19 02:31:00.000   47.480951392   19.056534875   174.1689   5  11   1.1319   0.8357   0.6007   0.5053  -0.2461  -0.3130   0.00    0.0
2019/01/19 02:31:30.000   47.480951297   19.056536398   174.7573   5  11   1.1343   0.8405   0.6033   0.5133  -0.2507  -0.3184   0.00    0.0
2019/01/19 02:32:00.000   47.480952015   19.056536290   175.1396   5  11   1.1366   0.8453   0.6059   0.5213  -0.2553  -0.3240   0.00    0.0
2019/01/19 02:32:30.000   47.480953816   19.056534581   174.8481   5  11   1.1390   0.8501   0.6086   0.5294  -0.2601  -0.3296   0.00    0.0
2019/01/19 02:33:00.000   47.480954215   19.056533829   174.4520   5  11   1.1413   0.8550   0.6112   0.5376  -0.2649  -0.3352   0.00    0.0
2019/01/19 02:33:30.000   47.480953395   19.056534154   174.1958   5  11   1.1437   0.8600   0.6140   0.5458  -0.2698  -0.3409   0.00    0.0
2019/01/19 02:34:00.000   47.480952065   19.056534946   174.1476   5  11   1.1461   0.8649   0.6167   0.5541  -0.2748  -0.3467   0.00    0.0
2019/01/19 02:34:30.000   47.480951410   19.056535079   174.4460   5  11   1.1484   0.8699   0.6195   0.5624  -0.2798  -0.3525   0.00    0.0
2019/01/19 02:35:00.000   47.480951842   19.056534306   174.4610   5  11   1.1508   0.8749   0.6223   0.5708  -0.2850  -0.3584   0.00    0.0
2019/01/19 02:35:30.000   47.480953072   19.056533167   174.4212   5  11   1.1532   0.8800   0.6252   0.5793  -0.2902  -0.3643   0.00    0.0
2019/01/19 02:36:00.000   47.480954679   19.056532533   174.4359   5  11   1.1556   0.8851   0.6281   0.5878  -0.2954  -0.3702   0.00    0.0
2019/01/19 02:36:30.000   47.480955266   19.056532565   174.6588   5  11   1.1580   0.8902   0.6310   0.5963  -0.3008  -0.3762   0.00    0.0
2019/01/19 02:37:00.000   47.480955728   19.056532754   174.6369   5  11   1.1603   0.8953   0.6340   0.6049  -0.3062  -0.3823   0.00    0.0
2019/01/19 02:37:30.000   47.480954040   19.056533073   174.8411   5  11   1.1627   0.9005   0.6370   0.6136  -0.3117  -0.3884   0.00    0.0
2019/01/19 02:38:00.000   47.480950829   19.056533537   174.8658   5  11   1.1651   0.9057   0.6400   0.6222  -0.3173  -0.3946   0.00    0.0
2019/01/19 02:38:30.000   47.480948032   19.056534980   174.7887   5  11   1.1674   0.9109   0.6431   0.6309  -0.3229  -0.4008   0.00    0.0
2019/01/19 02:39:00.000   47.480947223   19.056535635   174.5699   5  11   1.1698   0.9161   0.6462   0.6397  -0.3286  -0.4070   0.00    0.0
2019/01/19 02:39:30.000   47.480948703   19.056536144   174.3658   5  11   1.1721   0.9214   0.6493   0.6484  -0.3344  -0.4133   0.00    0.0
2019/01/19 02:40:00.000   47.480950403   19.056534828   174.2281   5  11   1.1744   0.9266   0.6524   0.6572  -0.3402  -0.4196   0.00    0.0
2019/01/19 02:40:30.000   47.480951015   19.056533254   174.3826   5  11   1.1768   0.9319   0.6556   0.6660  -0.3461  -0.4259   0.00    0.0
2019/01/19 02:41:00.000   47.480950541   19.056531712   174.7372   5  11   1.1790   0.9372   0.6588   0.6748  -0.3521  -0.4323   0.00    0.0
2019/01/19 02:41:30.000   47.480949566   19.056531797   175.0448   5  11   1.1813   0.9425   0.6621   0.6836  -0.3581  -0.4387   0.00    0.0
2019/01/19 02:42:00.000   47.480949100   19.056531975   175.1063   5  11   1.1835   0.9478   0.6653   0.6924  -0.3642  -0.4451   0.00    0.0
2019/01/19 02:42:30.000   47.480948742   19.056532820   174.7394   5  11   1.1858   0.9531   0.6686   0.7012  -0.3703  -0.4515   0.00    0.0
2019/01/19 02:43:00.000   47.480949617   19.056532635   174.3177   5  11   1.1879   0.9583   0.6719   0.7100  -0.3765  -0.4580   0.00    0.0
2019/01/19 02:43:30.000   47.480951656   19.056532407   173.8681   5  11   1.1901   0.9636   0.6752   0.7187  -0.3827  -0.4644   0.00    0.0
2019/01/19 02:44:00.000   47.480952432   19.056532272   173.8994   5  11   1.1922   0.9689   0.6785   0.7274  -0.3890  -0.4709   0.00    0.0
2019/01/19 02:44:30.000   47.480951492   19.056531252   173.9776   5  11   1.1943   0.9741   0.6819   0.7361  -0.3953  -0.4774   0.00    0.0
2019/01/19 02:45:00.000   47.480949182   19.056528719   173.8999   5  11   1.1964   0.9794   0.6853   0.7448  -0.4016  -0.4838   0.00    0.0
2019/01/19 02:45:30.000   47.480947665   19.056527328   173.7180   5  11   1.1984   0.9846   0.6886   0.7533  -0.4080  -0.4903   0.00    0.0
2019/01/19 02:46:00.000   47.480947299   19.056527401   173.7295   5  11   1.2003   0.9898   0.6920   0.7619  -0.4144  -0.4967   0.00    0.0
2019/01/19 02:46:30.000   47.480948497   19.056528364   173.9397   5  11   1.2022   0.9950   0.6954   0.7703  -0.4208  -0.5032   0.00    0.0
2019/01/19 02:47:00.000   47.480949275   19.056527874   174.0525   5  11   1.2041   1.0001   0.6988   0.7787  -0.4272  -0.5096   0.00    0.0
2019/01/19 02:47:30.000   47.480948893   19.056528208   174.3300   5  11   1.2059   1.0052   0.7023   0.7870  -0.4337  -0.5160   0.00    0.0
2019/01/19 02:48:00.000   47.480947420   19.056529328   174.3310   5  11   1.2076   1.0102   0.7057   0.7951  -0.4401  -0.5224   0.00    0.0
2019/01/19 02:48:30.000   47.480947511   19.056530520   174.4305   5  11   1.2093   1.0153   0.7091   0.8032  -0.4465  -0.5287   0.00    0.0
2019/01/19 02:49:00.000   47.480949241   19.056531775   174.3955   5  11   1.2109   1.0202   0.7125   0.8112  -0.4530  -0.5350   0.00    0.0
2019/01/19 02:49:30.000   47.480951439   19.056531513   174.2119   5  11   1.2125   1.0251   0.7159   0.8190  -0.4594  -0.5412   0.00    0.0
2019/01/19 02:50:00.000   47.480953741   19.056530382   174.0724   5  11   1.2139   1.0300   0.7193   0.8267  -0.4658  -0.5474   0.00    0.0
2019/01/19 02:50:30.000   47.480953815   19.056529585   174.3461   5  11   1.2153   1.0348   0.7227   0.8342  -0.4722  -0.5535   0.00    0.0
2019/01/19 02:51:00.000   47.480953727   19.056526981   174.4710   5  11   1.2166   1.0395   0.7261   0.8416  -0.4785  -0.5595   0.00    0.0
2019/01/19 02:51:30.000   47.480954267   19.056525687   174.7625   5  11   1.2179   1.0441   0.7295   0.8488  -0.4848  -0.5655   0.00    0.0
2019/01/19 02:52:00.000   47.480954288   19.056525539   174.9314   5  11   1.2190   1.0487   0.7328   0.8558  -0.4910  -0.5714   0.00    0.0
2019/01/19 02:52:30.000   47.480953572   19.056526302   174.9883   5  11   1.2201   1.0532   0.7361   0.8627  -0.4972  -0.5771   0.00    0.0
2019/01/19 02:53:00.000   47.480952298   19.056527484   175.1901   5  11   1.2210   1.0576   0.7394   0.8693  -0.5034  -0.5828   0.00    0.0
2019/01/19 02:53:30.000   47.480951803   19.056525230   174.8778   5  11   1.2219   1.0619   0.7427   0.8757  -0.5094  -0.5884   0.00    0.0
2019/01/19 02:54:00.000   47.480951161   19.056523526   174.8308   5  11   1.2227   1.0662   0.7459   0.8819  -0.5154  -0.5939   0.00    0.0
2019/01/19 02:54:30.000   47.480951901   19.056522828   174.7810   5  11   1.2233   1.0703   0.7492   0.8878  -0.5213  -0.5992   0.00    0.0
2019/01/19 02:55:00.000   47.480952605   19.056523232   174.9472   5  11   1.2239   1.0743   0.7523   0.8935  -0.5271  -0.6045   0.00    0.0
2019/01/19 02:55:30.000   47.480953397   19.056523937   175.3170   5  11   1.2243   1.0782   0.7555   0.8990  -0.5328  -0.6096   0.00    0.0
2019/01/19 02:56:00.000   47.480953136   19.056524429   175.7042   5  11   1.2246   1.0820   0.7586   0.9041  -0.5383  -0.6145   0.00    0.0
2019/01/19 02:56:30.000   47.480953126   19.056524404   175.5864   5  11   1.2248   1.0856   0.7616   0.9090  -0.5438  -0.6193   0.00    0.0
2019/01/19 02:57:00.000   47.480953957   19.056524092   175.2638   5  11   1.2249   1.0892   0.7646   0.9136  -0.5491  -0.6240   0.00    0.0
2019/01/19 02:57:30.000   47.480953534   19.056524375   175.3890   5  11   1.2249   1.0926   0.7676   0.9179  -0.5543  -0.6285   0.00    0.0
2019/01/19 02:58:00.000   47.480953128   19.056525158   175.3389   5  11   1.2247   1.0958   0.7705   0.9219  -0.5593  -0.6328   0.00    0.0
2019/01/19 02:58:30.000   47.480953044   19.056526170   175.4030   5  11   1.2245   1.0990   0.7733   0.9256  -0.5642  -0.6369   0.00    0.0
2019/01/19 02:59:00.000   47.480953629   19.056525293   175.3721   5  11   1.2240   1.1020   0.7761   0.9289  -0.5689  -0.6409   0.00    0.0
2019/01/19 02:59:30.000   47.480954597   19.056525943   175.6513   5  11   1.2235   1.1048   0.7788   0.9319  -0.5734  -0.6446   0.00    0.0
2019/01/19 03:00:00.000   47.480955261   19.056527508   175.7932   5  11   1.2228   1.1075   0.7815   0.9346  -0.5778  -0.6482   0.00    0.0
2019/01/19 03:00:30.000   47.480954978   19.056528250   175.7895   5  11   1.2220   1.1101   0.7841   0.9369  -0.5820  -0.6516   0.00    0.0
2019/01/19 03:01:00.000   47.480954703   19.056528740   176.0081   5  11   1.2210   1.1125   0.7866   0.9389  -0.5860  -0.6548   0.00    0.0
2019/01/19 03:01:30.000   47.480954500   19.056527479   176.3659   5  11   1.2199   1.1147   0.7890   0.9405  -0.5897  -0.6577   0.00    0.0
2019/01/19 03:02:00.000   47.480954612   19.056525214   176.7606   5  11   1.2187   1.1168   0.7914   0.9417  -0.5933  -0.6605   0.00    0.0
2019/01/19 03:02:30.000   47.480954554   19.056523817   176.9874   5  11   1.2173   1.1187   0.7937   0.9425  -0.5967  -0.6630   0.00    0.0
2019/01/19 03:03:00.000   47.480954063   19.056522819   177.1428   5  11   1.2158   1.1204   0.7959   0.9430  -0.5998  -0.6653   0.00    0.0
2019/01/19 03:03:30.000   47.480952958   19.056522167   177.0148   5  11   1.2142   1.1220   0.7980   0.9431  -0.6027  -0.6674   0.00    0.0
2019/01/19 03:04:00.000   47.480953341   19.056520416   176.9137   5  11   1.2124   1.1234   0.8001   0.9428  -0.6054  -0.6693   0.00    0.0
2019/01/19 03:04:30.000   47.480953625   19.056519702   176.9982   5  11   1.2104   1.1246   0.8021   0.9422  -0.6079  -0.6709   0.00    0.0
2019/01/19 03:05:00.000   47.480953088   19.056519069   177.2538   5  11   1.2083   1.1256   0.8039   0.9411  -0.6101  -0.6723   0.00    0.0
2019/01/19 03:05:30.000   47.480953107   19.056518282   177.3515   5  11   1.2061   1.1265   0.8057   0.9397  -0.6120  -0.6735   0.00    0.0
2019/01/19 03:06:00.000   47.480953802   19.056516969   177.9934   5  11   1.2038   1.1272   0.8074   0.9379  -0.6138  -0.6744   0.00    0.0
2019/01/19 03:06:30.000   47.480955782   19.056515871   178.6261   5  11   1.2013   1.1277   0.8090   0.9357  -0.6152  -0.6751   0.00    0.0
2019/01/19 03:07:00.000   47.480956391   19.056514785   178.7462   5  11   1.1986   1.1280   0.8106   0.9332  -0.6164  -0.6756   0.00    0.0
2019/01/19 03:07:30.000   47.480964257   19.056523351   180.8321   5  12   1.0293   0.8262   0.6049   0.4625  -0.2012  -0.3460   0.00    0.0
2019/01/19 03:08:00.000   47.480962978   19.056524311   180.9671   5  12   1.0279   0.8278   0.6063   0.4628  -0.2026  -0.3476   0.00    0.0
2019/01/19 03:08:30.000   47.480962290   19.056527164   180.6076   5  11   1.3976   0.8505   0.6080   0.6423  -0.2074  -0.3670   0.00    0.0
2019/01/19 03:09:00.000   47.480962648   19.056526964   180.5233   5  11   1.3981   0.8527   0.6096   0.6458  -0.2093  -0.3712   0.00    0.0
2019/01/19 03:09:30.000   47.480964703   19.056524469   180.2733   5  11   1.3985   0.8547   0.6111   0.6492  -0.2111  -0.3753   0.00    0.0
2019/01/19 03:10:00.000   47.480964977   19.056522932   180.1815   5  11   1.3987   0.8567   0.6126   0.6524  -0.2128  -0.3793   0.00    0.0
2019/01/19 03:10:30.000   47.480964981   19.056523582   179.9640   5  11   1.3989   0.8587   0.6141   0.6554  -0.2145  -0.3833   0.00    0.0
2019/01/19 03:11:00.000   47.480965309   19.056523613   179.9686   5  11   1.3989   0.8605   0.6155   0.6582  -0.2162  -0.3872   0.00    0.0
2019/01/19 03:11:30.000   47.480966104   19.056523280   180.1783   5  11   1.3989   0.8623   0.6170   0.6608  -0.2179  -0.3910   0.00    0.0
2019/01/19 03:12:00.000   47.480966340   19.056523377   180.0579   5  11   1.3987   0.8641   0.6185   0.6633  -0.2195  -0.3948   0.00    0.0
2019/01/19 03:12:30.000   47.480965990   19.056523622   179.9349   5  11   1.3985   0.8658   0.6200   0.6655  -0.2210  -0.3985   0.00    0.0
2019/01/19 03:13:00.000   47.480964675   19.056523669   180.0365   5  11   1.3981   0.8674   0.6214   0.6676  -0.2225  -0.4020   0.00    0.0
2019/01/19 03:13:30.000   47.480963659   19.056524690   180.2721   5  11   1.3977   0.8690   0.6229   0.6694  -0.2240  -0.4056   0.00    0.0
2019/01/19 03:14:00.000   47.480964058   19.056526292   180.3357   5  11   1.3971   0.8704   0.6243   0.6711  -0.2253  -0.4090   0.00    0.0
2019/01/19 03:14:30.000   47.480964334   19.056526790   180.2098   5  11   1.3964   0.8719   0.6257   0.6725  -0.2267  -0.4123   0.00    0.0
2019/01/19 03:15:00.000   47.480963713   19.056526974   180.1584   5  11   1.3956   0.8732   0.6272   0.6738  -0.2280  -0.4155   0.00    0.0
2019/01/19 03:15:30.000   47.480962648   19.056526386   180.0747   5  11   1.3947   0.8745   0.6286   0.6748  -0.2292  -0.4187   0.00    0.0
2019/01/19 03:16:00.000   47.480962097   19.056526155   180.0478   5  11   1.3937   0.8757   0.6299   0.6756  -0.2304  -0.4217   0.00    0.0
2019/01/19 03:16:30.000   47.480962676   19.056526829   179.5149   5  11   1.3926   0.8768   0.6313   0.6762  -0.2315  -0.4247   0.00    0.0
2019/01/19 03:17:00.000   47.480964724   19.056526203   178.8521   5  11   1.3914   0.8778   0.6327   0.6766  -0.2325  -0.4275   0.00    0.0
2019/01/19 03:17:30.000   47.480966120   19.056526066   178.4744   5  11   1.3900   0.8788   0.6340   0.6768  -0.2335  -0.4303   0.00    0.0
2019/01/19 03:18:00.000   47.480965226   19.056526727   178.6246   5  11   1.3886   0.8797   0.6353   0.6767  -0.2344  -0.4329   0.00    0.0
2019/01/19 03:18:30.000   47.480964127   19.056527412   179.0131   5  11   1.3870   0.8805   0.6366   0.6765  -0.2352  -0.4355   0.00    0.0
2019/01/19 03:19:00.000   47.480963480   19.056527652   179.4078   5  11   1.3854   0.8812   0.6379   0.6760  -0.2360  -0.4379   0.00    0.0
2019/01/19 03:19:30.000   47.480965462   19.056528342   179.4782   5  11   1.3836   0.8819   0.6392   0.6753  -0.2367  -0.4403   0.00    0.0
2019/01/19 03:20:00.000   47.480966457   19.056528310   179.5912   5  11   1.3817   0.8825   0.6404   0.6744  -0.2373  -0.4425   0.00    0.0
2019/01/19 03:20:30.000   47.480966092   19.056527634   180.0564   5  11   1.3797   0.8830   0.6416   0.6733  -0.2379  -0.4446   0.00    0.0
2019/01/19 03:21:00.000   47.480964689   19.056526715   180.3285   5  11   1.3777   0.8834   0.6428   0.6719  -0.2383  -0.4466   0.00    0.0
2019/01/19 03:21:30.000   47.480963051   19.056526295   180.5170   5  11   1.3755   0.8838   0.6440   0.6704  -0.2388  -0.4485   0.00    0.0
2019/01/19 03:22:00.000   47.480962326   19.056526271   180.5524   5  11   1.3732   0.8840   0.6452   0.6686  -0.2391  -0.4503   0.00    0.0
2019/01/19 03:22:30.000   47.480962787   19.056527468   180.5450   5  11   1.3708   0.8842   0.6463   0.6667  -0.2393  -0.4520   0.00    0.0
2019/01/19 03:23:00.000   47.480963282   19.056528534   180.1734   5  11   1.3683   0.8844   0.6474   0.6645  -0.2395  -0.4536   0.00    0.0
2019/01/19 03:23:30.000   47.480963225   19.056527601   179.6541   5  11   1.3657   0.8844   0.6485   0.6622  -0.2396  -0.4551   0.00    0.0
2019/01/19 03:24:00.000   47.480963514   19.056526784   179.5956   5  11   1.3630   0.8844   0.6496   0.6596  -0.2397  -0.4564   0.00    0.0
2019/01/19 03:24:30.000   47.480964042   19.056525901   179.8940   5  11   1.3603   0.8843   0.6506   0.6568  -0.2396  -0.4577   0.00    0.0
2019/01/19 03:25:00.000   47.480964823   19.056526094   180.0697   5  11   1.3574   0.8841   0.6516   0.6539  -0.2395  -0.4588   0.00    0.0
2019/01/19 03:25:30.000   47.480964615   19.056526422   180.4599   5  11   1.3544   0.8838   0.6526   0.6508  -0.2393  -0.4599   0.00    0.0
2019/01/19 03:26:00.000   47.480966045   19.056527137   180.5324   5  11   1.3514   0.8835   0.6536   0.6474  -0.2390  -0.4608   0.00    0.0
2019/01/19 03:26:30.000   47.480967696   19.056526889   180.2324   5  11   1.3483   0.8831   0.6546   0.6439  -0.2387  -0.4617   0.00    0.0
2019/01/19 03:27:00.000   47.480967061   19.056527433   180.3465   5  11   1.3450   0.8826   0.6555   0.6402  -0.2383  -0.4624   0.00    0.0
2019/01/19 03:27:30.000   47.480965999   19.056527086   180.7171   5  11   1.3418   0.8821   0.6564   0.6364  -0.2378  -0.4631   0.00    0.0
2019/01/19 03:28:00.000   47.480965027   19.056528887   181.1794   5  11   1.3384   0.8815   0.6573   0.6324  -0.2372  -0.4636   0.00    0.0
2019/01/19 03:28:30.000   47.480964922   19.056531659   181.4011   5  11   1.3349   0.8808   0.6581   0.6282  -0.2366  -0.4640   0.00    0.0
2019/01/19 03:29:00.000   47.480965391   19.056532251   181.5725   5  11   1.3314   0.8801   0.6590   0.6238  -0.2358  -0.4644   0.00    0.0
2019/01/19 03:29:30.000   47.480966146   19.056530957   181.6230   5  11   1.3278   0.8793   0.6598   0.6193  -0.2351  -0.4646   0.00    0.0
