% program   : RTKPOST ver.demo5 b31
% inp file  : C:\Users\lus2bp\Source\Repos\GINA\70_EGNOS_Project\files\PositionComparisonInputFiles\bute0190\bute0190.19o
% inp file  : C:\Users\lus2bp\Source\Repos\GINA\70_EGNOS_Project\files\PositionComparisonInputFiles\bute0190\brdc0190.19n
% obs start : 2019/01/19 00:00:00.0 GPST (week2036 518400.0s)
% obs end   : 2019/01/19 23:59:30.0 GPST (week2036 604770.0s)
%
% (lat/lon/height=WGS84/geodetic,Q=1:fix,2:float,3:sbas,4:dgps,5:single,6:ppp,ns=# of satellites)
%  GPST                  latitude(deg) longitude(deg)  height(m)   Q  ns   sdn(m)   sde(m)   sdu(m)  sdne(m)  sdeu(m)  sdun(m) age(s)  ratio
2019/01/19 00:00:00.000   47.480956062   19.056516500   157.3640   5  10   5.0458   3.6164   7.7688   2.7463   3.0220   4.4896   0.00    0.0
2019/01/19 00:00:30.000   47.480954764   19.056511338   157.9720   5  11   4.6580   3.4025   7.7382   2.2691   3.1441   4.6111   0.00    0.0
2019/01/19 00:01:00.000   47.480963243   19.056515690   158.4353   5  10   5.0305   3.6157   7.7577   2.7307   3.0166   4.4668   0.00    0.0
2019/01/19 00:01:30.000   47.480960252   19.056510418   159.0785   5  11   4.6419   3.4062   7.7248   2.2556   3.1389   4.5897   0.00    0.0
2019/01/19 00:02:00.000   47.480968926   19.056514364   159.4581   5  10   5.0141   3.6148   7.7440   2.7138   3.0092   4.4413   0.00    0.0
2019/01/19 00:02:30.000   47.480966393   19.056509627   160.6733   5  11   4.6248   3.4097   7.7088   2.2408   3.1320   4.5661   0.00    0.0
2019/01/19 00:03:00.000   47.480970572   19.056509183   161.5007   5  11   4.6158   3.4114   7.6998   2.2329   3.1279   4.5534   0.00    0.0
2019/01/19 00:03:30.000   47.480973154   19.056504636   161.7882   5  11   4.6067   3.4130   7.6903   2.2247   3.1235   4.5403   0.00    0.0
2019/01/19 00:04:00.000   47.480974221   19.056500201   162.4091   5  11   4.5973   3.4145   7.6801   2.2162   3.1186   4.5267   0.00    0.0
2019/01/19 00:04:30.000   47.480977577   19.056500804   163.1783   5  11   4.5878   3.4160   7.6695   2.2074   3.1134   4.5126   0.00    0.0
2019/01/19 00:05:00.000   47.480979845   19.056498056   163.6488   5  11   4.5781   3.4175   7.6583   2.1983   3.1077   4.4981   0.00    0.0
2019/01/19 00:05:30.000   47.480981379   19.056496909   164.4079   5  11   4.5683   3.4189   7.6467   2.1889   3.1017   4.4832   0.00    0.0
2019/01/19 00:06:00.000   47.480984744   19.056496801   165.1851   5  11   4.5583   3.4203   7.6347   2.1791   3.0952   4.4680   0.00    0.0
2019/01/19 00:06:30.000   47.480988604   19.056496664   165.7332   5  11   4.5483   3.4216   7.6223   2.1691   3.0883   4.4525   0.00    0.0
2019/01/19 00:07:00.000   47.480994546   19.056496705   166.7564   5  11   4.5382   3.4229   7.6097   2.1587   3.0810   4.4368   0.00    0.0
2019/01/19 00:07:30.000   47.481000646   19.056494148   168.0593   5  11   4.5281   3.4242   7.5969   2.1479   3.0732   4.4209   0.00    0.0
2019/01/19 00:08:00.000   47.481006332   19.056491475   169.2579   5  11   4.5180   3.4254   7.5839   2.1368   3.0650   4.4049   0.00    0.0
2019/01/19 00:08:30.000   47.481010956   19.056490031   170.4832   5  11   4.5079   3.4266   7.5710   2.1253   3.0563   4.3891   0.00    0.0
2019/01/19 00:09:00.000   47.481015168   19.056487471   171.5022   5  11   4.4981   3.4278   7.5583   2.1134   3.0471   4.3734   0.00    0.0
2019/01/19 00:09:30.000   47.481018537   19.056486547   172.5383   5  11   4.4885   3.4290   7.5459   2.1010   3.0372   4.3580   0.00    0.0
2019/01/19 00:10:00.000   47.481023821   19.056485493   173.7063   5  11   4.4792   3.4302   7.5342   2.0881   3.0267   4.3433   0.00    0.0
2019/01/19 00:10:30.000   47.481031049   19.056482620   175.0242   5  11   4.4705   3.4315   7.5236   2.0746   3.0155   4.3295   0.00    0.0
2019/01/19 00:11:00.000   47.481039299   19.056478685   176.3395   5  11   4.4626   3.4327   7.5145   2.0604   3.0032   4.3172   0.00    0.0
2019/01/19 00:11:30.000   47.481047401   19.056476304   177.7880   5  11   4.4558   3.4341   7.5078   2.0452   2.9897   4.3071   0.00    0.0
2019/01/19 00:12:00.000   47.481054971   19.056475445   179.3418   5  11   4.4507   3.4356   7.5048   2.0287   2.9746   4.3003   0.00    0.0
2019/01/19 00:12:30.000   47.481062322   19.056473065   180.7076   5  11   4.4483   3.4373   7.5077   2.0102   2.9569   4.2989   0.00    0.0
2019/01/19 00:13:00.000   47.481070758   19.056471031   182.2090   5  11   4.4504   3.4394   7.5205   1.9888   2.9354   4.3064   0.00    0.0
2019/01/19 00:13:30.000   47.481078202   19.056471495   184.1099   5  11   4.4606   3.4423   7.5517   1.9620   2.9068   4.3303   0.00    0.0
2019/01/19 00:14:00.000   47.481085230   19.056470438   186.0293   5  11   4.4884   3.4468   7.6223   1.9237   2.8632   4.3892   0.00    0.0
2019/01/19 00:14:30.000   47.481087587   19.056470238   186.8057   5  11   4.5653   3.4560   7.8030   1.8521   2.7764   4.5448   0.00    0.0
2019/01/19 00:15:00.000   47.481052403   19.056484050   179.3575   5  11   4.9125   3.4925   8.5810   1.5679   2.4174   5.2085   0.00    0.0
2019/01/19 00:15:30.000   47.480935720   19.056529353   154.0954   5  10   5.6916   3.5805  10.2738   0.3603   1.1465   6.5851   0.00    0.0
2019/01/19 00:16:00.000   47.480936047   19.056529226   154.2444   5  10   5.6849   3.5831  10.2701   0.2144   1.0869   6.5776   0.00    0.0
2019/01/19 00:16:30.000   47.480936118   19.056529192   153.9990   5  10   5.6775   3.5858  10.2647  -0.1944   1.0238   6.5689   0.00    0.0
2019/01/19 00:17:00.000   47.480935153   19.056531691   153.4640   5  10   5.6694   3.5884  10.2577  -0.3485   0.9566   6.5590   0.00    0.0
2019/01/19 00:17:30.000   47.480934933   19.056530669   153.0384   5  10   5.6606   3.5912  10.2491  -0.4526   0.8843   6.5478   0.00    0.0
2019/01/19 00:18:00.000   47.480935118   19.056530202   152.8361   5  10   5.6512   3.5939  10.2388  -0.5366   0.8058   6.5354   0.00    0.0
2019/01/19 00:18:30.000   47.480934871   19.056531327   152.9087   5  10   5.6411   3.5968  10.2270  -0.6089   0.7191   6.5218   0.00    0.0
2019/01/19 00:19:00.000   47.480933801   19.056531694   153.0276   5  10   5.6305   3.5996  10.2136  -0.6731   0.6208   6.5071   0.00    0.0
2019/01/19 00:19:30.000   47.480933306   19.056530239   153.1801   5  10   5.6192   3.6026  10.1987  -0.7314   0.5044   6.4912   0.00    0.0
2019/01/19 00:20:00.000   47.480933288   19.056528933   153.2117   5  10   5.6073   3.6055  10.1822  -0.7850   0.3525   6.4741   0.00    0.0
2019/01/19 00:20:30.000   47.481052283   19.056587918   180.6414   5  11   4.6084   3.4385   7.6760  -2.0419  -2.7015   4.5323   0.00    0.0
2019/01/19 00:21:00.000   47.481045899   19.056586379   179.2436   5  11   4.6035   3.4410   7.6688  -2.0589  -2.7236   4.5240   0.00    0.0
2019/01/19 00:21:30.000   47.481038019   19.056586589   177.8493   5  11   4.6007   3.4438   7.6673  -2.0738  -2.7424   4.5202   0.00    0.0
2019/01/19 00:22:00.000   47.481030668   19.056585711   176.5093   5  11   4.5993   3.4468   7.6691  -2.0873  -2.7591   4.5192   0.00    0.0
2019/01/19 00:22:30.000   47.481024359   19.056584424   175.0366   5  11   4.5986   3.4499   7.6731  -2.0998  -2.7741   4.5199   0.00    0.0
2019/01/19 00:23:00.000   47.481019804   19.056580271   173.6276   5  11   4.5984   3.4531   7.6784  -2.1114  -2.7880   4.5217   0.00    0.0
2019/01/19 00:23:30.000   47.481014113   19.056575873   172.2629   5  11   4.5986   3.4564   7.6846  -2.1223  -2.8008   4.5241   0.00    0.0
2019/01/19 00:24:00.000   47.481008080   19.056572736   170.9402   5  11   4.5989   3.4596   7.6912  -2.1326  -2.8128   4.5269   0.00    0.0
2019/01/19 00:24:30.000   47.481001857   19.056570128   169.4063   5  11   4.5992   3.4629   7.6980  -2.1425  -2.8241   4.5298   0.00    0.0
2019/01/19 00:25:00.000   47.480995014   19.056568778   167.8496   5  11   4.5996   3.4661   7.7049  -2.1519  -2.8347   4.5327   0.00    0.0
2019/01/19 00:25:30.000   47.480988539   19.056568891   166.6623   5  11   4.5999   3.4693   7.7116  -2.1609  -2.8447   4.5355   0.00    0.0
2019/01/19 00:26:00.000   47.480983630   19.056567867   166.0183   5  11   4.6001   3.4725   7.7181  -2.1695  -2.8542   4.5380   0.00    0.0
2019/01/19 00:26:30.000   47.480979837   19.056565443   165.6187   5  11   4.6002   3.4757   7.7243  -2.1777  -2.8631   4.5403   0.00    0.0
2019/01/19 00:27:00.000   47.480977157   19.056563020   165.3753   5  11   4.6001   3.4788   7.7301  -2.1856  -2.8715   4.5423   0.00    0.0
2019/01/19 00:27:30.000   47.480975932   19.056562400   164.8953   5  11   4.5999   3.4819   7.7354  -2.1931  -2.8794   4.5439   0.00    0.0
2019/01/19 00:28:00.000   47.480975225   19.056560112   164.3531   5  11   4.5994   3.4849   7.7403  -2.2003  -2.8868   4.5451   0.00    0.0
2019/01/19 00:28:30.000   47.480972731   19.056557972   163.5018   5  11   4.5988   3.4879   7.7447  -2.2072  -2.8938   4.5458   0.00    0.0
2019/01/19 00:29:00.000   47.480970587   19.056555863   162.7933   5  11   4.5979   3.4908   7.7484  -2.2138  -2.9003   4.5461   0.00    0.0
2019/01/19 00:29:30.000   47.480967386   19.056555698   161.8454   5  11   4.5969   3.4937   7.7516  -2.2200  -2.9063   4.5459   0.00    0.0
2019/01/19 00:30:00.000   47.480963888   19.056554888   161.0031   5  11   4.5955   3.4965   7.7543  -2.2260  -2.9119   4.5452   0.00    0.0
2019/01/19 00:30:30.000   47.480960179   19.056554508   160.3304   5  11   4.5940   3.4993   7.7562  -2.2316  -2.9171   4.5440   0.00    0.0
2019/01/19 00:31:00.000   47.480956330   19.056554855   159.7993   5  11   4.5922   3.5020   7.7576  -2.2370  -2.9218   4.5423   0.00    0.0
2019/01/19 00:31:30.000   47.480954392   19.056551928   160.0295   5  11   4.5901   3.5046   7.7583  -2.2420  -2.9261   4.5400   0.00    0.0
2019/01/19 00:32:00.000   47.480951957   19.056553020   160.1248   5  11   4.5879   3.5072   7.7584  -2.2468  -2.9299   4.5372   0.00    0.0
2019/01/19 00:32:30.000   47.480948763   19.056555134   159.7681   5  11   4.5853   3.5097   7.7577  -2.2512  -2.9333   4.5338   0.00    0.0
2019/01/19 00:33:00.000   47.480946329   19.056556416   159.3156   5  11   4.5825   3.5122   7.7565  -2.2554  -2.9363   4.5299   0.00    0.0
2019/01/19 00:33:30.000   47.480943753   19.056557026   158.9976   5  11   4.5795   3.5145   7.7545  -2.2593  -2.9389   4.5255   0.00    0.0
2019/01/19 00:34:00.000   47.480941423   19.056557071   158.5937   5  11   4.5762   3.5168   7.7519  -2.2629  -2.9410   4.5205   0.00    0.0
2019/01/19 00:34:30.000   47.480940127   19.056555195   158.3729   5  11   4.5727   3.5191   7.7486  -2.2662  -2.9427   4.5149   0.00    0.0
2019/01/19 00:35:00.000   47.480938728   19.056552920   158.1601   5  11   4.5689   3.5212   7.7446  -2.2693  -2.9441   4.5088   0.00    0.0
2019/01/19 00:35:30.000   47.480938137   19.056550163   157.9084   5  11   4.5649   3.5233   7.7400  -2.2721  -2.9449   4.5022   0.00    0.0
2019/01/19 00:36:00.000   47.480937248   19.056548213   157.7875   5  11   4.5606   3.5254   7.7346  -2.2746  -2.9454   4.4950   0.00    0.0
2019/01/19 00:36:30.000   47.480935700   19.056546954   157.7154   5  11   4.5561   3.5273   7.7286  -2.2769  -2.9455   4.4872   0.00    0.0
2019/01/19 00:37:00.000   47.480932879   19.056546238   157.4756   5  11   4.5513   3.5292   7.7220  -2.2788  -2.9452   4.4789   0.00    0.0
2019/01/19 00:37:30.000   47.480930361   19.056544967   157.1209   5  11   4.5463   3.5310   7.7147  -2.2806  -2.9445   4.4701   0.00    0.0
2019/01/19 00:38:00.000   47.480928078   19.056544893   156.5811   5  11   4.5411   3.5328   7.7067  -2.2821  -2.9434   4.4608   0.00    0.0
2019/01/19 00:38:30.000   47.480926921   19.056545565   156.3233   5  11   4.5357   3.5344   7.6981  -2.2833  -2.9419   4.4509   0.00    0.0
2019/01/19 00:39:00.000   47.480925054   19.056546233   156.3966   5  11   4.5300   3.5360   7.6889  -2.2843  -2.9400   4.4405   0.00    0.0
2019/01/19 00:39:30.000   47.480875593   19.056573661   163.4217   5  12   4.3907   3.5141   7.5508  -2.1858  -3.0330   4.5984   0.00    0.0
2019/01/19 00:40:00.000   47.480877870   19.056573184   163.6883   5  12   4.3837   3.5147   7.5405  -2.1842  -3.0319   4.5876   0.00    0.0
2019/01/19 00:40:30.000   47.480878473   19.056573628   163.7530   5  12   4.3765   3.5153   7.5297  -2.1824  -3.0305   4.5763   0.00    0.0
2019/01/19 00:41:00.000   47.480879292   19.056576031   163.5058   5  12   4.3691   3.5158   7.5183  -2.1804  -3.0287   4.5645   0.00    0.0
2019/01/19 00:41:30.000   47.480879213   19.056576249   163.1109   5  12   4.3616   3.5162   7.5063  -2.1782  -3.0265   4.5522   0.00    0.0
2019/01/19 00:42:00.000   47.480877145   19.056576553   162.5344   5  12   4.3539   3.5165   7.4938  -2.1757  -3.0240   4.5394   0.00    0.0
2019/01/19 00:42:30.000   47.480875555   19.056575256   162.1128   5  12   4.3460   3.5167   7.4807  -2.1730  -3.0211   4.5261   0.00    0.0
2019/01/19 00:43:00.000   47.480874753   19.056572558   162.0431   5  12   4.3379   3.5169   7.4671  -2.1701  -3.0179   4.5124   0.00    0.0
2019/01/19 00:43:30.000   47.480874551   19.056571506   162.0449   5  12   4.3296   3.5170   7.4530  -2.1670  -3.0144   4.4982   0.00    0.0
2019/01/19 00:44:00.000   47.480874750   19.056569602   162.2500   5  12   4.3213   3.5170   7.4384  -2.1636  -3.0105   4.4836   0.00    0.0
2019/01/19 00:44:30.000   47.480874858   19.056569232   162.2833   5  12   4.3127   3.5170   7.4232  -2.1601  -3.0063   4.4686   0.00    0.0
2019/01/19 00:45:00.000   47.480873474   19.056570636   162.1379   5  12   4.3040   3.5169   7.4076  -2.1564  -3.0018   4.4531   0.00    0.0
2019/01/19 00:45:30.000   47.480872748   19.056572628   162.0393   5  12   4.2952   3.5167   7.3915  -2.1524  -2.9970   4.4373   0.00    0.0
2019/01/19 00:46:00.000   47.480872952   19.056572598   162.0524   5  12   4.2862   3.5164   7.3750  -2.1483  -2.9919   4.4211   0.00    0.0
2019/01/19 00:46:30.000   47.480872557   19.056573583   162.0262   5  12   4.2771   3.5161   7.3580  -2.1440  -2.9865   4.4045   0.00    0.0
2019/01/19 00:47:00.000   47.480872065   19.056572982   162.2604   5  12   4.2679   3.5157   7.3405  -2.1395  -2.9808   4.3875   0.00    0.0
2019/01/19 00:47:30.000   47.480866102   19.056586147   163.2515   5  11   4.3177   3.7554   7.4204  -2.3447  -2.6951   4.2714   0.00    0.0
2019/01/19 00:48:00.000   47.480869530   19.056573619   162.4731   5  12   4.2492   3.5147   7.3044  -2.1299  -2.9687   4.3526   0.00    0.0
2019/01/19 00:48:30.000   47.480869861   19.056571057   162.5825   5  12   4.2396   3.5142   7.2858  -2.1249  -2.9622   4.3346   0.00    0.0
2019/01/19 00:49:00.000   47.480869397   19.056572362   162.6697   5  12   4.2300   3.5135   7.2668  -2.1197  -2.9555   4.3163   0.00    0.0
2019/01/19 00:49:30.000   47.480869848   19.056574737   162.6670   5  12   4.2203   3.5129   7.2474  -2.1144  -2.9485   4.2978   0.00    0.0
2019/01/19 00:50:00.000   47.480869563   19.056574863   162.4536   5  12   4.2105   3.5121   7.2277  -2.1089  -2.9414   4.2789   0.00    0.0
2019/01/19 00:50:30.000   47.480866490   19.056583991   163.1191   5  11   4.2531   3.7562   7.3191  -2.3047  -2.6289   4.1591   0.00    0.0
2019/01/19 00:51:00.000   47.480865691   19.056584230   163.2487   5  11   4.2421   3.7561   7.3010  -2.2977  -2.6170   4.1394   0.00    0.0
2019/01/19 00:51:30.000   47.480864337   19.056584896   163.5190   5  11   4.2312   3.7561   7.2827  -2.2905  -2.6048   4.1195   0.00    0.0
2019/01/19 00:52:00.000   47.480865176   19.056576233   162.7698   5  12   4.1706   3.5087   7.1457  -2.0855  -2.9106   4.2007   0.00    0.0
2019/01/19 00:52:30.000   47.480962174   19.056498897   180.6498   5  13   3.5065   3.3057   6.1219  -1.3027  -2.0369   3.0523   0.00    0.0
2019/01/19 00:53:00.000   47.480983636   19.056481380   184.9294   5  13   3.2521   3.2336   5.7382  -0.8940  -1.6419   2.5517   0.00    0.0
2019/01/19 00:53:30.000   47.480979691   19.056489480   185.2174   5  12   3.2329   3.4777   5.7961  -1.1579  -0.6741   2.2147   0.00    0.0
2019/01/19 00:54:00.000   47.480974072   19.056494097   184.2723   5  12   3.1969   3.4693   5.7481  -1.1031  -0.5078   2.1305   0.00    0.0
2019/01/19 00:54:30.000   47.480967668   19.056498493   182.8606   5  12   3.1754   3.4647   5.7213  -1.0689  -0.3771   2.0798   0.00    0.0
2019/01/19 00:55:00.000   47.480963721   19.056492587   181.2533   5  13   3.1078   3.1929   5.5268  -0.5653  -1.3987   2.2364   0.00    0.0
2019/01/19 00:55:30.000   47.480955782   19.056498095   180.9363   5  13   3.0982   3.1899   5.5134  -0.5367  -1.3841   2.2134   0.00    0.0
2019/01/19 00:56:00.000   47.480947910   19.056505887   180.9098   5  12   3.1427   3.4589   5.6861  -1.0130   0.1772   2.0026   0.00    0.0
2019/01/19 00:56:30.000   47.480941129   19.056508356   180.3684   5  12   3.1364   3.4581   5.6808  -1.0012   0.2534   1.9878   0.00    0.0
2019/01/19 00:57:00.000   47.480934089   19.056511319   179.3930   5  12   3.1313   3.4576   5.6770  -0.9912   0.3013   1.9756   0.00    0.0
2019/01/19 00:57:30.000   47.480928252   19.056514738   178.3462   5  12   3.1270   3.4573   5.6742  -0.9825   0.3360   1.9653   0.00    0.0
2019/01/19 00:58:00.000   47.480953776   19.056475739   171.6537   5  11   3.4124   3.6680   6.0777  -1.6230   1.6754   0.9097   0.00    0.0
2019/01/19 00:58:30.000   47.480947403   19.056478083   170.9955   5  11   3.4086   3.6704   6.0785  -1.6210   1.6871   0.8906   0.00    0.0
2019/01/19 00:59:00.000   47.480941458   19.056480122   170.4895   5  11   3.4053   3.6729   6.0796  -1.6194   1.6982   0.8726   0.00    0.0
2019/01/19 00:59:30.000   47.480936515   19.056483695   170.0987   5  11   3.4024   3.6755   6.0812  -1.6181   1.7086   0.8551   0.00    0.0
2019/01/19 01:00:00.000   47.480931868   19.056487741   170.0901   5  11   3.3989   3.5963   6.0447  -1.5982   1.5584   0.8689   0.00    0.0
2019/01/19 01:00:30.000   47.480926477   19.056490748   170.1059   5  11   3.3967   3.5987   6.0474  -1.5968   1.5697   0.8524   0.00    0.0
2019/01/19 01:01:00.000   47.480920352   19.056494728   169.6342   5  11   3.3948   3.6011   6.0503  -1.5956   1.5807   0.8351   0.00    0.0
2019/01/19 01:01:30.000   47.480914519   19.056497603   169.3430   5  11   3.3933   3.6035   6.0535  -1.5946   1.5914   0.8166   0.00    0.0
2019/01/19 01:02:00.000   47.480909322   19.056500289   169.4831   5  11   3.3922   3.6060   6.0571  -1.5938   1.6018   0.7963   0.00    0.0
2019/01/19 01:02:30.000   47.480904537   19.056501933   169.8034   5  11   3.3915   3.6085   6.0612  -1.5931   1.6122   0.7734   0.00    0.0
2019/01/19 01:03:00.000   47.480899912   19.056504545   170.2388   5  11   3.3914   3.6110   6.0658  -1.5926   1.6224   0.7469   0.00    0.0
2019/01/19 01:03:30.000   47.480894234   19.056509733   170.6632   5  11   3.3920   3.6135   6.0713  -1.5923   1.6327   0.7153   0.00    0.0
2019/01/19 01:04:00.000   47.480889262   19.056512943   171.1217   5  11   3.3934   3.6161   6.0778  -1.5923   1.6430   0.6761   0.00    0.0
2019/01/19 01:04:30.000   47.480882994   19.056516156   171.6310   5  11   3.3959   3.6187   6.0857  -1.5927   1.6536   0.6256   0.00    0.0
2019/01/19 01:05:00.000   47.480877485   19.056517865   171.9008   5  11   3.4000   3.6213   6.0958  -1.5935   1.6647   0.5564   0.00    0.0
2019/01/19 01:05:30.000   47.480873439   19.056517804   172.0799   5  11   3.4062   3.6240   6.1090  -1.5949   1.6765   0.4515   0.00    0.0
2019/01/19 01:06:00.000   47.480871032   19.056516480   172.2325   5  11   3.4157   3.6267   6.1270  -1.5974   1.6896   0.2472   0.00    0.0
2019/01/19 01:06:30.000   47.480868556   19.056516637   172.2515   5  11   3.4307   3.6295   6.1533  -1.6014   1.7050  -0.3789   0.00    0.0
2019/01/19 01:07:00.000   47.480868447   19.056518698   172.0010   5  11   3.4558   3.6325   6.1948  -1.6085   1.7248  -0.6806   0.00    0.0
2019/01/19 01:07:30.000   47.480871744   19.056520003   170.9895   5  11   3.5023   3.6359   6.2694  -1.6221   1.7543  -1.0173   0.00    0.0
2019/01/19 01:08:00.000   47.480972963   19.056503147   151.6595   5  10   4.0360   3.6483   7.1004  -1.7799   1.9993  -2.7827   0.00    0.0
2019/01/19 01:08:30.000   47.480972206   19.056504183   150.9215   5  10   4.0344   3.6519   7.1064  -1.7868   2.0176  -2.7895   0.00    0.0
2019/01/19 01:09:00.000   47.480972935   19.056504368   150.4848   5  10   4.0327   3.6554   7.1122  -1.7937   2.0357  -2.7962   0.00    0.0
2019/01/19 01:09:30.000   47.480973197   19.056505060   150.1015   5  10   4.0311   3.6590   7.1177  -1.8005   2.0535  -2.8026   0.00    0.0
2019/01/19 01:10:00.000   47.480972705   19.056506389   149.8296   5  10   4.0294   3.6627   7.1229  -1.8073   2.0711  -2.8089   0.00    0.0
2019/01/19 01:10:30.000   47.480971677   19.056508905   149.6026   5  10   4.0278   3.6663   7.1277  -1.8140   2.0885  -2.8150   0.00    0.0
2019/01/19 01:11:00.000   47.480968602   19.056513609   149.5199   5  10   4.0261   3.6700   7.1323  -1.8207   2.1056  -2.8209   0.00    0.0
2019/01/19 01:11:30.000   47.480937428   19.056573735   157.9686   5  11   3.7888   3.1585   6.1996  -0.8904  -1.4587  -1.7869   0.00    0.0
2019/01/19 01:12:00.000   47.480936341   19.056573173   157.7941   5  11   3.7853   3.1578   6.2054  -0.8923  -1.4432  -1.7918   0.00    0.0
2019/01/19 01:12:30.000   47.480934660   19.056572969   157.3004   5  11   3.7818   3.1572   6.2111  -0.8943  -1.4273  -1.7967   0.00    0.0
2019/01/19 01:13:00.000   47.480933690   19.056571317   157.0761   5  11   3.7784   3.1566   6.2167  -0.8964  -1.4109  -1.8017   0.00    0.0
2019/01/19 01:13:30.000   47.480935095   19.056569790   156.8147   5  11   3.7750   3.1561   6.2222  -0.8986  -1.3940  -1.8067   0.00    0.0
2019/01/19 01:14:00.000   47.480936629   19.056566659   156.5181   5  11   3.7717   3.1557   6.2276  -0.9008  -1.3767  -1.8118   0.00    0.0
2019/01/19 01:14:30.000   47.480939298   19.056562913   156.0336   5  11   3.7684   3.1554   6.2329  -0.9031  -1.3589  -1.8168   0.00    0.0
2019/01/19 01:15:00.000   47.480941705   19.056559937   155.5090   5  11   3.7650   3.1551   6.2380  -0.9054  -1.3406  -1.8218   0.00    0.0
2019/01/19 01:15:30.000   47.480942449   19.056559793   155.1857   5  11   3.7618   3.1548   6.2429  -0.9078  -1.3218  -1.8268   0.00    0.0
2019/01/19 01:16:00.000   47.480942655   19.056560599   154.9020   5  11   3.7585   3.1546   6.2477  -0.9103  -1.3025  -1.8318   0.00    0.0
2019/01/19 01:16:30.000   47.480943462   19.056561305   154.5872   5  11   3.7553   3.1545   6.2524  -0.9127  -1.2828  -1.8368   0.00    0.0
2019/01/19 01:17:00.000   47.480943405   19.056561003   154.3971   5  11   3.7520   3.1544   6.2568  -0.9152  -1.2625  -1.8417   0.00    0.0
2019/01/19 01:17:30.000   47.480944644   19.056561204   154.0948   5  11   3.7488   3.1544   6.2611  -0.9177  -1.2417  -1.8466   0.00    0.0
2019/01/19 01:18:00.000   47.480944867   19.056559789   153.8486   5  11   3.7457   3.1544   6.2652  -0.9203  -1.2204  -1.8515   0.00    0.0
2019/01/19 01:18:30.000   47.480945587   19.056558236   153.4915   5  11   3.7425   3.1545   6.2692  -0.9228  -1.1985  -1.8563   0.00    0.0
2019/01/19 01:19:00.000   47.480945503   19.056557814   152.9594   5  11   3.7393   3.1546   6.2729  -0.9254  -1.1760  -1.8610   0.00    0.0
2019/01/19 01:19:30.000   47.480944939   19.056556320   152.7039   5  11   3.7362   3.1548   6.2764  -0.9280  -1.1528  -1.8657   0.00    0.0
2019/01/19 01:20:00.000   47.480944103   19.056555106   152.7824   5  11   3.7331   3.1550   6.2798  -0.9306  -1.1291  -1.8704   0.00    0.0
2019/01/19 01:20:30.000   47.480942547   19.056553775   152.8367   5  11   3.7300   3.1553   6.2829  -0.9332  -1.1046  -1.8750   0.00    0.0
2019/01/19 01:21:00.000   47.480942023   19.056552082   152.9001   5  11   3.7269   3.1556   6.2858  -0.9359  -1.0795  -1.8795   0.00    0.0
2019/01/19 01:21:30.000   47.480941584   19.056549789   152.9762   5  11   3.7238   3.1559   6.2886  -0.9385  -1.0536  -1.8839   0.00    0.0
2019/01/19 01:22:00.000   47.480941628   19.056546444   152.6838   5  11   3.7208   3.1564   6.2911  -0.9412  -1.0269  -1.8883   0.00    0.0
2019/01/19 01:22:30.000   47.480942376   19.056542265   152.3682   5  11   3.7177   3.1568   6.2934  -0.9439  -0.9993  -1.8926   0.00    0.0
2019/01/19 01:23:00.000   47.480942422   19.056540733   152.2390   5  11   3.7147   3.1573   6.2955  -0.9465  -0.9707  -1.8968   0.00    0.0
2019/01/19 01:23:30.000   47.480942426   19.056539387   152.2265   5  11   3.7117   3.1579   6.2973  -0.9492  -0.9412  -1.9010   0.00    0.0
2019/01/19 01:24:00.000   47.480942875   19.056540289   152.1567   5  11   3.7087   3.1585   6.2990  -0.9519  -0.9106  -1.9050   0.00    0.0
2019/01/19 01:24:30.000   47.480944318   19.056541741   152.0004   5  11   3.7057   3.1592   6.3004  -0.9546  -0.8787  -1.9090   0.00    0.0
2019/01/19 01:25:00.000   47.480945386   19.056543620   151.7683   5  11   3.7028   3.1599   6.3016  -0.9573  -0.8456  -1.9129   0.00    0.0
2019/01/19 01:25:30.000   47.480947366   19.056544430   151.2141   5  11   3.6998   3.1606   6.3026  -0.9600  -0.8109  -1.9167   0.00    0.0
2019/01/19 01:26:00.000   47.480980220   19.056521265   156.8795   5  12   3.6211   3.1400   6.1775  -0.8084  -0.3739  -2.1496   0.00    0.0
2019/01/19 01:26:30.000   47.481014167   19.056494735   162.4405   5  12   3.5296   3.1165   6.0351  -0.5896   0.6591  -2.3845   0.00    0.0
2019/01/19 01:27:00.000   47.481016623   19.056491424   163.1030   5  12   3.5030   3.1112   6.0019  -0.5224   0.7858  -2.4410   0.00    0.0
2019/01/19 01:27:30.000   47.481014990   19.056492260   162.9304   5  12   3.4891   3.1094   5.9898  -0.4923   0.8518  -2.4654   0.00    0.0
2019/01/19 01:28:00.000   47.481012301   19.056494539   162.5599   5  12   3.4798   3.1090   5.9853  -0.4774   0.8981  -2.4784   0.00    0.0
2019/01/19 01:28:30.000   47.481008541   19.056497634   162.2812   5  12   3.4728   3.1092   5.9843  -0.4702   0.9353  -2.4859   0.00    0.0
2019/01/19 01:29:00.000   47.481005698   19.056500292   161.8490   5  12   3.4669   3.1098   5.9851  -0.4673   0.9674  -2.4904   0.00    0.0
2019/01/19 01:29:30.000   47.481003721   19.056501237   161.2213   5  12   3.4619   3.1106   5.9870  -0.4671   0.9964  -2.4929   0.00    0.0
2019/01/19 01:30:00.000   47.481001284   19.056503136   160.6864   5  12   3.4573   3.1117   5.9894  -0.4687   1.0231  -2.4942   0.00    0.0
2019/01/19 01:30:30.000   47.480999177   19.056506300   160.0275   5  12   3.4531   3.1128   5.9922  -0.4714   1.0483  -2.4945   0.00    0.0
2019/01/19 01:31:00.000   47.480997211   19.056507138   159.2500   5  12   3.4491   3.1141   5.9952  -0.4749   1.0722  -2.4941   0.00    0.0
2019/01/19 01:31:30.000   47.480994113   19.056507484   158.6821   5  12   3.4453   3.1154   5.9983  -0.4790   1.0951  -2.4932   0.00    0.0
2019/01/19 01:32:00.000   47.480992177   19.056508051   158.2170   5  12   3.4416   3.1169   6.0013  -0.4835   1.1173  -2.4918   0.00    0.0
2019/01/19 01:32:30.000   47.480991449   19.056508867   157.8638   5  12   3.4381   3.1184   6.0043  -0.4883   1.1387  -2.4901   0.00    0.0
2019/01/19 01:33:00.000   47.480989100   19.056510617   157.6957   5  12   3.4346   3.1199   6.0072  -0.4933   1.1595  -2.4879   0.00    0.0
2019/01/19 01:33:30.000   47.480986221   19.056511504   157.3134   5  12   3.4313   3.1216   6.0100  -0.4983   1.1797  -2.4855   0.00    0.0
2019/01/19 01:34:00.000   47.480984146   19.056511215   156.9703   5  12   3.4280   3.1232   6.0126  -0.5035   1.1995  -2.4829   0.00    0.0
2019/01/19 01:34:30.000   47.480982157   19.056510511   156.6761   5  12   3.4247   3.1250   6.0151  -0.5086   1.2188  -2.4799   0.00    0.0
2019/01/19 01:35:00.000   47.480980069   19.056510076   156.6309   5  12   3.4215   3.1268   6.0174  -0.5138   1.2378  -2.4768   0.00    0.0
2019/01/19 01:35:30.000   47.480979048   19.056510139   156.3540   5  12   3.4184   3.1286   6.0195  -0.5190   1.2563  -2.4734   0.00    0.0
2019/01/19 01:36:00.000   47.480977971   19.056512533   156.1226   5  12   3.4153   3.1305   6.0214  -0.5241   1.2745  -2.4698   0.00    0.0
2019/01/19 01:36:30.000   47.480975785   19.056514956   156.1515   5  12   3.4122   3.1324   6.0231  -0.5292   1.2923  -2.4661   0.00    0.0
2019/01/19 01:37:00.000   47.480973768   19.056517950   156.2537   5  12   3.4092   3.1344   6.0245  -0.5342   1.3099  -2.4621   0.00    0.0
2019/01/19 01:37:30.000   47.480972753   19.056519850   156.2615   5  12   3.4062   3.1364   6.0258  -0.5392   1.3271  -2.4580   0.00    0.0
2019/01/19 01:38:00.000   47.480971531   19.056520215   156.1904   5  12   3.4032   3.1385   6.0268  -0.5441   1.3440  -2.4537   0.00    0.0
2019/01/19 01:38:30.000   47.480970407   19.056519891   155.9771   5  12   3.4002   3.1406   6.0276  -0.5488   1.3607  -2.4492   0.00    0.0
2019/01/19 01:39:00.000   47.480970283   19.056520156   155.8975   5  12   3.3973   3.1428   6.0282  -0.5536   1.3771  -2.4445   0.00    0.0
2019/01/19 01:39:30.000   47.480958989   19.056568438   161.4527   5  13   3.3591   2.8214   5.6192   0.6065  -1.0455  -2.2101   0.00    0.0
2019/01/19 01:40:00.000   47.480960250   19.056561641   160.6105   5  13   3.3561   2.8210   5.6211   0.6051  -1.0271  -2.2049   0.00    0.0
2019/01/19 01:40:30.000   47.480959600   19.056558236   160.2519   5  13   3.3533   2.8207   5.6229   0.6037  -1.0081  -2.1996   0.00    0.0
2019/01/19 01:41:00.000   47.480958282   19.056555349   159.9240   5  13   3.3504   2.8205   5.6246   0.6022  -0.9885  -2.1941   0.00    0.0
2019/01/19 01:41:30.000   47.480957884   19.056552855   159.8280   5  13   3.3476   2.8203   5.6261   0.6007  -0.9682  -2.1886   0.00    0.0
2019/01/19 01:42:00.000   47.480957348   19.056550300   159.7312   5  13   3.3449   2.8202   5.6275   0.5991  -0.9474  -2.1829   0.00    0.0
2019/01/19 01:42:30.000   47.480958321   19.056548017   159.7012   5  13   3.3422   2.8202   5.6287   0.5976  -0.9258  -2.1771   0.00    0.0
2019/01/19 01:43:00.000   47.480959334   19.056546942   159.7582   5  13   3.3395   2.8202   5.6298   0.5961  -0.9036  -2.1712   0.00    0.0
2019/01/19 01:43:30.000   47.480960724   19.056545676   159.7141   5  13   3.3370   2.8204   5.6308   0.5946  -0.8806  -2.1651   0.00    0.0
2019/01/19 01:44:00.000   47.480960814   19.056547327   159.7211   5  13   3.3344   2.8205   5.6316   0.5931  -0.8568  -2.1589   0.00    0.0
2019/01/19 01:44:30.000   47.480962125   19.056547373   159.6770   5  13   3.3320   2.8208   5.6322   0.5917  -0.8322  -2.1525   0.00    0.0
2019/01/19 01:45:00.000   47.480963195   19.056546280   159.6902   5  13   3.3296   2.8211   5.6327   0.5903  -0.8066  -2.1460   0.00    0.0
2019/01/19 01:45:30.000   47.480963679   19.056545550   159.6653   5  13   3.3273   2.8214   5.6331   0.5889  -0.7800  -2.1392   0.00    0.0
2019/01/19 01:46:00.000   47.480965661   19.056543944   160.0262   5  13   3.3251   2.8218   5.6333   0.5876  -0.7523  -2.1323   0.00    0.0
2019/01/19 01:46:30.000   47.480967247   19.056541991   160.3935   5  13   3.3230   2.8223   5.6335   0.5864  -0.7234  -2.1252   0.00    0.0
2019/01/19 01:47:00.000   47.480967638   19.056541856   160.9056   5  13   3.3210   2.8228   5.6335   0.5854  -0.6931  -2.1178   0.00    0.0
2019/01/19 01:47:30.000   47.480968351   19.056540608   161.3894   5  13   3.3192   2.8234   5.6334   0.5844  -0.6612  -2.1101   0.00    0.0
2019/01/19 01:48:00.000   47.480969793   19.056538960   161.8495   5  13   3.3175   2.8240   5.6333   0.5836  -0.6274  -2.1021   0.00    0.0
2019/01/19 01:48:30.000   47.480971649   19.056538063   162.2889   5  13   3.3160   2.8248   5.6332   0.5830  -0.5915  -2.0936   0.00    0.0
2019/01/19 01:49:00.000   47.481005368   19.056591140   170.6855   5  14   3.2586   2.7467   5.4772  -0.2520  -1.0852  -2.2686   0.00    0.0
2019/01/19 01:49:30.000   47.481005213   19.056588541   170.9048   5  14   3.2531   2.7409   5.4677  -0.3105  -1.0934  -2.2721   0.00    0.0
2019/01/19 01:50:00.000   47.481005627   19.056583426   170.9556   5  14   3.2497   2.7375   5.4632  -0.3428  -1.0895  -2.2697   0.00    0.0
2019/01/19 01:50:30.000   47.481005938   19.056578533   170.9537   5  14   3.2475   2.7352   5.4611  -0.3650  -1.0800  -2.2642   0.00    0.0
2019/01/19 01:51:00.000   47.481005992   19.056573276   171.0305   5  14   3.2464   2.7335   5.4606  -0.3821  -1.0674  -2.2563   0.00    0.0
2019/01/19 01:51:30.000   47.481006170   19.056568329   171.2602   5  14   3.2465   2.7322   5.4614  -0.3963  -1.0528  -2.2459   0.00    0.0
2019/01/19 01:52:00.000   47.481004800   19.056564474   171.3791   5  14   3.2485   2.7311   5.4640  -0.4088  -1.0368  -2.2321   0.00    0.0
2019/01/19 01:52:30.000   47.481002807   19.056561402   171.4465   5  14   3.2538   2.7303   5.4694  -0.4202  -1.0199  -2.2123   0.00    0.0
2019/01/19 01:53:00.000   47.480998355   19.056558765   171.3192   5  14   3.2663   2.7296   5.4812  -0.4314  -1.0025  -2.1792   0.00    0.0
2019/01/19 01:53:30.000   47.480985494   19.056555078   170.2430   5  14   3.3026   2.7291   5.5139  -0.4449  -0.9860  -2.1007   0.00    0.0
2019/01/19 01:54:00.000   47.480934349   19.056550861   163.6989   5  13   3.4316   2.7287   5.6311  -0.4693  -0.9758  -1.8179   0.00    0.0
2019/01/19 01:54:30.000   47.480932035   19.056545921   163.3301   5  13   3.4287   2.7284   5.6356  -0.4752  -0.9550  -1.8037   0.00    0.0
2019/01/19 01:55:00.000   47.480875605   19.056553585   170.4182   5  14   3.0569   2.7156   5.3121   0.4176  -1.1694  -0.5194   0.00    0.0
2019/01/19 01:55:30.000   47.480874072   19.056549064   169.7223   5  14   3.0525   2.7148   5.3168   0.4245  -1.1567  -0.4596   0.00    0.0
2019/01/19 01:56:00.000   47.480873467   19.056545583   169.0800   5  14   3.0493   2.7142   5.3223   0.4309  -1.1431  -0.3997   0.00    0.0
2019/01/19 01:56:30.000   47.480871806   19.056543172   168.6002   5  14   3.0468   2.7136   5.3283   0.4370  -1.1289  -0.3365   0.00    0.0
2019/01/19 01:57:00.000   47.480871505   19.056540901   168.3441   5  14   3.0450   2.7131   5.3348   0.4430  -1.1140  -0.2653   0.00    0.0
2019/01/19 01:57:30.000   47.480871721   19.056537576   168.2446   5  14   3.0437   2.7127   5.3416   0.4491  -1.0987  -0.1746   0.00    0.0
2019/01/19 01:58:00.000   47.480872111   19.056534285   168.3360   5  14   3.0428   2.7124   5.3487   0.4553  -1.0829   0.0836   0.00    0.0
2019/01/19 01:58:30.000   47.480872930   19.056530119   168.5533   5  14   3.0423   2.7121   5.3559   0.4618  -1.0667   0.2055   0.00    0.0
2019/01/19 01:59:00.000   47.480873811   19.056527804   168.5013   5  14   3.0422   2.7120   5.3633   0.4687  -1.0502   0.2745   0.00    0.0
2019/01/19 01:59:30.000   47.480873027   19.056525928   168.5051   5  14   3.0424   2.7119   5.3710   0.4761  -1.0334   0.3259   0.00    0.0
2019/01/19 02:00:00.000   47.480875358   19.056525603   168.0389   5  14   3.0787   2.7223   5.4160   0.5874  -1.0879  -0.4020   0.00    0.0
2019/01/19 02:00:30.000   47.480873681   19.056521720   168.0405   5  14   3.0793   2.7223   5.4241   0.5931  -1.0714  -0.3669   0.00    0.0
2019/01/19 02:01:00.000   47.480871690   19.056518470   167.9683   5  14   3.0803   2.7223   5.4324   0.5996  -1.0550  -0.3328   0.00    0.0
2019/01/19 02:01:30.000   47.480868867   19.056514323   167.9118   5  14   3.0819   2.7226   5.4412   0.6070  -1.0389  -0.3013   0.00    0.0
2019/01/19 02:02:00.000   47.480866908   19.056510473   167.7326   5  14   3.0841   2.7230   5.4504   0.6157  -1.0235  -0.2757   0.00    0.0
2019/01/19 02:02:30.000   47.480864169   19.056506604   167.8431   5  14   3.0871   2.7236   5.4605   0.6262  -1.0092  -0.2617   0.00    0.0
2019/01/19 02:03:00.000   47.480861430   19.056501167   168.0443   5  14   3.0915   2.7246   5.4719   0.6393  -0.9969  -0.2676   0.00    0.0
2019/01/19 02:03:30.000   47.480858871   19.056495291   168.3226   5  14   3.0977   2.7262   5.4853   0.6563  -0.9883  -0.3027   0.00    0.0
2019/01/19 02:04:00.000   47.480856892   19.056490300   168.7426   5  14   3.1072   2.7285   5.5024   0.6799  -0.9863  -0.3751   0.00    0.0
2019/01/19 02:04:30.000   47.480853886   19.056489074   169.1271   5  14   3.1230   2.7326   5.5268   0.7159  -0.9978  -0.4971   0.00    0.0
2019/01/19 02:05:00.000   47.480855244   19.056490561   169.1425   5  14   3.1541   2.7406   5.5692   0.7798  -1.0411  -0.7021   0.00    0.0
2019/01/19 02:05:30.000   47.480924948   19.056539249   158.2477   5  13   3.4852   2.8299   5.9745   1.2872  -1.5979  -1.9087   0.00    0.0
2019/01/19 02:06:00.000   47.480926980   19.056539426   158.1745   5  13   3.4845   2.8284   5.9837   1.2843  -1.5815  -1.9028   0.00    0.0
2019/01/19 02:06:30.000   47.480929281   19.056538025   157.8095   5  13   3.4839   2.8269   5.9927   1.2813  -1.5647  -1.8969   0.00    0.0
2019/01/19 02:07:00.000   47.480931142   19.056534863   157.2756   5  13   3.4833   2.8254   6.0015   1.2784  -1.5476  -1.8909   0.00    0.0
2019/01/19 02:07:30.000   47.480931788   19.056533980   156.6746   5  13   3.4827   2.8240   6.0101   1.2755  -1.5300  -1.8850   0.00    0.0
2019/01/19 02:08:00.000   47.480931325   19.056536138   156.3962   5  13   3.4823   2.8227   6.0186   1.2727  -1.5121  -1.8790   0.00    0.0
2019/01/19 02:08:30.000   47.480930102   19.056538231   156.3511   5  13   3.4818   2.8214   6.0269   1.2698  -1.4937  -1.8730   0.00    0.0
2019/01/19 02:09:00.000   47.480929611   19.056537880   156.4947   5  13   3.4814   2.8202   6.0349   1.2670  -1.4749  -1.8670   0.00    0.0
2019/01/19 02:09:30.000   47.480929067   19.056535435   156.5578   5  13   3.4811   2.8190   6.0428   1.2642  -1.4556  -1.8610   0.00    0.0
2019/01/19 02:10:00.000   47.480929508   19.056530046   156.3777   5  13   3.4808   2.8179   6.0505   1.2613  -1.4359  -1.8549   0.00    0.0
2019/01/19 02:10:30.000   47.480929824   19.056525259   156.2560   5  13   3.4805   2.8168   6.0580   1.2585  -1.4157  -1.8489   0.00    0.0
2019/01/19 02:11:00.000   47.480930459   19.056524358   156.1096   5  13   3.4803   2.8158   6.0653   1.2558  -1.3950  -1.8428   0.00    0.0
2019/01/19 02:11:30.000   47.480930627   19.056524523   156.0687   5  13   3.4801   2.8148   6.0724   1.2530  -1.3738  -1.8366   0.00    0.0
2019/01/19 02:12:00.000   47.480931019   19.056525017   156.2102   5  13   3.4799   2.8139   6.0793   1.2503  -1.3521  -1.8305   0.00    0.0
2019/01/19 02:12:30.000   47.480931505   19.056524061   156.4458   5  13   3.4798   2.8130   6.0859   1.2475  -1.3299  -1.8243   0.00    0.0
2019/01/19 02:13:00.000   47.480933044   19.056521069   156.4924   5  13   3.4797   2.8123   6.0923   1.2448  -1.3071  -1.8181   0.00    0.0
2019/01/19 02:13:30.000   47.480934970   19.056518380   156.3123   5  13   3.4796   2.8115   6.0985   1.2421  -1.2837  -1.8119   0.00    0.0
2019/01/19 02:14:00.000   47.480936206   19.056516297   156.1714   5  13   3.4796   2.8109   6.1045   1.2394  -1.2596  -1.8057   0.00    0.0
2019/01/19 02:14:30.000   47.480936731   19.056515385   156.0623   5  13   3.4796   2.8103   6.1103   1.2367  -1.2350  -1.7995   0.00    0.0
2019/01/19 02:15:00.000   47.480936288   19.056514701   156.1451   5  13   3.4797   2.8097   6.1158   1.2341  -1.2097  -1.7932   0.00    0.0
2019/01/19 02:15:30.000   47.480936953   19.056513930   156.1338   5  13   3.4797   2.8092   6.1211   1.2314  -1.1837  -1.7870   0.00    0.0
2019/01/19 02:16:00.000   47.480938164   19.056510618   156.0948   5  13   3.4798   2.8088   6.1262   1.2288  -1.1569  -1.7807   0.00    0.0
2019/01/19 02:16:30.000   47.480940262   19.056508389   155.9958   5  13   3.4800   2.8085   6.1311   1.2262  -1.1294  -1.7744   0.00    0.0
2019/01/19 02:17:00.000   47.480940209   19.056507251   156.2594   5  13   3.4801   2.8082   6.1357   1.2236  -1.1011  -1.7681   0.00    0.0
2019/01/19 02:17:30.000   47.480939713   19.056505894   156.6697   5  13   3.4803   2.8081   6.1401   1.2211  -1.0719  -1.7618   0.00    0.0
2019/01/19 02:18:00.000   47.480939494   19.056503940   156.8231   5  13   3.4806   2.8079   6.1443   1.2185  -1.0418  -1.7555   0.00    0.0
2019/01/19 02:18:30.000   47.480939449   19.056502553   156.9588   5  13   3.4808   2.8079   6.1482   1.2160  -1.0106  -1.7493   0.00    0.0
2019/01/19 02:19:00.000   47.480940373   19.056500338   157.0924   5  13   3.4811   2.8079   6.1519   1.2135  -0.9785  -1.7430   0.00    0.0
2019/01/19 02:19:30.000   47.480941034   19.056500233   157.4742   5  13   3.4815   2.8081   6.1555   1.2110  -0.9451  -1.7368   0.00    0.0
2019/01/19 02:20:00.000   47.480942335   19.056499202   157.8740   5  13   3.4818   2.8083   6.1588   1.2086  -0.9106  -1.7305   0.00    0.0
2019/01/19 02:20:30.000   47.480945368   19.056496540   158.1745   5  13   3.4822   2.8086   6.1619   1.2061  -0.8746  -1.7243   0.00    0.0
2019/01/19 02:21:00.000   47.480948048   19.056493181   158.8105   5  13   3.4826   2.8090   6.1648   1.2038  -0.8372  -1.7182   0.00    0.0
2019/01/19 02:21:30.000   47.480951412   19.056491503   159.0449   5  13   3.4831   2.8094   6.1676   1.2014  -0.7981  -1.7121   0.00    0.0
2019/01/19 02:22:00.000   47.480953428   19.056490675   159.6001   5  13   3.4836   2.8100   6.1701   1.1991  -0.7571  -1.7060   0.00    0.0
2019/01/19 02:22:30.000   47.480952513   19.056489398   160.6496   5  13   3.4841   2.8107   6.1725   1.1968  -0.7140  -1.7000   0.00    0.0
2019/01/19 02:23:00.000   47.480950456   19.056488809   161.8392   5  13   3.4847   2.8116   6.1748   1.1945  -0.6684  -1.6940   0.00    0.0
2019/01/19 02:23:30.000   47.480950808   19.056487074   162.7872   5  13   3.4853   2.8125   6.1769   1.1924  -0.6200  -1.6882   0.00    0.0
2019/01/19 02:24:00.000   47.480952064   19.056482878   163.2410   5  13   3.4859   2.8136   6.1790   1.1902  -0.5681  -1.6824   0.00    0.0
2019/01/19 02:24:30.000   47.480955319   19.056478704   163.2675   5  13   3.4866   2.8148   6.1809   1.1882  -0.5118  -1.6767   0.00    0.0
2019/01/19 02:25:00.000   47.480956989   19.056474073   163.4142   5  13   3.4873   2.8162   6.1829   1.1862  -0.4498  -1.6712   0.00    0.0
2019/01/19 02:25:30.000   47.480959080   19.056470423   163.5449   5  13   3.4881   2.8178   6.1849   1.1843  -0.3798  -1.6658   0.00    0.0
2019/01/19 02:26:00.000   47.480959886   19.056466082   163.9793   5  13   3.4888   2.8196   6.1871   1.1825  -0.2967  -1.6606   0.00    0.0
2019/01/19 02:26:30.000   47.480957699   19.056462342   165.0671   5  13   3.4897   2.8217   6.1894   1.1809  -0.1850  -1.6557   0.00    0.0
2019/01/19 02:27:00.000   47.480955709   19.056458043   166.2988   5  13   3.4906   2.8241   6.1921   1.1794   0.1280  -1.6510   0.00    0.0
2019/01/19 02:27:30.000   47.480954009   19.056454699   167.7313   5  13   3.4915   2.8269   6.1953   1.1782   0.2505  -1.6468   0.00    0.0
2019/01/19 02:28:00.000   47.480953731   19.056451910   169.1534   5  13   3.4926   2.8303   6.1994   1.1773   0.3216  -1.6430   0.00    0.0
2019/01/19 02:28:30.000   47.480955518   19.056447771   170.2336   5  13   3.4937   2.8343   6.2047   1.1768   0.3688  -1.6400   0.00    0.0
2019/01/19 02:29:00.000   47.480958708   19.056442765   170.9528   5  13   3.4949   2.8393   6.2119   1.1769   0.3960  -1.6379   0.00    0.0
2019/01/19 02:29:30.000   47.480961732   19.056436561   171.7489   5  13   3.4962   2.8458   6.2221   1.1780   0.3995  -1.6374   0.00    0.0
2019/01/19 02:30:00.000   47.480962105   19.056432037   172.9700   5  13   3.4977   2.8546   6.2376   1.1806   0.3640  -1.6394   0.00    0.0
2019/01/19 02:30:30.000   47.480961168   19.056429860   174.3054   5  13   3.4995   2.8676   6.2628   1.1859   0.2252  -1.6459   0.00    0.0
2019/01/19 02:31:00.000   47.480961783   19.056430911   175.4172   5  13   3.5019   2.8897   6.3088   1.1971  -0.3853  -1.6619   0.00    0.0
2019/01/19 02:31:30.000   47.480964704   19.056440256   175.1512   5  13   3.5059   2.9369   6.4139   1.2247  -0.8265  -1.7046   0.00    0.0
2019/01/19 02:32:00.000   47.480977675   19.056498583   166.0585   5  13   3.5189   3.1252   6.8514   1.3418  -1.7846  -1.8922   0.00    0.0
2019/01/19 02:32:30.000   47.480991040   19.056551651   156.8871   5  12   3.5292   3.2713   7.1995   1.4274  -2.2915  -2.0299   0.00    0.0
2019/01/19 02:33:00.000   47.480993227   19.056551140   156.9447   5  12   3.5296   3.2681   7.1995   1.4195  -2.2705  -2.0180   0.00    0.0
2019/01/19 02:33:30.000   47.480994817   19.056551755   157.2521   5  12   3.5301   3.2650   7.1992   1.4115  -2.2491  -2.0058   0.00    0.0
2019/01/19 02:34:00.000   47.480995648   19.056552873   157.7087   5  12   3.5306   3.2620   7.1986   1.4036  -2.2272  -1.9934   0.00    0.0
2019/01/19 02:34:30.000   47.480997244   19.056553501   158.5311   5  12   3.5313   3.2590   7.1979   1.3957  -2.2050  -1.9806   0.00    0.0
2019/01/19 02:35:00.000   47.480999950   19.056553263   159.1169   5  12   3.5321   3.2560   7.1969   1.3877  -2.1823  -1.9675   0.00    0.0
2019/01/19 02:35:30.000   47.481003844   19.056552591   159.8043   5  12   3.5330   3.2531   7.1957   1.3798  -2.1592  -1.9540   0.00    0.0
2019/01/19 02:36:00.000   47.481008103   19.056552440   160.5806   5  12   3.5341   3.2503   7.1945   1.3720  -2.1357  -1.9400   0.00    0.0
2019/01/19 02:36:30.000   47.481011529   19.056552981   161.5943   5  12   3.5353   3.2475   7.1933   1.3641  -2.1117  -1.9253   0.00    0.0
2019/01/19 02:37:00.000   47.481015163   19.056553742   162.4529   5  12   3.5367   3.2448   7.1922   1.3563  -2.0872  -1.9099   0.00    0.0
2019/01/19 02:37:30.000   47.481016940   19.056554680   163.5978   5  12   3.5384   3.2422   7.1913   1.3486  -2.0621  -1.8935   0.00    0.0
2019/01/19 02:38:00.000   47.481017876   19.056555896   164.7553   5  12   3.5404   3.2396   7.1907   1.3410  -2.0366  -1.8759   0.00    0.0
2019/01/19 02:38:30.000   47.481018974   19.056558070   165.7595   5  12   3.5428   3.2371   7.1909   1.3334  -2.0103  -1.8566   0.00    0.0
2019/01/19 02:39:00.000   47.481020958   19.056559325   166.3844   5  12   3.5456   3.2346   7.1920   1.3260  -1.9834  -1.8350   0.00    0.0
2019/01/19 02:39:30.000   47.481026756   19.056560749   167.4713   5  12   3.5491   3.2323   7.1947   1.3188  -1.9557  -1.8103   0.00    0.0
2019/01/19 02:40:00.000   47.481034127   19.056560604   168.9869   5  12   3.5535   3.2300   7.1997   1.3120  -1.9269  -1.7809   0.00    0.0
2019/01/19 02:40:30.000   47.481041317   19.056560406   171.0206   5  12   3.5593   3.2278   7.2086   1.3056  -1.8968  -1.7444   0.00    0.0
2019/01/19 02:41:00.000   47.480988303   19.056488900   189.0136   5  13   3.2843   3.0128   6.3715   0.2916   0.6672   1.3650   0.00    0.0
2019/01/19 02:41:30.000   47.480996743   19.056494661   190.4397   5  13   3.2982   3.0144   6.3981   0.3008   0.7413   1.4474   0.00    0.0
2019/01/19 02:42:00.000   47.481002582   19.056498881   191.2548   5  13   3.3223   3.0165   6.4461   0.3314   0.8235   1.5678   0.00    0.0
2019/01/19 02:42:30.000   47.481007197   19.056502983   191.6349   5  13   3.3712   3.0198   6.5471   0.4037   0.9338   1.7774   0.00    0.0
2019/01/19 02:43:00.000   47.481000109   19.056502546   188.9099   5  13   3.5196   3.0278   6.8596   0.5942   1.1584   2.2959   0.00    0.0
2019/01/19 02:43:30.000   47.480952682   19.056543987   146.2704   5  11   4.2560   3.2306   9.2483   1.5160  -1.0779   3.2847   0.00    0.0
2019/01/19 02:44:00.000   47.480911753   19.056478926   166.9624   5  12   4.1537   3.0627   8.2132   1.1420   1.8583   3.9129   0.00    0.0
2019/01/19 02:44:30.000   47.480952557   19.056542646   146.3507   5  11   4.2765   3.2287   9.3252   1.5184  -0.9014   3.3757   0.00    0.0
2019/01/19 02:45:00.000   47.481026675   19.056587354   170.6009   5  12   3.7895   3.1161   7.3906   0.7889  -2.3404   0.4214   0.00    0.0
2019/01/19 02:45:30.000   47.481021135   19.056583615   169.0925   5  12   3.7910   3.1120   7.3987   0.7656  -2.3267   0.5158   0.00    0.0
2019/01/19 02:46:00.000   47.481016803   19.056581358   167.8023   5  12   3.7930   3.1080   7.4082   0.7427  -2.3119   0.6024   0.00    0.0
2019/01/19 02:46:30.000   47.481014062   19.056580025   166.7423   5  12   3.7953   3.1041   7.4187   0.7198  -2.2963   0.6826   0.00    0.0
2019/01/19 02:47:00.000   47.480966478   19.056520011   179.7010   5  13   3.5727   2.8954   6.5643  -0.9706  -1.1583   2.2491   0.00    0.0
2019/01/19 02:47:30.000   47.480964928   19.056520813   178.8120   5  13   3.5766   2.8955   6.5788  -0.9787  -1.1416   2.2716   0.00    0.0
2019/01/19 02:48:00.000   47.480961484   19.056520982   178.2488   5  13   3.5806   2.8956   6.5937  -0.9862  -1.1240   2.2945   0.00    0.0
2019/01/19 02:48:30.000   47.480959523   19.056521218   177.7933   5  13   3.5850   2.8957   6.6091  -0.9933  -1.1055   2.3176   0.00    0.0
2019/01/19 02:49:00.000   47.480960424   19.056523319   176.7541   5  13   3.5895   2.8960   6.6246  -0.9999  -1.0860   2.3407   0.00    0.0
2019/01/19 02:49:30.000   47.481004889   19.056575918   162.9895   5  12   3.8149   3.0823   7.4914   0.5800  -2.1892   1.0737   0.00    0.0
2019/01/19 02:50:00.000   47.481005565   19.056573937   162.3553   5  12   3.8189   3.0790   7.5041   0.5554  -2.1694   1.1285   0.00    0.0
2019/01/19 02:50:30.000   47.480961699   19.056521756   174.6608   5  13   3.6040   2.8972   6.6722  -1.0176  -1.0221   2.4103   0.00    0.0
2019/01/19 02:51:00.000   47.480960994   19.056519693   174.0613   5  13   3.6091   2.8977   6.6882  -1.0229  -0.9989   2.4334   0.00    0.0
2019/01/19 02:51:30.000   47.480959959   19.056518260   173.4648   5  13   3.6143   2.8983   6.7041  -1.0279  -0.9746   2.4563   0.00    0.0
2019/01/19 02:52:00.000   47.480957986   19.056517600   172.7882   5  13   3.6196   2.8989   6.7201  -1.0326  -0.9492   2.4791   0.00    0.0
2019/01/19 02:52:30.000   47.480955046   19.056517418   172.1207   5  13   3.6250   2.8996   6.7359  -1.0370  -0.9225   2.5017   0.00    0.0
2019/01/19 02:53:00.000   47.480951718   19.056517864   171.3880   5  13   3.6305   2.9003   6.7517  -1.0413  -0.8947   2.5242   0.00    0.0
2019/01/19 02:53:30.000   47.480950041   19.056515548   170.5675   5  13   3.6361   2.9011   6.7673  -1.0453  -0.8654   2.5464   0.00    0.0
2019/01/19 02:54:00.000   47.480947889   19.056513776   169.8688   5  13   3.6418   2.9019   6.7828  -1.0490  -0.8345   2.5684   0.00    0.0
2019/01/19 02:54:30.000   47.480946257   19.056512244   169.1962   5  13   3.6475   2.9027   6.7982  -1.0526  -0.8020   2.5902   0.00    0.0
2019/01/19 02:55:00.000   47.480944357   19.056511519   168.5087   5  13   3.6533   2.9036   6.8134  -1.0559  -0.7675   2.6117   0.00    0.0
2019/01/19 02:55:30.000   47.480943242   19.056511531   168.0936   5  13   3.6591   2.9046   6.8283  -1.0591  -0.7309   2.6330   0.00    0.0
2019/01/19 02:56:00.000   47.480941045   19.056511368   167.4404   5  13   3.6650   2.9055   6.8431  -1.0621  -0.6917   2.6540   0.00    0.0
2019/01/19 02:56:30.000   47.480938907   19.056510448   166.5946   5  13   3.6710   2.9066   6.8576  -1.0648  -0.6496   2.6748   0.00    0.0
2019/01/19 02:57:00.000   47.480936797   19.056508632   165.4875   5  13   3.6769   2.9076   6.8718  -1.0674  -0.6039   2.6952   0.00    0.0
2019/01/19 02:57:30.000   47.480934398   19.056508024   164.9899   5  13   3.6830   2.9087   6.8858  -1.0698  -0.5538   2.7154   0.00    0.0
2019/01/19 02:58:00.000   47.480932864   19.056508530   164.7024   5  13   3.6890   2.9099   6.8996  -1.0721  -0.4979   2.7353   0.00    0.0
2019/01/19 02:58:30.000   47.480931382   19.056509082   164.3888   5  13   3.6951   2.9111   6.9130  -1.0741  -0.4340   2.7549   0.00    0.0
2019/01/19 02:59:00.000   47.480931307   19.056508325   164.0730   5  13   3.7012   2.9123   6.9261  -1.0760  -0.3580   2.7741   0.00    0.0
2019/01/19 02:59:30.000   47.480931265   19.056508838   163.8253   5  13   3.7073   2.9136   6.9389  -1.0777  -0.2593   2.7931   0.00    0.0
2019/01/19 03:00:00.000   47.480929575   19.056509503   163.0768   5  13   3.7134   2.9149   6.9514  -1.0793  -0.0747   2.8117   0.00    0.0
2019/01/19 03:00:30.000   47.480928981   19.056510624   162.7558   5  13   3.7196   2.9163   6.9635  -1.0807   0.2381   2.8300   0.00    0.0
2019/01/19 03:01:00.000   47.480929054   19.056511982   162.6261   5  13   3.7257   2.9177   6.9753  -1.0819   0.3459   2.8479   0.00    0.0
2019/01/19 03:01:30.000   47.480929320   19.056511584   162.7249   5  13   3.7319   2.9191   6.9867  -1.0830   0.4280   2.8655   0.00    0.0
2019/01/19 03:02:00.000   47.480929932   19.056510176   162.9010   5  13   3.7380   2.9206   6.9977  -1.0840   0.4974   2.8827   0.00    0.0
2019/01/19 03:02:30.000   47.480930121   19.056509469   163.0667   5  13   3.7441   2.9221   7.0084  -1.0848   0.5587   2.8996   0.00    0.0
2019/01/19 03:03:00.000   47.480929703   19.056509138   163.1790   5  13   3.7502   2.9237   7.0186  -1.0855   0.6144   2.9161   0.00    0.0
2019/01/19 03:03:30.000   47.480928762   19.056509243   163.1766   5  13   3.7563   2.9253   7.0284  -1.0860   0.6659   2.9322   0.00    0.0
2019/01/19 03:04:00.000   47.480928395   19.056507543   163.0270   5  13   3.7624   2.9269   7.0378  -1.0864   0.7140   2.9480   0.00    0.0
2019/01/19 03:04:30.000   47.480927400   19.056506449   162.7041   5  13   3.7685   2.9286   7.0468  -1.0866   0.7594   2.9634   0.00    0.0
2019/01/19 03:05:00.000   47.480926057   19.056505701   162.4432   5  13   3.7745   2.9304   7.0553  -1.0868   0.8025   2.9783   0.00    0.0
2019/01/19 03:05:30.000   47.480924613   19.056504235   162.2457   5  13   3.7805   2.9321   7.0634  -1.0868   0.8437   2.9929   0.00    0.0
2019/01/19 03:06:00.000   47.480924737   19.056502909   162.5102   5  13   3.7864   2.9339   7.0710  -1.0867   0.8831   3.0071   0.00    0.0
2019/01/19 03:06:30.000   47.480925999   19.056501752   162.8294   5  13   3.7923   2.9358   7.0781  -1.0864   0.9211   3.0208   0.00    0.0
2019/01/19 03:07:00.000   47.480927068   19.056501543   162.9629   5  13   3.7982   2.9377   7.0848  -1.0861   0.9578   3.0342   0.00    0.0
2019/01/19 03:07:30.000   47.480926792   19.056503894   162.8130   5  13   3.8040   2.9397   7.0910  -1.0857   0.9933   3.0471   0.00    0.0
2019/01/19 03:08:00.000   47.480925238   19.056504871   162.7292   5  13   3.8098   2.9416   7.0967  -1.0851   1.0277   3.0596   0.00    0.0
2019/01/19 03:08:30.000   47.480919858   19.056486662   165.2925   5  12   3.8362   3.2643   7.6034  -0.7841  -1.6449   2.8904   0.00    0.0
2019/01/19 03:09:00.000   47.480919589   19.056486554   165.1206   5  12   3.8406   3.2656   7.6179  -0.7933  -1.6345   2.9061   0.00    0.0
2019/01/19 03:09:30.000   47.480920275   19.056483774   164.9676   5  12   3.8451   3.2669   7.6318  -0.8023  -1.6237   2.9214   0.00    0.0
2019/01/19 03:10:00.000   47.480919610   19.056482467   164.8368   5  12   3.8495   3.2682   7.6453  -0.8110  -1.6127   2.9362   0.00    0.0
2019/01/19 03:10:30.000   47.480919086   19.056483353   164.5754   5  12   3.8539   3.2695   7.6582  -0.8195  -1.6013   2.9507   0.00    0.0
2019/01/19 03:11:00.000   47.480919309   19.056484129   164.3895   5  12   3.8582   3.2708   7.6706  -0.8277  -1.5895   2.9648   0.00    0.0
2019/01/19 03:11:30.000   47.480919802   19.056484281   164.4528   5  12   3.8626   3.2722   7.6824  -0.8357  -1.5774   2.9784   0.00    0.0
2019/01/19 03:12:00.000   47.480919471   19.056484672   164.2251   5  12   3.8668   3.2735   7.6937  -0.8435  -1.5649   2.9916   0.00    0.0
2019/01/19 03:12:30.000   47.480918607   19.056485361   163.9709   5  12   3.8711   3.2748   7.7044  -0.8511  -1.5521   3.0044   0.00    0.0
2019/01/19 03:13:00.000   47.480917107   19.056486166   163.8405   5  12   3.8752   3.2762   7.7146  -0.8585  -1.5389   3.0167   0.00    0.0
2019/01/19 03:13:30.000   47.480916214   19.056488274   163.7460   5  12   3.8794   3.2776   7.7241  -0.8657  -1.5254   3.0286   0.00    0.0
2019/01/19 03:14:00.000   47.480915543   19.056489470   163.9018   5  12   3.8834   3.2790   7.7331  -0.8726  -1.5114   3.0400   0.00    0.0
2019/01/19 03:14:30.000   47.480914953   19.056489747   163.8077   5  12   3.8875   3.2804   7.7414  -0.8794  -1.4971   3.0510   0.00    0.0
2019/01/19 03:15:00.000   47.480913931   19.056490303   163.6252   5  12   3.8914   3.2818   7.7492  -0.8861  -1.4824   3.0615   0.00    0.0
2019/01/19 03:15:30.000   47.480912550   19.056490228   163.3771   5  12   3.8953   3.2832   7.7563  -0.8925  -1.4673   3.0715   0.00    0.0
2019/01/19 03:16:00.000   47.480911650   19.056490494   163.1949   5  12   3.8991   3.2846   7.7627  -0.8987  -1.4518   3.0811   0.00    0.0
2019/01/19 03:16:30.000   47.480911293   19.056491031   162.7095   5  12   3.9029   3.2861   7.7686  -0.9048  -1.4359   3.0902   0.00    0.0
2019/01/19 03:17:00.000   47.480911843   19.056489657   162.2911   5  12   3.9066   3.2875   7.7738  -0.9108  -1.4196   3.0988   0.00    0.0
2019/01/19 03:17:30.000   47.480912170   19.056489284   162.0082   5  12   3.9102   3.2890   7.7783  -0.9165  -1.4029   3.1069   0.00    0.0
2019/01/19 03:18:00.000   47.480911477   19.056491235   161.7999   5  12   3.9137   3.2905   7.7822  -0.9222  -1.3857   3.1145   0.00    0.0
2019/01/19 03:18:30.000   47.480910543   19.056493134   161.8474   5  12   3.9172   3.2920   7.7855  -0.9276  -1.3681   3.1216   0.00    0.0
2019/01/19 03:19:00.000   47.480909735   19.056494170   162.0216   5  12   3.9206   3.2935   7.7881  -0.9330  -1.3501   3.1283   0.00    0.0
2019/01/19 03:19:30.000   47.480910732   19.056494477   162.2417   5  12   3.9239   3.2950   7.7900  -0.9382  -1.3317   3.1344   0.00    0.0
2019/01/19 03:20:00.000   47.480910682   19.056493920   162.5346   5  12   3.9271   3.2965   7.7913  -0.9432  -1.3128   3.1400   0.00    0.0
2019/01/19 03:20:30.000   47.480909963   19.056493786   162.8580   5  12   3.9302   3.2981   7.7919  -0.9482  -1.2934   3.1451   0.00    0.0
2019/01/19 03:21:00.000   47.480908758   19.056494067   162.7865   5  12   3.9332   3.2996   7.7918  -0.9530  -1.2736   3.1497   0.00    0.0
2019/01/19 03:21:30.000   47.480907153   19.056494618   162.6956   5  12   3.9362   3.3012   7.7911  -0.9577  -1.2533   3.1538   0.00    0.0
2019/01/19 03:22:00.000   47.480904456   19.056493490   163.1501   5  12   3.9391   3.3028   7.7897  -0.9622  -1.2325   3.1574   0.00    0.0
2019/01/19 03:22:30.000   47.480904858   19.056495610   162.8869   5  12   3.9418   3.3044   7.7877  -0.9667  -1.2112   3.1604   0.00    0.0
2019/01/19 03:23:00.000   47.480903891   19.056496126   162.7454   5  12   3.9445   3.3060   7.7850  -0.9711  -1.1893   3.1630   0.00    0.0
2019/01/19 03:23:30.000   47.480902761   19.056495044   162.3285   5  12   3.9471   3.3076   7.7816  -0.9753  -1.1670   3.1650   0.00    0.0
2019/01/19 03:24:00.000   47.480902142   19.056494287   162.3195   5  12   3.9496   3.3093   7.7776  -0.9795  -1.1441   3.1665   0.00    0.0
2019/01/19 03:24:30.000   47.480901809   19.056493601   162.6429   5  12   3.9521   3.3109   7.7730  -0.9836  -1.1206   3.1675   0.00    0.0
2019/01/19 03:25:00.000   47.480901153   19.056493470   163.0390   5  12   3.9544   3.3126   7.7677  -0.9875  -1.0966   3.1680   0.00    0.0
2019/01/19 03:25:30.000   47.480900241   19.056494115   163.4043   5  12   3.9566   3.3143   7.7618  -0.9914  -1.0719   3.1679   0.00    0.0
2019/01/19 03:26:00.000   47.480900436   19.056494675   163.6308   5  12   3.9587   3.3160   7.7552  -0.9952  -1.0466   3.1674   0.00    0.0
2019/01/19 03:26:30.000   47.480900775   19.056494313   163.5016   5  12   3.9608   3.3177   7.7481  -0.9990  -1.0206   3.1663   0.00    0.0
2019/01/19 03:27:00.000   47.480899227   19.056495136   163.6495   5  12   3.9627   3.3194   7.7403  -1.0026  -0.9939   3.1647   0.00    0.0
2019/01/19 03:27:30.000   47.480897939   19.056495682   163.8248   5  12   3.9646   3.3212   7.7319  -1.0062  -0.9665   3.1626   0.00    0.0
2019/01/19 03:28:00.000   47.480896332   19.056497954   164.2344   5  12   3.9664   3.3229   7.7230  -1.0097  -0.9383   3.1599   0.00    0.0
2019/01/19 03:28:30.000   47.480894966   19.056500677   164.6100   5  12   3.9681   3.3247   7.7134  -1.0132  -0.9093   3.1568   0.00    0.0
2019/01/19 03:29:00.000   47.480894395   19.056501183   164.8427   5  12   3.9697   3.3265   7.7033  -1.0166  -0.8793   3.1531   0.00    0.0
2019/01/19 03:29:30.000   47.480893930   19.056499420   164.9908   5  12   3.9712   3.3283   7.6927  -1.0199  -0.8484   3.1489   0.00    0.0
