% program   : GINA 1.0 gpstk's raw solution
% inp file  : C:\Users\lus2bp\Source\Repos\GINA\70_EGNOS_Project\files\PositionComparisonInputFiles\bute0190\bute0190.19o
% inp file  : C:\Users\lus2bp\Source\Repos\GINA\70_EGNOS_Project\files\PositionComparisonInputFiles\bute0190\brdc0190.19n
% obs start : 2019/01/19 00:00:00.0 GPST (week2036 518400.0s)
% obs end   : 2019/01/19 23:59:30.0 GPST (week2036 604770.0s)
% pos mode  : single
% elev mask : 10.0 deg
% ionos opt : ems
% tropo opt : Zero
% ephemeris : broadcasted
% (lat/lon/height=WGS84/ellipsoidal,Q=1:fix,2:float,3:sbas,4:dgps,5:single,6:ppp,ns=# of satellites)
%  GPST                  latitude(deg) longitude(deg)  height(m)   Q  ns   sdn(m)   sde(m)   sdu(m)  sdne(m)  sdeu(m)  sdun(m) age(s)  ratio
2019/01/19 00:00:00.000   47.480981100   19.056551240   202.6750   5  10   0.7051   0.5178   0.2736   0.2684   0.2684   0.4972   0.00    0.0
2019/01/19 00:00:30.000   47.480972630   19.056549003   201.3177   5  19   0.5048   0.4608   0.2571   0.2125   0.2125   0.2548   0.00    0.0
2019/01/19 00:01:00.000   47.480981387   19.056554384   201.3163   5  18   0.5573   0.4595   0.2448   0.2113   0.2113   0.3106   0.00    0.0
2019/01/19 00:01:30.000   47.480977093   19.056549227   202.2175   5  19   0.5054   0.4633   0.2588   0.2148   0.2148   0.2555   0.00    0.0
2019/01/19 00:02:00.000   47.480985445   19.056553562   202.0810   5  18   0.5579   0.4624   0.2474   0.2140   0.2140   0.3112   0.00    0.0
2019/01/19 00:02:30.000   47.480981546   19.056547601   203.5460   5  19   0.5060   0.4655   0.2604   0.2168   0.2168   0.2560   0.00    0.0
2019/01/19 00:03:00.000   47.480984277   19.056546523   204.1457   5  19   0.5063   0.4665   0.2612   0.2178   0.2178   0.2563   0.00    0.0
2019/01/19 00:03:30.000   47.480986228   19.056541864   204.2808   5  19   0.5066   0.4674   0.2619   0.2187   0.2187   0.2566   0.00    0.0
2019/01/19 00:04:00.000   47.480987031   19.056537860   204.7395   5  19   0.5068   0.4683   0.2626   0.2195   0.2195   0.2569   0.00    0.0
2019/01/19 00:04:30.000   47.480989067   19.056538200   205.2843   5  19   0.5071   0.4691   0.2633   0.2203   0.2203   0.2571   0.00    0.0
2019/01/19 00:05:00.000   47.480990143   19.056535985   205.6319   5  19   0.5073   0.4699   0.2640   0.2210   0.2210   0.2574   0.00    0.0
2019/01/19 00:05:30.000   47.480990691   19.056536016   206.2875   5  19   0.5075   0.4705   0.2646   0.2216   0.2216   0.2576   0.00    0.0
2019/01/19 00:06:00.000   47.480992726   19.056536668   206.9627   5  19   0.5077   0.4712   0.2653   0.2222   0.2222   0.2578   0.00    0.0
2019/01/19 00:06:30.000   47.480995218   19.056536563   207.3770   5  19   0.5080   0.4717   0.2659   0.2228   0.2228   0.2580   0.00    0.0
2019/01/19 00:07:00.000   47.480999493   19.056536263   208.0942   5  19   0.5082   0.4722   0.2664   0.2232   0.2232   0.2582   0.00    0.0
2019/01/19 00:07:30.000   47.481004123   19.056533263   209.0832   5  19   0.5083   0.4727   0.2670   0.2237   0.2237   0.2584   0.00    0.0
2019/01/19 00:08:00.000   47.481008266   19.056530265   210.0013   5  19   0.5085   0.4731   0.2675   0.2240   0.2240   0.2586   0.00    0.0
2019/01/19 00:08:30.000   47.481011450   19.056529160   210.9912   5  19   0.5087   0.4734   0.2681   0.2243   0.2243   0.2587   0.00    0.0
2019/01/19 00:09:00.000   47.481014406   19.056527201   211.8331   5  19   0.5088   0.4736   0.2686   0.2246   0.2246   0.2589   0.00    0.0
2019/01/19 00:09:30.000   47.481016805   19.056526523   212.7389   5  19   0.5090   0.4738   0.2690   0.2248   0.2248   0.2590   0.00    0.0
2019/01/19 00:10:00.000   47.481020564   19.056525972   213.7579   5  19   0.5091   0.4739   0.2695   0.2249   0.2249   0.2592   0.00    0.0
2019/01/19 00:10:30.000   47.481026192   19.056523511   214.8803   5  19   0.5092   0.4740   0.2699   0.2250   0.2250   0.2593   0.00    0.0
2019/01/19 00:11:00.000   47.481032623   19.056519735   215.9067   5  19   0.5093   0.4740   0.2703   0.2250   0.2250   0.2594   0.00    0.0
2019/01/19 00:11:30.000   47.481038857   19.056517638   217.0505   5  19   0.5094   0.4740   0.2707   0.2249   0.2249   0.2595   0.00    0.0
2019/01/19 00:12:00.000   47.481044826   19.056517027   218.3918   5  19   0.5095   0.4739   0.2711   0.2248   0.2248   0.2596   0.00    0.0
2019/01/19 00:12:30.000   47.481050828   19.056514925   219.6259   5  19   0.5096   0.4737   0.2714   0.2247   0.2247   0.2596   0.00    0.0
2019/01/19 00:13:00.000   47.481058101   19.056513174   221.0765   5  19   0.5096   0.4735   0.2717   0.2245   0.2245   0.2597   0.00    0.0
2019/01/19 00:13:30.000   47.481065172   19.056513542   223.1095   5  19   0.5097   0.4732   0.2721   0.2242   0.2242   0.2598   0.00    0.0
2019/01/19 00:14:00.000   47.481073912   19.056511289   225.5496   5  19   0.5097   0.4728   0.2724   0.2239   0.2239   0.2598   0.00    0.0
2019/01/19 00:14:30.000   47.481084273   19.056507471   228.2103   5  19   0.5097   0.4725   0.2726   0.2236   0.2236   0.2598   0.00    0.0
2019/01/19 00:15:00.000   47.481094664   19.056502653   230.8566   5  19   0.5097   0.4720   0.2729   0.2232   0.2232   0.2598   0.00    0.0
2019/01/19 00:15:30.000   47.481104605   19.056496409   233.4118   5  19   0.5097   0.4715   0.2731   0.2227   0.2227   0.2598   0.00    0.0
2019/01/19 00:16:00.000   47.480960095   19.056559295   198.2627   5  18   0.5796   0.6634   0.2661   0.4404   0.4404   0.3360   0.00    0.0
2019/01/19 00:16:30.000   47.480959979   19.056558605   197.8459   5  18   0.5803   0.6643   0.2662   0.4417   0.4417   0.3367   0.00    0.0
2019/01/19 00:17:00.000   47.480958641   19.056560713   197.2719   5  18   0.5809   0.6652   0.2663   0.4427   0.4427   0.3374   0.00    0.0
2019/01/19 00:17:30.000   47.480957987   19.056559871   196.8814   5  18   0.5814   0.6658   0.2663   0.4437   0.4437   0.3381   0.00    0.0
2019/01/19 00:18:00.000   47.480957794   19.056559560   196.6801   5  18   0.5820   0.6664   0.2663   0.4444   0.4444   0.3387   0.00    0.0
2019/01/19 00:18:30.000   47.480957240   19.056560668   196.6989   5  18   0.5824   0.6669   0.2663   0.4450   0.4450   0.3392   0.00    0.0
2019/01/19 00:19:00.000   47.480955845   19.056560858   196.7659   5  18   0.5829   0.6672   0.2662   0.4454   0.4454   0.3397   0.00    0.0
2019/01/19 00:19:30.000   47.480955093   19.056559191   196.8217   5  18   0.5832   0.6674   0.2661   0.4457   0.4457   0.3402   0.00    0.0
2019/01/19 00:20:00.000   47.480954834   19.056558059   196.7707   5  18   0.5836   0.6674   0.2659   0.4458   0.4458   0.3406   0.00    0.0
2019/01/19 00:20:30.000   47.481038947   19.056609730   219.2714   5  19   0.5421   0.5332   0.1581   0.2847   0.2847   0.2939   0.00    0.0
2019/01/19 00:21:00.000   47.481033245   19.056607660   217.8828   5  19   0.5427   0.5347   0.1585   0.2862   0.2862   0.2945   0.00    0.0
2019/01/19 00:21:30.000   47.481026339   19.056607338   216.6232   5  19   0.5433   0.5360   0.1589   0.2877   0.2877   0.2952   0.00    0.0
2019/01/19 00:22:00.000   47.481020172   19.056606146   215.4342   5  19   0.5439   0.5374   0.1592   0.2891   0.2891   0.2958   0.00    0.0
2019/01/19 00:22:30.000   47.481014990   19.056605040   214.1010   5  19   0.5444   0.5386   0.1596   0.2905   0.2905   0.2964   0.00    0.0
2019/01/19 00:23:00.000   47.481011600   19.056601052   212.7988   5  19   0.5449   0.5398   0.1600   0.2918   0.2918   0.2969   0.00    0.0
2019/01/19 00:23:30.000   47.481007455   19.056596802   211.5406   5  19   0.5454   0.5410   0.1604   0.2930   0.2930   0.2975   0.00    0.0
2019/01/19 00:24:00.000   47.481002954   19.056593837   210.3661   5  19   0.5459   0.5420   0.1608   0.2941   0.2941   0.2980   0.00    0.0
2019/01/19 00:24:30.000   47.480998065   19.056591528   209.0138   5  19   0.5463   0.5430   0.1612   0.2952   0.2952   0.2985   0.00    0.0
2019/01/19 00:25:00.000   47.480992541   19.056590886   207.6707   5  19   0.5468   0.5439   0.1616   0.2962   0.2962   0.2990   0.00    0.0
2019/01/19 00:25:30.000   47.480987615   19.056591202   206.6820   5  19   0.5472   0.5448   0.1620   0.2971   0.2971   0.2994   0.00    0.0
2019/01/19 00:26:00.000   47.480983793   19.056590331   206.1057   5  19   0.5476   0.5456   0.1624   0.2979   0.2979   0.2999   0.00    0.0
2019/01/19 00:26:30.000   47.480981035   19.056587720   205.7001   5  19   0.5480   0.5463   0.1628   0.2987   0.2987   0.3003   0.00    0.0
2019/01/19 00:27:00.000   47.480978934   19.056585057   205.4513   5  19   0.5483   0.5469   0.1632   0.2994   0.2994   0.3007   0.00    0.0
2019/01/19 00:27:30.000   47.480977845   19.056584096   205.0409   5  19   0.5487   0.5475   0.1636   0.3000   0.3000   0.3010   0.00    0.0
2019/01/19 00:28:00.000   47.480977491   19.056581719   204.5516   5  19   0.5490   0.5480   0.1641   0.3006   0.3006   0.3014   0.00    0.0
2019/01/19 00:28:30.000   47.480975773   19.056579670   203.7939   5  19   0.5493   0.5484   0.1645   0.3010   0.3010   0.3017   0.00    0.0
2019/01/19 00:29:00.000   47.480974471   19.056577582   203.1275   5  19   0.5495   0.5488   0.1649   0.3014   0.3014   0.3020   0.00    0.0
2019/01/19 00:29:30.000   47.480972612   19.056577242   202.3137   5  19   0.5498   0.5491   0.1654   0.3018   0.3018   0.3023   0.00    0.0
2019/01/19 00:30:00.000   47.480970401   19.056576691   201.5719   5  19   0.5500   0.5493   0.1658   0.3020   0.3020   0.3025   0.00    0.0
2019/01/19 00:30:30.000   47.480967373   19.056576928   200.9638   5  19   0.5502   0.5495   0.1663   0.3022   0.3022   0.3027   0.00    0.0
2019/01/19 00:31:00.000   47.480963935   19.056577713   200.5123   5  19   0.5504   0.5496   0.1667   0.3023   0.3023   0.3029   0.00    0.0
2019/01/19 00:31:30.000   47.480962839   19.056574546   200.6780   5  19   0.5505   0.5496   0.1672   0.3023   0.3023   0.3030   0.00    0.0
2019/01/19 00:32:00.000   47.480960513   19.056575337   200.7231   5  19   0.5506   0.5495   0.1676   0.3022   0.3022   0.3032   0.00    0.0
2019/01/19 00:32:30.000   47.480957221   19.056577388   200.3578   5  19   0.5507   0.5494   0.1681   0.3021   0.3021   0.3033   0.00    0.0
2019/01/19 00:33:00.000   47.480954638   19.056578763   199.9289   5  19   0.5508   0.5492   0.1686   0.3019   0.3019   0.3034   0.00    0.0
2019/01/19 00:33:30.000   47.480952531   19.056579545   199.6669   5  19   0.5508   0.5490   0.1691   0.3016   0.3016   0.3034   0.00    0.0
2019/01/19 00:34:00.000   47.480950980   19.056579576   199.3449   5  19   0.5509   0.5487   0.1696   0.3013   0.3013   0.3035   0.00    0.0
2019/01/19 00:34:30.000   47.480950566   19.056577482   199.1344   5  19   0.5509   0.5483   0.1701   0.3009   0.3009   0.3035   0.00    0.0
2019/01/19 00:35:00.000   47.480949640   19.056575547   198.9595   5  19   0.5509   0.5479   0.1706   0.3004   0.3004   0.3034   0.00    0.0
2019/01/19 00:35:30.000   47.480948958   19.056573413   198.6874   5  19   0.5508   0.5474   0.1711   0.2998   0.2998   0.3034   0.00    0.0
2019/01/19 00:36:00.000   47.480948059   19.056571786   198.5024   5  19   0.5508   0.5468   0.1716   0.2992   0.2992   0.3033   0.00    0.0
2019/01/19 00:36:30.000   47.480946861   19.056570504   198.3883   5  19   0.5507   0.5462   0.1721   0.2985   0.2985   0.3032   0.00    0.0
2019/01/19 00:37:00.000   47.480944823   19.056569575   198.1797   5  19   0.5506   0.5455   0.1726   0.2978   0.2978   0.3031   0.00    0.0
2019/01/19 00:37:30.000   47.480943049   19.056568308   197.8830   5  19   0.5504   0.5448   0.1731   0.2970   0.2970   0.3030   0.00    0.0
2019/01/19 00:38:00.000   47.480941425   19.056568742   197.4384   5  19   0.5503   0.5440   0.1736   0.2961   0.2961   0.3028   0.00    0.0
2019/01/19 00:38:30.000   47.480941053   19.056569446   197.2398   5  19   0.5501   0.5431   0.1742   0.2952   0.2952   0.3026   0.00    0.0
2019/01/19 00:39:00.000   47.480939836   19.056569878   197.3097   5  19   0.5499   0.5422   0.1747   0.2942   0.2942   0.3024   0.00    0.0
2019/01/19 00:39:30.000   47.480899239   19.056596873   205.5863   5  20   0.5118   0.5261   0.0753   0.2770   0.2770   0.2620   0.00    0.0
2019/01/19 00:40:00.000   47.480900869   19.056596132   205.6882   5  20   0.5118   0.5252   0.0758   0.2761   0.2761   0.2619   0.00    0.0
2019/01/19 00:40:30.000   47.480901220   19.056596750   205.6728   5  20   0.5116   0.5242   0.0763   0.2751   0.2751   0.2618   0.00    0.0
2019/01/19 00:41:00.000   47.480901661   19.056599500   205.3853   5  20   0.5115   0.5232   0.0769   0.2741   0.2741   0.2616   0.00    0.0
2019/01/19 00:41:30.000   47.480901690   19.056599942   204.9257   5  20   0.5114   0.5222   0.0775   0.2730   0.2730   0.2615   0.00    0.0
2019/01/19 00:42:00.000   47.480899680   19.056600404   204.3571   5  20   0.5112   0.5211   0.0781   0.2718   0.2718   0.2613   0.00    0.0
2019/01/19 00:42:30.000   47.480898143   19.056599430   203.9543   5  20   0.5110   0.5200   0.0786   0.2707   0.2707   0.2611   0.00    0.0
2019/01/19 00:43:00.000   47.480897790   19.056597179   203.8839   5  20   0.5108   0.5188   0.0793   0.2694   0.2694   0.2609   0.00    0.0
2019/01/19 00:43:30.000   47.480899955   19.056596179   204.0918   5  20   0.5106   0.5176   0.0799   0.2682   0.2682   0.2607   0.00    0.0
2019/01/19 00:44:00.000   47.480900900   19.056594533   204.2478   5  20   0.5104   0.5164   0.0805   0.2669   0.2669   0.2605   0.00    0.0
2019/01/19 00:44:30.000   47.480901235   19.056593758   204.2147   5  20   0.5101   0.5151   0.0812   0.2656   0.2656   0.2602   0.00    0.0
2019/01/19 00:45:00.000   47.480899840   19.056595337   204.0247   5  20   0.5098   0.5138   0.0818   0.2642   0.2642   0.2599   0.00    0.0
2019/01/19 00:45:30.000   47.480899029   19.056597335   203.8998   5  20   0.5096   0.5124   0.0825   0.2628   0.2628   0.2597   0.00    0.0
2019/01/19 00:46:00.000   47.480899227   19.056597485   203.8968   5  20   0.5093   0.5110   0.0831   0.2614   0.2614   0.2594   0.00    0.0
2019/01/19 00:46:30.000   47.480898825   19.056598366   203.8493   5  20   0.5090   0.5096   0.0838   0.2599   0.2599   0.2590   0.00    0.0
2019/01/19 00:47:00.000   47.480893253   19.056589131   202.5187   5  21   0.5059   0.4960   0.0211   0.2462   0.2462   0.2559   0.00    0.0
2019/01/19 00:47:30.000   47.480888994   19.056594769   203.0986   5  20   0.5186   0.4996   0.1380   0.2499   0.2499   0.2689   0.00    0.0
2019/01/19 00:48:00.000   47.480890966   19.056589033   202.6169   5  21   0.5055   0.4940   0.0317   0.2443   0.2443   0.2555   0.00    0.0
2019/01/19 00:48:30.000   47.480891447   19.056586772   202.6766   5  21   0.5053   0.4930   0.0359   0.2432   0.2432   0.2553   0.00    0.0
2019/01/19 00:49:00.000   47.480891179   19.056587725   202.7021   5  21   0.5050   0.4919   0.0397   0.2422   0.2422   0.2550   0.00    0.0
2019/01/19 00:49:30.000   47.480891589   19.056589785   202.6986   5  21   0.5047   0.4908   0.0432   0.2411   0.2411   0.2548   0.00    0.0
2019/01/19 00:50:00.000   47.480891090   19.056590175   202.4872   5  21   0.5045   0.4896   0.0465   0.2399   0.2399   0.2545   0.00    0.0
2019/01/19 00:50:30.000   47.480889079   19.056594304   202.8332   5  20   0.5176   0.4942   0.1465   0.2445   0.2445   0.2679   0.00    0.0
2019/01/19 00:51:00.000   47.480888450   19.056594577   202.8985   5  20   0.5174   0.4932   0.1478   0.2435   0.2435   0.2677   0.00    0.0
2019/01/19 00:51:30.000   47.480887278   19.056595390   203.1026   5  20   0.5171   0.4921   0.1492   0.2424   0.2424   0.2674   0.00    0.0
2019/01/19 00:52:00.000   47.481013277   19.056487434   226.3076   5  22   0.4806   0.3984   0.1391   0.1590   0.1590   0.2309   0.00    0.0
2019/01/19 00:52:30.000   47.481001218   19.056494989   224.2604   5  22   0.4806   0.3984   0.1396   0.1590   0.1590   0.2310   0.00    0.0
2019/01/19 00:53:00.000   47.480990598   19.056502314   222.5855   5  22   0.4807   0.3984   0.1402   0.1590   0.1590   0.2311   0.00    0.0
2019/01/19 00:53:30.000   47.480981288   19.056510958   221.2149   5  21   0.4955   0.4073   0.1989   0.1661   0.1661   0.2455   0.00    0.0
2019/01/19 00:54:00.000   47.480974230   19.056517468   219.8449   5  21   0.4956   0.4074   0.1995   0.1662   0.1662   0.2456   0.00    0.0
2019/01/19 00:54:30.000   47.480967942   19.056523230   218.4132   5  21   0.4957   0.4075   0.2001   0.1663   0.1663   0.2457   0.00    0.0
2019/01/19 00:55:00.000   47.480963336   19.056523436   217.1804   5  22   0.4809   0.3982   0.1423   0.1588   0.1588   0.2312   0.00    0.0
2019/01/19 00:55:30.000   47.480956209   19.056527519   216.7652   5  22   0.4809   0.3981   0.1428   0.1587   0.1587   0.2313   0.00    0.0
2019/01/19 00:56:00.000   47.480950429   19.056531126   216.4346   5  21   0.4959   0.4077   0.2019   0.1664   0.1664   0.2459   0.00    0.0
2019/01/19 00:56:30.000   47.480944670   19.056533360   215.9909   5  21   0.4959   0.4077   0.2025   0.1664   0.1664   0.2460   0.00    0.0
2019/01/19 00:57:00.000   47.480939129   19.056535968   215.1666   5  21   0.4960   0.4077   0.2031   0.1664   0.1664   0.2460   0.00    0.0
2019/01/19 00:57:30.000   47.480934814   19.056539114   214.2536   5  21   0.4960   0.4077   0.2037   0.1664   0.1664   0.2460   0.00    0.0
2019/01/19 00:58:00.000   47.480963959   19.056508717   207.7270   5  20   0.5439   0.4253   0.2883   0.1810   0.1810   0.2958   0.00    0.0
2019/01/19 00:58:30.000   47.480959157   19.056510013   207.0463   5  20   0.5439   0.4253   0.2890   0.1811   0.1811   0.2958   0.00    0.0
2019/01/19 00:59:00.000   47.480954663   19.056511017   206.5455   5  20   0.5438   0.4253   0.2897   0.1811   0.1811   0.2957   0.00    0.0
2019/01/19 00:59:30.000   47.480951564   19.056513531   206.1208   5  20   0.5437   0.4253   0.2904   0.1811   0.1811   0.2957   0.00    0.0
2019/01/19 01:00:00.000   47.480948253   19.056515878   206.1029   5  20   0.5437   0.4253   0.2911   0.1810   0.1810   0.2956   0.00    0.0
2019/01/19 01:00:30.000   47.480944785   19.056517560   206.1845   5  20   0.5436   0.4252   0.2917   0.1810   0.1810   0.2955   0.00    0.0
2019/01/19 01:01:00.000   47.480940979   19.056519938   205.8051   5  20   0.5435   0.4251   0.2924   0.1809   0.1809   0.2954   0.00    0.0
2019/01/19 01:01:30.000   47.480936960   19.056521508   205.5726   5  20   0.5434   0.4250   0.2930   0.1808   0.1808   0.2952   0.00    0.0
2019/01/19 01:02:00.000   47.480933041   19.056523329   205.6903   5  20   0.5432   0.4249   0.2937   0.1807   0.1807   0.2951   0.00    0.0
2019/01/19 01:02:30.000   47.480929127   19.056524399   205.9444   5  20   0.5431   0.4247   0.2943   0.1806   0.1806   0.2950   0.00    0.0
2019/01/19 01:03:00.000   47.480925380   19.056526365   206.3417   5  20   0.5429   0.4245   0.2949   0.1804   0.1804   0.2948   0.00    0.0
2019/01/19 01:03:30.000   47.480920738   19.056530697   206.7767   5  20   0.5428   0.4243   0.2955   0.1803   0.1803   0.2946   0.00    0.0
2019/01/19 01:04:00.000   47.480916930   19.056532971   207.2438   5  20   0.5426   0.4241   0.2960   0.1801   0.1801   0.2944   0.00    0.0
2019/01/19 01:04:30.000   47.480911857   19.056535140   207.7968   5  20   0.5424   0.4239   0.2966   0.1799   0.1799   0.2942   0.00    0.0
2019/01/19 01:05:00.000   47.480906792   19.056536162   208.1261   5  20   0.5422   0.4236   0.2972   0.1796   0.1796   0.2940   0.00    0.0
2019/01/19 01:05:30.000   47.480902885   19.056535503   208.3988   5  20   0.5419   0.4233   0.2977   0.1794   0.1794   0.2937   0.00    0.0
2019/01/19 01:06:00.000   47.480899954   19.056533757   208.7358   5  20   0.5417   0.4230   0.2982   0.1791   0.1791   0.2934   0.00    0.0
2019/01/19 01:06:30.000   47.480896062   19.056533592   209.1321   5  20   0.5415   0.4226   0.2987   0.1788   0.1788   0.2932   0.00    0.0
2019/01/19 01:07:00.000   47.480892658   19.056535648   209.6277   5  20   0.5412   0.4222   0.2992   0.1785   0.1785   0.2929   0.00    0.0
2019/01/19 01:07:30.000   47.480888454   19.056537756   210.1556   5  20   0.5409   0.4218   0.2997   0.1782   0.1782   0.2926   0.00    0.0
2019/01/19 01:08:00.000   47.480976575   19.056524310   192.7171   5  19   0.6511   0.4717   0.3810   0.2226   0.2226   0.4240   0.00    0.0
2019/01/19 01:08:30.000   47.480976459   19.056524692   192.0732   5  19   0.6512   0.4716   0.3822   0.2226   0.2226   0.4240   0.00    0.0
2019/01/19 01:09:00.000   47.480977650   19.056524393   191.6994   5  19   0.6512   0.4715   0.3834   0.2225   0.2225   0.4241   0.00    0.0
2019/01/19 01:09:30.000   47.480978259   19.056524710   191.3590   5  19   0.6512   0.4714   0.3845   0.2223   0.2223   0.4241   0.00    0.0
2019/01/19 01:10:00.000   47.480978031   19.056525749   191.1154   5  19   0.6512   0.4712   0.3856   0.2222   0.2222   0.4241   0.00    0.0
2019/01/19 01:10:30.000   47.480977284   19.056527956   190.9185   5  19   0.6512   0.4711   0.3868   0.2220   0.2220   0.4240   0.00    0.0
2019/01/19 01:11:00.000   47.480974693   19.056532151   190.8972   5  19   0.6511   0.4708   0.3878   0.2218   0.2218   0.4240   0.00    0.0
2019/01/19 01:11:30.000   47.480955365   19.056568386   196.0065   5  20   0.6057   0.4287   0.2969   0.1839   0.1839   0.3669   0.00    0.0
2019/01/19 01:12:00.000   47.480954408   19.056567493   195.7926   5  20   0.6057   0.4288   0.2981   0.1840   0.1840   0.3669   0.00    0.0
2019/01/19 01:12:30.000   47.480952964   19.056566938   195.3115   5  20   0.6057   0.4288   0.2993   0.1840   0.1840   0.3669   0.00    0.0
2019/01/19 01:13:00.000   47.480952015   19.056565340   195.1500   5  20   0.6057   0.4288   0.3004   0.1840   0.1840   0.3669   0.00    0.0
2019/01/19 01:13:30.000   47.480953177   19.056564296   194.9798   5  20   0.6057   0.4288   0.3016   0.1840   0.1840   0.3669   0.00    0.0
2019/01/19 01:14:00.000   47.480954397   19.056561933   194.8517   5  20   0.6057   0.4288   0.3027   0.1840   0.1840   0.3669   0.00    0.0
2019/01/19 01:14:30.000   47.480956931   19.056558783   194.5618   5  20   0.6056   0.4288   0.3038   0.1840   0.1840   0.3668   0.00    0.0
2019/01/19 01:15:00.000   47.480959143   19.056556527   194.2458   5  20   0.6056   0.4287   0.3049   0.1839   0.1839   0.3667   0.00    0.0
2019/01/19 01:15:30.000   47.480959848   19.056556755   194.0719   5  20   0.6055   0.4286   0.3060   0.1838   0.1838   0.3666   0.00    0.0
2019/01/19 01:16:00.000   47.480960113   19.056557750   193.9139   5  20   0.6054   0.4285   0.3071   0.1837   0.1837   0.3665   0.00    0.0
2019/01/19 01:16:30.000   47.480961150   19.056558337   193.6914   5  20   0.6053   0.4284   0.3082   0.1836   0.1836   0.3664   0.00    0.0
2019/01/19 01:17:00.000   47.480961352   19.056557887   193.6011   5  20   0.6052   0.4282   0.3092   0.1835   0.1835   0.3663   0.00    0.0
2019/01/19 01:17:30.000   47.480962709   19.056558124   193.3928   5  20   0.6051   0.4280   0.3103   0.1833   0.1833   0.3661   0.00    0.0
2019/01/19 01:18:00.000   47.480962954   19.056556884   193.2455   5  20   0.6049   0.4279   0.3113   0.1832   0.1832   0.3659   0.00    0.0
2019/01/19 01:18:30.000   47.480963605   19.056555697   193.0123   5  20   0.6047   0.4276   0.3123   0.1830   0.1830   0.3657   0.00    0.0
2019/01/19 01:19:00.000   47.480963691   19.056555380   192.6239   5  20   0.6045   0.4274   0.3133   0.1828   0.1828   0.3655   0.00    0.0
2019/01/19 01:19:30.000   47.480963633   19.056553329   192.4349   5  20   0.6043   0.4271   0.3143   0.1826   0.1826   0.3652   0.00    0.0
2019/01/19 01:20:00.000   47.480965071   19.056549741   192.7816   5  21   0.6033   0.4188   0.3198   0.1755   0.1755   0.3639   0.00    0.0
2019/01/19 01:20:30.000   47.480963538   19.056548309   192.8289   5  21   0.6031   0.4190   0.3206   0.1756   0.1756   0.3637   0.00    0.0
2019/01/19 01:21:00.000   47.480962910   19.056546781   192.9197   5  21   0.6029   0.4191   0.3213   0.1757   0.1757   0.3635   0.00    0.0
2019/01/19 01:21:30.000   47.480962294   19.056544800   193.0419   5  21   0.6027   0.4192   0.3220   0.1758   0.1758   0.3633   0.00    0.0
2019/01/19 01:22:00.000   47.480961967   19.056542185   192.8473   5  21   0.6025   0.4192   0.3227   0.1759   0.1759   0.3630   0.00    0.0
2019/01/19 01:22:30.000   47.480962191   19.056539058   192.6680   5  21   0.6023   0.4193   0.3234   0.1759   0.1759   0.3628   0.00    0.0
2019/01/19 01:23:00.000   47.480962129   19.056537711   192.5658   5  21   0.6020   0.4193   0.3240   0.1759   0.1759   0.3625   0.00    0.0
2019/01/19 01:23:30.000   47.480962154   19.056536282   192.5472   5  21   0.6018   0.4193   0.3247   0.1759   0.1759   0.3621   0.00    0.0
2019/01/19 01:24:00.000   47.480962399   19.056537571   192.5288   5  21   0.6015   0.4192   0.3253   0.1758   0.1758   0.3618   0.00    0.0
2019/01/19 01:24:30.000   47.480963652   19.056539381   192.4198   5  21   0.6012   0.4191   0.3259   0.1758   0.1758   0.3614   0.00    0.0
2019/01/19 01:25:00.000   47.480964521   19.056541631   192.2364   5  21   0.6008   0.4191   0.3265   0.1757   0.1757   0.3610   0.00    0.0
2019/01/19 01:25:30.000   47.480966283   19.056542863   191.7366   5  21   0.6005   0.4189   0.3271   0.1756   0.1756   0.3606   0.00    0.0
2019/01/19 01:26:00.000   47.481022040   19.056504542   202.1984   5  22   0.5968   0.4020   0.3308   0.1617   0.1617   0.3561   0.00    0.0
2019/01/19 01:26:30.000   47.481017432   19.056504175   201.3563   5  21   0.6827   0.4257   0.3575   0.1814   0.1814   0.4661   0.00    0.0
2019/01/19 01:27:00.000   47.481012989   19.056506969   200.5303   5  21   0.6828   0.4262   0.3585   0.1818   0.1818   0.4661   0.00    0.0
2019/01/19 01:27:30.000   47.481009464   19.056509896   199.8616   5  21   0.6827   0.4267   0.3595   0.1822   0.1822   0.4661   0.00    0.0
2019/01/19 01:28:00.000   47.481007088   19.056512868   199.3050   5  21   0.6827   0.4271   0.3605   0.1826   0.1826   0.4661   0.00    0.0
2019/01/19 01:28:30.000   47.481005880   19.056516635   199.1224   5  20   0.6836   0.4207   0.3604   0.1771   0.1771   0.4673   0.00    0.0
2019/01/19 01:29:00.000   47.481003152   19.056518597   198.6912   5  20   0.6834   0.4214   0.3613   0.1777   0.1777   0.4671   0.00    0.0
2019/01/19 01:29:30.000   47.481001361   19.056519032   198.1058   5  20   0.6832   0.4220   0.3622   0.1782   0.1782   0.4668   0.00    0.0
2019/01/19 01:30:00.000   47.480999392   19.056520194   197.6005   5  20   0.6830   0.4226   0.3631   0.1787   0.1787   0.4665   0.00    0.0
2019/01/19 01:30:30.000   47.480997482   19.056522723   197.0288   5  20   0.6827   0.4232   0.3640   0.1792   0.1792   0.4661   0.00    0.0
2019/01/19 01:31:00.000   47.480995953   19.056522790   196.3683   5  21   0.6538   0.3997   0.3038   0.1599   0.1599   0.4274   0.00    0.0
2019/01/19 01:31:30.000   47.480993375   19.056522260   195.8992   5  21   0.6536   0.4004   0.3048   0.1604   0.1604   0.4272   0.00    0.0
2019/01/19 01:32:00.000   47.480992151   19.056522080   195.4980   5  21   0.6534   0.4010   0.3058   0.1609   0.1609   0.4269   0.00    0.0
2019/01/19 01:32:30.000   47.480991858   19.056522278   195.1912   5  21   0.6532   0.4016   0.3067   0.1614   0.1614   0.4266   0.00    0.0
2019/01/19 01:33:00.000   47.480989902   19.056523385   195.0775   5  21   0.6529   0.4022   0.3077   0.1619   0.1619   0.4263   0.00    0.0
2019/01/19 01:33:30.000   47.480987689   19.056523638   194.7086   5  21   0.6527   0.4028   0.3087   0.1624   0.1624   0.4260   0.00    0.0
2019/01/19 01:34:00.000   47.480985940   19.056522726   194.3482   5  21   0.6524   0.4034   0.3096   0.1628   0.1628   0.4257   0.00    0.0
2019/01/19 01:34:30.000   47.480984518   19.056521276   194.0490   5  21   0.6521   0.4039   0.3105   0.1633   0.1633   0.4253   0.00    0.0
2019/01/19 01:35:00.000   47.480983147   19.056520393   193.9241   5  21   0.6518   0.4044   0.3114   0.1637   0.1637   0.4249   0.00    0.0
2019/01/19 01:35:30.000   47.480983020   19.056519888   193.5924   5  21   0.6515   0.4049   0.3123   0.1640   0.1640   0.4244   0.00    0.0
2019/01/19 01:36:00.000   47.480982425   19.056521570   193.3670   5  21   0.6512   0.4053   0.3132   0.1644   0.1644   0.4240   0.00    0.0
2019/01/19 01:36:30.000   47.480980728   19.056523117   193.4434   5  21   0.6508   0.4058   0.3140   0.1648   0.1648   0.4235   0.00    0.0
2019/01/19 01:37:00.000   47.480978915   19.056525557   193.5426   5  21   0.6504   0.4062   0.3149   0.1651   0.1651   0.4230   0.00    0.0
2019/01/19 01:37:30.000   47.480977875   19.056526949   193.5421   5  21   0.6500   0.4066   0.3157   0.1654   0.1654   0.4225   0.00    0.0
2019/01/19 01:38:00.000   47.480976834   19.056526938   193.4236   5  21   0.6496   0.4069   0.3165   0.1657   0.1657   0.4220   0.00    0.0
2019/01/19 01:38:30.000   47.480976069   19.056526252   193.1874   5  21   0.6492   0.4072   0.3173   0.1660   0.1660   0.4214   0.00    0.0
2019/01/19 01:39:00.000   47.480976064   19.056525942   193.1032   5  21   0.6487   0.4075   0.3181   0.1662   0.1662   0.4208   0.00    0.0
2019/01/19 01:39:30.000   47.480966631   19.056562449   198.4848   5  22   0.6325   0.3825   0.2777   0.1464   0.1464   0.4000   0.00    0.0
2019/01/19 01:40:00.000   47.480967613   19.056558296   197.8551   5  22   0.6320   0.3829   0.2785   0.1467   0.1467   0.3994   0.00    0.0
2019/01/19 01:40:30.000   47.480966939   19.056555968   197.5634   5  22   0.6315   0.3832   0.2793   0.1470   0.1470   0.3988   0.00    0.0
2019/01/19 01:41:00.000   47.480965615   19.056554060   197.2868   5  22   0.6310   0.3835   0.2801   0.1472   0.1472   0.3982   0.00    0.0
2019/01/19 01:41:30.000   47.480964719   19.056552705   197.2725   5  22   0.6305   0.3838   0.2808   0.1474   0.1474   0.3976   0.00    0.0
2019/01/19 01:42:00.000   47.480963758   19.056551090   197.2459   5  22   0.6300   0.3841   0.2816   0.1477   0.1477   0.3969   0.00    0.0
2019/01/19 01:42:30.000   47.480964530   19.056549558   197.1922   5  22   0.6295   0.3844   0.2823   0.1478   0.1478   0.3962   0.00    0.0
2019/01/19 01:43:00.000   47.480965456   19.056548659   197.1902   5  22   0.6289   0.3846   0.2830   0.1480   0.1480   0.3955   0.00    0.0
2019/01/19 01:43:30.000   47.480966765   19.056547547   197.0822   5  22   0.6284   0.3848   0.2837   0.1482   0.1482   0.3948   0.00    0.0
2019/01/19 01:44:00.000   47.480966927   19.056549141   197.0677   5  22   0.6278   0.3850   0.2844   0.1483   0.1483   0.3941   0.00    0.0
2019/01/19 01:44:30.000   47.480967775   19.056549848   197.0362   5  22   0.6272   0.3851   0.2850   0.1484   0.1484   0.3933   0.00    0.0
2019/01/19 01:45:00.000   47.480968569   19.056549069   197.0377   5  22   0.6265   0.3852   0.2857   0.1485   0.1485   0.3926   0.00    0.0
2019/01/19 01:45:30.000   47.480969137   19.056548189   197.0086   5  22   0.6259   0.3853   0.2863   0.1486   0.1486   0.3918   0.00    0.0
2019/01/19 01:46:00.000   47.480971156   19.056546251   197.2182   5  22   0.6253   0.3854   0.2870   0.1487   0.1487   0.3909   0.00    0.0
2019/01/19 01:46:30.000   47.480972463   19.056544354   197.4358   5  22   0.6246   0.3855   0.2876   0.1487   0.1487   0.3901   0.00    0.0
2019/01/19 01:47:00.000   47.480972780   19.056544138   197.8597   5  22   0.6239   0.3855   0.2882   0.1487   0.1487   0.3893   0.00    0.0
2019/01/19 01:47:30.000   47.480973429   19.056543193   198.2302   5  22   0.6232   0.3855   0.2888   0.1487   0.1487   0.3884   0.00    0.0
2019/01/19 01:48:00.000   47.480974649   19.056542159   198.5943   5  22   0.6225   0.3855   0.2894   0.1487   0.1487   0.3875   0.00    0.0
2019/01/19 01:48:30.000   47.480975942   19.056541772   198.9351   5  22   0.6218   0.3854   0.2899   0.1487   0.1487   0.3866   0.00    0.0
2019/01/19 01:49:00.000   47.481007871   19.056584924   206.7758   5  23   0.6203   0.3781   0.2858   0.1431   0.1431   0.3848   0.00    0.0
2019/01/19 01:49:30.000   47.481005656   19.056580479   206.3942   5  23   0.6196   0.3782   0.2865   0.1432   0.1432   0.3839   0.00    0.0
2019/01/19 01:50:00.000   47.481005339   19.056575167   206.1255   5  23   0.6188   0.3783   0.2871   0.1432   0.1432   0.3829   0.00    0.0
2019/01/19 01:50:30.000   47.481005413   19.056571428   205.9766   5  23   0.6181   0.3783   0.2877   0.1433   0.1433   0.3820   0.00    0.0
2019/01/19 01:51:00.000   47.481005407   19.056567650   205.9848   5  23   0.6173   0.3783   0.2883   0.1433   0.1433   0.3810   0.00    0.0
2019/01/19 01:51:30.000   47.481006188   19.056563671   206.1598   5  23   0.6165   0.3783   0.2888   0.1433   0.1433   0.3800   0.00    0.0
2019/01/19 01:52:00.000   47.481005889   19.056561028   206.3734   5  23   0.6157   0.3783   0.2894   0.1433   0.1433   0.3791   0.00    0.0
2019/01/19 01:52:30.000   47.481006319   19.056559200   206.6831   5  23   0.6148   0.3782   0.2900   0.1432   0.1432   0.3780   0.00    0.0
2019/01/19 01:53:00.000   47.480997084   19.056564775   206.3828   5  24   0.6140   0.3793   0.2898   0.1440   0.1440   0.3769   0.00    0.0
2019/01/19 01:53:30.000   47.480998135   19.056562947   207.0557   5  24   0.6131   0.3794   0.2902   0.1441   0.1441   0.3759   0.00    0.0
2019/01/19 01:54:00.000   47.481001157   19.056559752   207.7535   5  24   0.6122   0.3794   0.2907   0.1441   0.1441   0.3748   0.00    0.0
2019/01/19 01:54:30.000   47.481005125   19.056557370   208.4234   5  24   0.6113   0.3793   0.2911   0.1441   0.1441   0.3737   0.00    0.0
2019/01/19 01:55:00.000   47.480881962   19.056549955   206.0392   5  24   0.5385   0.3595   0.2206   0.1294   0.1294   0.2899   0.00    0.0
2019/01/19 01:55:30.000   47.480881857   19.056546488   205.3436   5  24   0.5382   0.3601   0.2214   0.1298   0.1298   0.2897   0.00    0.0
2019/01/19 01:56:00.000   47.480882103   19.056543820   204.6953   5  24   0.5380   0.3607   0.2222   0.1303   0.1303   0.2894   0.00    0.0
2019/01/19 01:56:30.000   47.480881159   19.056542012   204.2243   5  24   0.5377   0.3613   0.2231   0.1307   0.1307   0.2891   0.00    0.0
2019/01/19 01:57:00.000   47.480881316   19.056540512   203.9600   5  24   0.5374   0.3619   0.2239   0.1311   0.1311   0.2888   0.00    0.0
2019/01/19 01:57:30.000   47.480881938   19.056538085   203.8197   5  24   0.5371   0.3624   0.2247   0.1315   0.1315   0.2885   0.00    0.0
2019/01/19 01:58:00.000   47.480882640   19.056535912   203.8940   5  24   0.5368   0.3629   0.2255   0.1318   0.1318   0.2881   0.00    0.0
2019/01/19 01:58:30.000   47.480883654   19.056532601   204.0286   5  24   0.5365   0.3634   0.2262   0.1322   0.1322   0.2878   0.00    0.0
2019/01/19 01:59:00.000   47.480884549   19.056531002   203.9339   5  24   0.5361   0.3639   0.2270   0.1325   0.1325   0.2874   0.00    0.0
2019/01/19 01:59:30.000   47.480884346   19.056528256   203.7196   5  25   0.5331   0.3585   0.2133   0.1287   0.1287   0.2842   0.00    0.0
2019/01/19 02:00:00.000   47.480883847   19.056526653   203.6394   5  25   0.5327   0.3590   0.2141   0.1290   0.1290   0.2838   0.00    0.0
2019/01/19 02:00:30.000   47.480881788   19.056525910   203.6057   5  25   0.5324   0.3594   0.2149   0.1293   0.1293   0.2834   0.00    0.0
2019/01/19 02:01:00.000   47.480879866   19.056523624   203.5829   5  25   0.5320   0.3598   0.2157   0.1296   0.1296   0.2830   0.00    0.0
2019/01/19 02:01:30.000   47.480877290   19.056520399   203.5893   5  25   0.5316   0.3602   0.2164   0.1299   0.1299   0.2826   0.00    0.0
2019/01/19 02:02:00.000   47.480873312   19.056507118   204.5004   5  24   0.5533   0.3786   0.1908   0.1435   0.1435   0.3061   0.00    0.0
2019/01/19 02:02:30.000   47.480870562   19.056503542   204.7330   5  24   0.5529   0.3792   0.1918   0.1439   0.1439   0.3057   0.00    0.0
2019/01/19 02:03:00.000   47.480867625   19.056498072   205.0463   5  24   0.5526   0.3797   0.1927   0.1443   0.1443   0.3054   0.00    0.0
2019/01/19 02:03:30.000   47.480864594   19.056491700   205.4683   5  24   0.5522   0.3803   0.1937   0.1447   0.1447   0.3049   0.00    0.0
2019/01/19 02:04:00.000   47.480861284   19.056485718   206.1208   5  24   0.5518   0.3808   0.1946   0.1451   0.1451   0.3045   0.00    0.0
2019/01/19 02:04:30.000   47.480855784   19.056482743   206.9822   5  24   0.5515   0.3812   0.1955   0.1455   0.1455   0.3041   0.00    0.0
2019/01/19 02:05:00.000   47.480850958   19.056479954   208.0337   5  24   0.5510   0.3817   0.1964   0.1459   0.1459   0.3037   0.00    0.0
2019/01/19 02:05:30.000   47.480930793   19.056540523   194.9139   5  23   0.6636   0.4232   0.2133   0.1792   0.1792   0.4404   0.00    0.0
2019/01/19 02:06:00.000   47.480932592   19.056540708   194.8620   5  23   0.6634   0.4242   0.2149   0.1800   0.1800   0.4402   0.00    0.0
2019/01/19 02:06:30.000   47.480934856   19.056539339   194.4360   5  23   0.6633   0.4251   0.2165   0.1808   0.1808   0.4399   0.00    0.0
2019/01/19 02:07:00.000   47.480936573   19.056536172   193.8252   5  23   0.6631   0.4259   0.2181   0.1816   0.1816   0.4397   0.00    0.0
2019/01/19 02:07:30.000   47.480936867   19.056535385   193.2529   5  23   0.6628   0.4268   0.2197   0.1823   0.1823   0.4394   0.00    0.0
2019/01/19 02:08:00.000   47.480936066   19.056538242   193.1201   5  23   0.6626   0.4276   0.2213   0.1830   0.1830   0.4391   0.00    0.0
2019/01/19 02:08:30.000   47.480935014   19.056541546   193.2364   5  23   0.6624   0.4284   0.2228   0.1837   0.1837   0.4387   0.00    0.0
2019/01/19 02:09:00.000   47.480934679   19.056542465   193.4830   5  23   0.6621   0.4292   0.2243   0.1843   0.1843   0.4384   0.00    0.0
2019/01/19 02:09:30.000   47.480934508   19.056540938   193.5661   5  23   0.6618   0.4299   0.2259   0.1849   0.1849   0.4380   0.00    0.0
2019/01/19 02:10:00.000   47.480935629   19.056536205   193.3155   5  23   0.6615   0.4306   0.2273   0.1856   0.1856   0.4376   0.00    0.0
2019/01/19 02:10:30.000   47.480936409   19.056531793   193.1019   5  23   0.6612   0.4313   0.2288   0.1861   0.1861   0.4371   0.00    0.0
2019/01/19 02:11:00.000   47.480936887   19.056531232   192.9754   5  23   0.6608   0.4319   0.2303   0.1867   0.1867   0.4367   0.00    0.0
2019/01/19 02:11:30.000   47.480936672   19.056531589   192.9476   5  23   0.6604   0.4325   0.2317   0.1872   0.1872   0.4362   0.00    0.0
2019/01/19 02:12:00.000   47.480936637   19.056532662   193.1469   5  23   0.6601   0.4331   0.2332   0.1877   0.1877   0.4357   0.00    0.0
2019/01/19 02:12:30.000   47.480937042   19.056532353   193.3515   5  23   0.6597   0.4337   0.2346   0.1882   0.1882   0.4351   0.00    0.0
2019/01/19 02:13:00.000   47.480938649   19.056530092   193.3549   5  23   0.6592   0.4342   0.2360   0.1886   0.1886   0.4346   0.00    0.0
2019/01/19 02:13:30.000   47.480941520   19.056529067   193.2497   5  24   0.6586   0.4375   0.2400   0.1915   0.1915   0.4337   0.00    0.0
2019/01/19 02:14:00.000   47.480943077   19.056527068   193.0179   5  24   0.6581   0.4380   0.2414   0.1920   0.1920   0.4331   0.00    0.0
2019/01/19 02:14:30.000   47.480943540   19.056526395   192.8601   5  24   0.6576   0.4384   0.2428   0.1924   0.1924   0.4324   0.00    0.0
2019/01/19 02:15:00.000   47.480942920   19.056526102   192.8967   5  24   0.6571   0.4389   0.2441   0.1927   0.1927   0.4318   0.00    0.0
2019/01/19 02:15:30.000   47.480943347   19.056525612   192.8590   5  24   0.6566   0.4393   0.2455   0.1931   0.1931   0.4311   0.00    0.0
2019/01/19 02:16:00.000   47.480944522   19.056522604   192.7608   5  24   0.6560   0.4396   0.2468   0.1934   0.1934   0.4303   0.00    0.0
2019/01/19 02:16:30.000   47.480946246   19.056520719   192.6490   5  24   0.6554   0.4399   0.2481   0.1937   0.1937   0.4296   0.00    0.0
2019/01/19 02:17:00.000   47.480946202   19.056519961   192.8374   5  24   0.6548   0.4402   0.2494   0.1939   0.1939   0.4288   0.00    0.0
2019/01/19 02:17:30.000   47.480945687   19.056519018   193.1726   5  24   0.6542   0.4405   0.2507   0.1942   0.1942   0.4280   0.00    0.0
2019/01/19 02:18:00.000   47.480943332   19.056516730   193.0136   5  23   0.6540   0.4360   0.2508   0.1903   0.1903   0.4277   0.00    0.0
2019/01/19 02:18:30.000   47.480943071   19.056515582   193.0210   5  23   0.6533   0.4367   0.2522   0.1908   0.1908   0.4268   0.00    0.0
2019/01/19 02:19:00.000   47.480943770   19.056513758   192.9959   5  23   0.6525   0.4372   0.2535   0.1913   0.1913   0.4258   0.00    0.0
2019/01/19 02:19:30.000   47.480943919   19.056513980   193.2201   5  23   0.6518   0.4378   0.2548   0.1918   0.1918   0.4248   0.00    0.0
2019/01/19 02:20:00.000   47.480944607   19.056513156   193.4996   5  23   0.6510   0.4384   0.2562   0.1923   0.1923   0.4238   0.00    0.0
2019/01/19 02:20:30.000   47.480946847   19.056510686   193.7375   5  23   0.6503   0.4389   0.2575   0.1927   0.1927   0.4228   0.00    0.0
2019/01/19 02:21:00.000   47.480948932   19.056507442   194.2635   5  23   0.6495   0.4394   0.2588   0.1932   0.1932   0.4218   0.00    0.0
2019/01/19 02:21:30.000   47.480951425   19.056506600   194.4773   5  23   0.6487   0.4398   0.2600   0.1936   0.1936   0.4208   0.00    0.0
2019/01/19 02:22:00.000   47.480953045   19.056506494   194.9801   5  23   0.6479   0.4403   0.2613   0.1940   0.1940   0.4198   0.00    0.0
2019/01/19 02:22:30.000   47.480952312   19.056505775   195.9162   5  23   0.6471   0.4407   0.2626   0.1943   0.1943   0.4187   0.00    0.0
2019/01/19 02:23:00.000   47.480950741   19.056505613   196.9688   5  23   0.6463   0.4411   0.2638   0.1947   0.1947   0.4177   0.00    0.0
2019/01/19 02:23:30.000   47.480951175   19.056504167   197.7735   5  23   0.6454   0.4414   0.2651   0.1950   0.1950   0.4166   0.00    0.0
2019/01/19 02:24:00.000   47.480952237   19.056500873   198.1024   5  23   0.6446   0.4418   0.2663   0.1953   0.1953   0.4155   0.00    0.0
2019/01/19 02:24:30.000   47.480954616   19.056497910   198.0672   5  23   0.6437   0.4421   0.2675   0.1956   0.1956   0.4144   0.00    0.0
2019/01/19 02:25:00.000   47.480955658   19.056494530   198.0960   5  23   0.6429   0.4424   0.2687   0.1959   0.1959   0.4133   0.00    0.0
2019/01/19 02:25:30.000   47.480956987   19.056492140   198.1510   5  23   0.6420   0.4426   0.2699   0.1961   0.1961   0.4122   0.00    0.0
2019/01/19 02:26:00.000   47.480957473   19.056488979   198.4263   5  23   0.6411   0.4429   0.2711   0.1963   0.1963   0.4110   0.00    0.0
2019/01/19 02:26:30.000   47.480955769   19.056486118   199.2818   5  23   0.6402   0.4431   0.2722   0.1965   0.1965   0.4099   0.00    0.0
2019/01/19 02:27:00.000   47.480954187   19.056482527   200.2671   5  23   0.6393   0.4432   0.2734   0.1966   0.1966   0.4087   0.00    0.0
2019/01/19 02:27:30.000   47.480952850   19.056479741   201.5262   5  23   0.6384   0.4434   0.2745   0.1968   0.1968   0.4076   0.00    0.0
2019/01/19 02:28:00.000   47.480952544   19.056477651   202.7986   5  23   0.6375   0.4435   0.2757   0.1969   0.1969   0.4064   0.00    0.0
2019/01/19 02:28:30.000   47.480953821   19.056474374   203.7891   5  23   0.6366   0.4436   0.2768   0.1969   0.1969   0.4052   0.00    0.0
2019/01/19 02:29:00.000   47.480961249   19.056469151   203.6182   5  24   0.5866   0.4291   0.2264   0.1843   0.1843   0.3440   0.00    0.0
2019/01/19 02:29:30.000   47.480963993   19.056462910   204.1858   5  24   0.5860   0.4292   0.2277   0.1844   0.1844   0.3434   0.00    0.0
2019/01/19 02:30:00.000   47.480964106   19.056457898   205.3742   5  24   0.5855   0.4294   0.2290   0.1845   0.1845   0.3428   0.00    0.0
2019/01/19 02:30:30.000   47.480962889   19.056454134   206.9402   5  24   0.5849   0.4294   0.2303   0.1846   0.1846   0.3421   0.00    0.0
2019/01/19 02:31:00.000   47.480962839   19.056450702   208.7845   5  24   0.5844   0.4295   0.2316   0.1847   0.1847   0.3415   0.00    0.0
2019/01/19 02:31:30.000   47.480963726   19.056447040   210.7310   5  24   0.5838   0.4295   0.2328   0.1847   0.1847   0.3408   0.00    0.0
2019/01/19 02:32:00.000   47.480965434   19.056441066   212.6329   5  24   0.5832   0.4295   0.2341   0.1847   0.1847   0.3401   0.00    0.0
2019/01/19 02:32:30.000   47.480976765   19.056546564   192.4210   5  23   0.6539   0.5128   0.1987   0.2631   0.2631   0.4276   0.00    0.0
2019/01/19 02:33:00.000   47.480978602   19.056545841   192.3271   5  23   0.6534   0.5133   0.2008   0.2637   0.2637   0.4269   0.00    0.0
2019/01/19 02:33:30.000   47.480979647   19.056546218   192.4516   5  23   0.6529   0.5139   0.2029   0.2642   0.2642   0.4262   0.00    0.0
2019/01/19 02:34:00.000   47.480979994   19.056547113   192.7572   5  23   0.6523   0.5144   0.2049   0.2647   0.2647   0.4255   0.00    0.0
2019/01/19 02:34:30.000   47.480981044   19.056547523   193.4404   5  23   0.6517   0.5148   0.2069   0.2652   0.2652   0.4248   0.00    0.0
2019/01/19 02:35:00.000   47.480983268   19.056547051   193.8682   5  23   0.6511   0.5152   0.2089   0.2656   0.2656   0.4240   0.00    0.0
2019/01/19 02:35:30.000   47.480986582   19.056546117   194.3551   5  23   0.6505   0.5156   0.2109   0.2660   0.2660   0.4232   0.00    0.0
2019/01/19 02:36:00.000   47.480990322   19.056545694   194.9219   5  23   0.6499   0.5159   0.2128   0.2663   0.2663   0.4223   0.00    0.0
2019/01/19 02:36:30.000   47.480993149   19.056545962   195.7339   5  23   0.6492   0.5162   0.2147   0.2666   0.2666   0.4215   0.00    0.0
2019/01/19 02:37:00.000   47.480996105   19.056546436   196.3752   5  23   0.6485   0.5164   0.2165   0.2669   0.2669   0.4206   0.00    0.0
2019/01/19 02:37:30.000   47.480997108   19.056547083   197.3039   5  23   0.6478   0.5166   0.2184   0.2671   0.2671   0.4197   0.00    0.0
2019/01/19 02:38:00.000   47.480997125   19.056547976   198.2017   5  23   0.6471   0.5167   0.2202   0.2672   0.2672   0.4188   0.00    0.0
2019/01/19 02:38:30.000   47.480997428   19.056549843   198.9778   5  23   0.6464   0.5168   0.2220   0.2673   0.2673   0.4178   0.00    0.0
2019/01/19 02:39:00.000   47.480999050   19.056550829   199.4491   5  23   0.6456   0.5169   0.2237   0.2674   0.2674   0.4168   0.00    0.0
2019/01/19 02:39:30.000   47.481004210   19.056551895   200.2714   5  23   0.6448   0.5169   0.2255   0.2674   0.2674   0.4158   0.00    0.0
2019/01/19 02:40:00.000   47.481010690   19.056551346   201.4633   5  23   0.6440   0.5169   0.2272   0.2674   0.2674   0.4147   0.00    0.0
2019/01/19 02:40:30.000   47.481016893   19.056550748   203.1812   5  23   0.6432   0.5168   0.2288   0.2673   0.2673   0.4136   0.00    0.0
2019/01/19 02:41:00.000   47.480975791   19.056486436   219.7264   5  24   0.5446   0.4564   0.2322   0.2086   0.2086   0.2966   0.00    0.0
2019/01/19 02:41:30.000   47.480983197   19.056491334   221.1475   5  24   0.5443   0.4567   0.2333   0.2089   0.2089   0.2963   0.00    0.0
2019/01/19 02:42:00.000   47.480989855   19.056495232   222.2772   5  24   0.5440   0.4570   0.2343   0.2091   0.2091   0.2959   0.00    0.0
2019/01/19 02:42:30.000   47.480998348   19.056499833   223.6071   5  24   0.5436   0.4572   0.2353   0.2094   0.2094   0.2955   0.00    0.0
2019/01/19 02:43:00.000   47.481009581   19.056503993   225.1689   5  24   0.5432   0.4574   0.2363   0.2095   0.2095   0.2951   0.00    0.0
2019/01/19 02:43:30.000   47.481059660   19.056558435   214.7544   5  23   0.6377   0.5154   0.2383   0.2659   0.2659   0.4067   0.00    0.0
2019/01/19 02:44:00.000   47.481033164   19.056511982   229.0304   5  24   0.5424   0.4577   0.2382   0.2098   0.2098   0.2942   0.00    0.0
2019/01/19 02:44:30.000   47.480945805   19.056535232   183.6264   5  22   0.6656   0.6167   0.2794   0.3804   0.3804   0.4431   0.00    0.0
2019/01/19 02:45:00.000   47.481009254   19.056572021   203.8652   5  23   0.6398   0.5344   0.2290   0.2859   0.2859   0.4094   0.00    0.0
2019/01/19 02:45:30.000   47.481004567   19.056568726   202.6852   5  23   0.6394   0.5357   0.2311   0.2873   0.2873   0.4089   0.00    0.0
2019/01/19 02:46:00.000   47.481001137   19.056566941   201.7346   5  23   0.6391   0.5370   0.2332   0.2886   0.2886   0.4084   0.00    0.0
2019/01/19 02:46:30.000   47.480999361   19.056566086   201.0144   5  23   0.6387   0.5382   0.2352   0.2900   0.2900   0.4079   0.00    0.0
2019/01/19 02:47:00.000   47.480963656   19.056515319   212.9316   5  24   0.5440   0.4785   0.2338   0.2292   0.2292   0.2960   0.00    0.0
2019/01/19 02:47:30.000   47.480962426   19.056516131   212.3133   5  24   0.5440   0.4799   0.2352   0.2306   0.2306   0.2959   0.00    0.0
2019/01/19 02:48:00.000   47.480959624   19.056516677   211.8851   5  24   0.5439   0.4814   0.2365   0.2320   0.2320   0.2959   0.00    0.0
2019/01/19 02:48:30.000   47.480958366   19.056517266   211.5631   5  24   0.5439   0.4827   0.2379   0.2333   0.2333   0.2958   0.00    0.0
2019/01/19 02:49:00.000   47.480959539   19.056519213   210.7583   5  24   0.5438   0.4841   0.2393   0.2346   0.2346   0.2957   0.00    0.0
2019/01/19 02:49:30.000   47.480993273   19.056563125   198.4003   5  23   0.6360   0.5450   0.2471   0.2973   0.2973   0.4045   0.00    0.0
2019/01/19 02:50:00.000   47.480994414   19.056561245   197.9099   5  23   0.6355   0.5460   0.2490   0.2984   0.2984   0.4039   0.00    0.0
2019/01/19 02:50:30.000   47.480961875   19.056517731   209.1608   5  24   0.5435   0.4880   0.2433   0.2384   0.2384   0.2954   0.00    0.0
2019/01/19 02:51:00.000   47.480961304   19.056515627   208.7427   5  24   0.5434   0.4892   0.2446   0.2396   0.2396   0.2953   0.00    0.0
2019/01/19 02:51:30.000   47.480960735   19.056514325   208.3715   5  24   0.5433   0.4904   0.2459   0.2407   0.2407   0.2951   0.00    0.0
2019/01/19 02:52:00.000   47.480959395   19.056513875   207.9107   5  24   0.5431   0.4916   0.2472   0.2419   0.2419   0.2950   0.00    0.0
2019/01/19 02:52:30.000   47.480957132   19.056514054   207.4365   5  24   0.5430   0.4927   0.2485   0.2430   0.2430   0.2948   0.00    0.0
2019/01/19 02:53:00.000   47.480954361   19.056514832   206.9524   5  24   0.5428   0.4938   0.2498   0.2440   0.2440   0.2946   0.00    0.0
2019/01/19 02:53:30.000   47.480953053   19.056512581   206.2627   5  24   0.5426   0.4948   0.2510   0.2451   0.2451   0.2944   0.00    0.0
2019/01/19 02:54:00.000   47.480951305   19.056510938   205.7266   5  24   0.5424   0.4958   0.2523   0.2461   0.2461   0.2942   0.00    0.0
2019/01/19 02:54:30.000   47.480950383   19.056509740   205.2136   5  24   0.5422   0.4968   0.2535   0.2470   0.2470   0.2939   0.00    0.0
2019/01/19 02:55:00.000   47.480949293   19.056509367   204.7524   5  24   0.5419   0.4977   0.2548   0.2479   0.2479   0.2937   0.00    0.0
2019/01/19 02:55:30.000   47.480948717   19.056509630   204.5482   5  24   0.5417   0.4986   0.2560   0.2488   0.2488   0.2934   0.00    0.0
2019/01/19 02:56:00.000   47.480947005   19.056509730   204.1730   5  24   0.5414   0.4994   0.2572   0.2496   0.2496   0.2931   0.00    0.0
2019/01/19 02:56:30.000   47.480945505   19.056509082   203.5239   5  24   0.5411   0.5002   0.2584   0.2504   0.2504   0.2928   0.00    0.0
2019/01/19 02:57:00.000   47.480944318   19.056507685   202.6293   5  24   0.5408   0.5009   0.2595   0.2512   0.2512   0.2925   0.00    0.0
2019/01/19 02:57:30.000   47.480942494   19.056507340   202.3038   5  24   0.5405   0.5016   0.2607   0.2518   0.2518   0.2921   0.00    0.0
2019/01/19 02:58:00.000   47.480941333   19.056507882   202.0856   5  24   0.5401   0.5023   0.2618   0.2525   0.2525   0.2917   0.00    0.0
2019/01/19 02:58:30.000   47.480940290   19.056508533   201.8800   5  24   0.5397   0.5028   0.2629   0.2531   0.2531   0.2913   0.00    0.0
2019/01/19 02:59:00.000   47.480940416   19.056507693   201.6461   5  24   0.5394   0.5034   0.2641   0.2536   0.2536   0.2909   0.00    0.0
2019/01/19 02:59:30.000   47.480940640   19.056508216   201.5452   5  24   0.5390   0.5039   0.2651   0.2541   0.2541   0.2905   0.00    0.0
2019/01/19 03:00:00.000   47.480940376   19.056509478   201.3067   5  24   0.5385   0.5043   0.2662   0.2546   0.2546   0.2900   0.00    0.0
2019/01/19 03:00:30.000   47.480939860   19.056510426   201.0881   5  24   0.5381   0.5047   0.2673   0.2550   0.2550   0.2895   0.00    0.0
2019/01/19 03:01:00.000   47.480939764   19.056511479   201.0679   5  24   0.5376   0.5050   0.2683   0.2553   0.2553   0.2890   0.00    0.0
2019/01/19 03:01:30.000   47.480939811   19.056510794   201.2565   5  24   0.5371   0.5053   0.2693   0.2556   0.2556   0.2885   0.00    0.0
2019/01/19 03:02:00.000   47.480940196   19.056509097   201.5133   5  24   0.5366   0.5055   0.2703   0.2558   0.2558   0.2880   0.00    0.0
2019/01/19 03:02:30.000   47.480940293   19.056508114   201.7185   5  24   0.5361   0.5057   0.2713   0.2559   0.2559   0.2874   0.00    0.0
2019/01/19 03:03:00.000   47.480939885   19.056507460   201.8627   5  24   0.5356   0.5058   0.2722   0.2561   0.2561   0.2868   0.00    0.0
2019/01/19 03:03:30.000   47.480938959   19.056507196   201.8476   5  24   0.5350   0.5058   0.2732   0.2561   0.2561   0.2862   0.00    0.0
2019/01/19 03:04:00.000   47.480938889   19.056505333   201.7345   5  24   0.5344   0.5058   0.2741   0.2561   0.2561   0.2856   0.00    0.0
2019/01/19 03:04:30.000   47.480938307   19.056504214   201.5445   5  24   0.5338   0.5058   0.2750   0.2560   0.2560   0.2850   0.00    0.0
2019/01/19 03:05:00.000   47.480937170   19.056503389   201.4478   5  24   0.5332   0.5056   0.2758   0.2559   0.2559   0.2843   0.00    0.0
2019/01/19 03:05:30.000   47.480936175   19.056502023   201.3620   5  24   0.5326   0.5054   0.2767   0.2557   0.2557   0.2836   0.00    0.0
2019/01/19 03:06:00.000   47.480936430   19.056500595   201.7578   5  24   0.5319   0.5052   0.2775   0.2554   0.2554   0.2829   0.00    0.0
2019/01/19 03:06:30.000   47.480937911   19.056499309   202.1901   5  24   0.5312   0.5049   0.2783   0.2551   0.2551   0.2822   0.00    0.0
2019/01/19 03:07:00.000   47.480938844   19.056498680   202.3484   5  24   0.5305   0.5045   0.2791   0.2547   0.2547   0.2814   0.00    0.0
2019/01/19 03:07:30.000   47.480942747   19.056504194   203.2977   5  25   0.5207   0.4655   0.2566   0.2169   0.2169   0.2711   0.00    0.0
2019/01/19 03:08:00.000   47.480941097   19.056504988   203.2825   5  25   0.5200   0.4653   0.2575   0.2167   0.2167   0.2704   0.00    0.0
2019/01/19 03:08:30.000   47.480933985   19.056485468   206.3537   5  23   0.6258   0.5452   0.2053   0.2976   0.2976   0.3917   0.00    0.0
2019/01/19 03:09:00.000   47.480933841   19.056485300   206.1931   5  23   0.6259   0.5462   0.2068   0.2986   0.2986   0.3918   0.00    0.0
2019/01/19 03:09:30.000   47.480934829   19.056482524   206.0110   5  23   0.6259   0.5471   0.2083   0.2996   0.2996   0.3918   0.00    0.0
2019/01/19 03:10:00.000   47.480934333   19.056481149   205.8853   5  23   0.6260   0.5480   0.2097   0.3006   0.3006   0.3918   0.00    0.0
2019/01/19 03:10:30.000   47.480933977   19.056481930   205.6318   5  23   0.6259   0.5488   0.2112   0.3015   0.3015   0.3918   0.00    0.0
2019/01/19 03:11:00.000   47.480934241   19.056482531   205.4900   5  23   0.6259   0.5495   0.2126   0.3023   0.3023   0.3917   0.00    0.0
2019/01/19 03:11:30.000   47.480934808   19.056482563   205.5869   5  23   0.6258   0.5502   0.2140   0.3031   0.3031   0.3916   0.00    0.0
2019/01/19 03:12:00.000   47.480934642   19.056482826   205.3754   5  23   0.6257   0.5509   0.2154   0.3038   0.3038   0.3915   0.00    0.0
2019/01/19 03:12:30.000   47.480933956   19.056483334   205.1407   5  23   0.6256   0.5514   0.2167   0.3044   0.3044   0.3914   0.00    0.0
2019/01/19 03:13:00.000   47.480932514   19.056483939   205.0574   5  23   0.6254   0.5520   0.2181   0.3050   0.3050   0.3912   0.00    0.0
2019/01/19 03:13:30.000   47.480931582   19.056485806   205.0347   5  23   0.6253   0.5524   0.2194   0.3055   0.3055   0.3909   0.00    0.0
2019/01/19 03:14:00.000   47.480931178   19.056487028   205.1665   5  23   0.6250   0.5528   0.2207   0.3059   0.3059   0.3907   0.00    0.0
2019/01/19 03:14:30.000   47.480930775   19.056487330   205.0663   5  23   0.6248   0.5532   0.2220   0.3063   0.3063   0.3904   0.00    0.0
2019/01/19 03:15:00.000   47.480929828   19.056487802   204.9149   5  23   0.6245   0.5535   0.2233   0.3066   0.3066   0.3900   0.00    0.0
2019/01/19 03:15:30.000   47.480928513   19.056487609   204.7055   5  23   0.6242   0.5537   0.2245   0.3069   0.3069   0.3897   0.00    0.0
2019/01/19 03:16:00.000   47.480927697   19.056487754   204.5602   5  23   0.6239   0.5538   0.2257   0.3071   0.3071   0.3893   0.00    0.0
2019/01/19 03:16:30.000   47.480927594   19.056488261   204.0633   5  23   0.6235   0.5540   0.2270   0.3072   0.3072   0.3888   0.00    0.0
2019/01/19 03:17:00.000   47.480928553   19.056486951   203.5873   5  23   0.6232   0.5540   0.2281   0.3072   0.3072   0.3883   0.00    0.0
2019/01/19 03:17:30.000   47.480929175   19.056486559   203.2824   5  23   0.6227   0.5540   0.2293   0.3072   0.3072   0.3878   0.00    0.0
2019/01/19 03:18:00.000   47.480928473   19.056488206   203.1552   5  23   0.6223   0.5539   0.2304   0.3071   0.3071   0.3873   0.00    0.0
2019/01/19 03:18:30.000   47.480927531   19.056489822   203.2807   5  23   0.6218   0.5537   0.2316   0.3069   0.3069   0.3867   0.00    0.0
2019/01/19 03:19:00.000   47.480926784   19.056490666   203.5076   5  23   0.6213   0.5535   0.2327   0.3067   0.3067   0.3861   0.00    0.0
2019/01/19 03:19:30.000   47.480928119   19.056490893   203.6997   5  23   0.6208   0.5532   0.2338   0.3064   0.3064   0.3854   0.00    0.0
2019/01/19 03:20:00.000   47.480928389   19.056490323   203.9626   5  23   0.6202   0.5529   0.2348   0.3060   0.3060   0.3847   0.00    0.0
2019/01/19 03:20:30.000   47.480927764   19.056490060   204.3242   5  23   0.6197   0.5525   0.2359   0.3056   0.3056   0.3840   0.00    0.0
2019/01/19 03:21:00.000   47.480926531   19.056490079   204.3354   5  23   0.6190   0.5520   0.2369   0.3051   0.3051   0.3832   0.00    0.0
2019/01/19 03:21:30.000   47.480924925   19.056490425   204.3145   5  23   0.6184   0.5515   0.2379   0.3045   0.3045   0.3824   0.00    0.0
2019/01/19 03:22:00.000   47.480922737   19.056489441   204.6769   5  23   0.6177   0.5509   0.2388   0.3038   0.3038   0.3816   0.00    0.0
2019/01/19 03:22:30.000   47.480923171   19.056491347   204.4765   5  23   0.6170   0.5503   0.2398   0.3031   0.3031   0.3807   0.00    0.0
2019/01/19 03:23:00.000   47.480922570   19.056491922   204.2876   5  23   0.6163   0.5496   0.2407   0.3023   0.3023   0.3798   0.00    0.0
2019/01/19 03:23:30.000   47.480921705   19.056490841   203.8551   5  23   0.6155   0.5488   0.2416   0.3015   0.3015   0.3789   0.00    0.0
2019/01/19 03:24:00.000   47.480921320   19.056490040   203.8427   5  23   0.6148   0.5480   0.2425   0.3006   0.3006   0.3779   0.00    0.0
2019/01/19 03:24:30.000   47.480921234   19.056489251   204.1655   5  23   0.6140   0.5471   0.2434   0.2996   0.2996   0.3770   0.00    0.0
2019/01/19 03:25:00.000   47.480920972   19.056489098   204.5151   5  23   0.6131   0.5461   0.2442   0.2985   0.2985   0.3759   0.00    0.0
2019/01/19 03:25:30.000   47.480920243   19.056489651   204.8954   5  23   0.6123   0.5451   0.2450   0.2974   0.2974   0.3749   0.00    0.0
2019/01/19 03:26:00.000   47.480920755   19.056490193   205.0952   5  23   0.6114   0.5440   0.2458   0.2963   0.2963   0.3738   0.00    0.0
2019/01/19 03:26:30.000   47.480921455   19.056489764   204.9316   5  23   0.6105   0.5429   0.2466   0.2950   0.2950   0.3727   0.00    0.0
2019/01/19 03:27:00.000   47.480920172   19.056490447   205.0768   5  23   0.6096   0.5417   0.2473   0.2938   0.2938   0.3716   0.00    0.0
2019/01/19 03:27:30.000   47.480918974   19.056490753   205.3031   5  23   0.6086   0.5405   0.2481   0.2924   0.2924   0.3704   0.00    0.0
2019/01/19 03:28:00.000   47.480917536   19.056492886   205.7343   5  23   0.6077   0.5392   0.2488   0.2910   0.2910   0.3693   0.00    0.0
2019/01/19 03:28:30.000   47.480916490   19.056495553   206.0838   5  23   0.6067   0.5378   0.2495   0.2896   0.2896   0.3680   0.00    0.0
2019/01/19 03:29:00.000   47.480916231   19.056495945   206.2975   5  23   0.6057   0.5364   0.2501   0.2880   0.2880   0.3668   0.00    0.0
2019/01/19 03:29:30.000   47.480916182   19.056494043   206.4004   5  23   0.6046   0.5350   0.2508   0.2865   0.2865   0.3656   0.00    0.0
