% program   : GINA 1.0 gpstk's raw solution
% inp file  : C:\Users\lus2bp\Source\Repos\GINA\70_EGNOS_Project\files\PositionComparisonInputFiles\bute0190\bute0190.19o
% inp file  : C:\Users\lus2bp\Source\Repos\GINA\70_EGNOS_Project\files\PositionComparisonInputFiles\bute0190\brdc0190.19n
% obs start : 2019/01/19 00:00:00.0 GPST (week2036 518400.0s)
% obs end   : 2019/01/19 23:59:30.0 GPST (week2036 604770.0s)
% pos mode  : single
% elev mask : 10.0 deg
% ionos opt : Zero
% tropo opt : Saas
% ephemeris : broadcasted
% (lat/lon/height=WGS84/ellipsoidal,Q=1:fix,2:float,3:sbas,4:dgps,5:single,6:ppp,ns=# of satellites)
%  GPST                  latitude(deg) longitude(deg)  height(m)   Q  ns   sdn(m)   sde(m)   sdu(m)  sdne(m)  sdeu(m)  sdun(m) age(s)  ratio
2019/01/19 00:00:00.000   47.480973458   19.056564661   182.0312   5  10   0.7392   0.6804   1.2018  -0.1084   0.1636  -0.6104   0.00    0.0
2019/01/19 00:00:30.000   47.480969647   19.056568961   184.5892   5   8   0.8738   0.9091   1.5903  -0.3665   0.6805  -0.8645   0.00    0.0
2019/01/19 00:01:00.000   47.480971326   19.056569787   184.8355   5   8   0.8772   0.9111   1.5982  -0.3722   0.6933  -0.8740   0.00    0.0
2019/01/19 00:01:30.000   47.480971457   19.056571750   184.8393   5   8   0.8806   0.9130   1.6060  -0.3779   0.7060  -0.8837   0.00    0.0
2019/01/19 00:02:00.000   47.480971904   19.056570836   184.9518   5   8   0.8838   0.9150   1.6137  -0.3836   0.7188  -0.8930   0.00    0.0
2019/01/19 00:02:30.000   47.480972742   19.056569756   185.6663   5   8   0.8871   0.9171   1.6213  -0.3892   0.7317  -0.9022   0.00    0.0
2019/01/19 00:03:00.000   47.480972827   19.056568487   185.7965   5   8   0.8903   0.9192   1.6288  -0.3949   0.7445  -0.9113   0.00    0.0
2019/01/19 00:03:30.000   47.480973386   19.056564209   185.5123   5   8   0.8933   0.9213   1.6363  -0.4006   0.7575  -0.9200   0.00    0.0
2019/01/19 00:04:00.000   47.480973174   19.056561449   185.3636   5   8   0.8965   0.9235   1.6435  -0.4062   0.7703  -0.9288   0.00    0.0
2019/01/19 00:04:30.000   47.480972519   19.056562201   185.3301   5   8   0.8998   0.9256   1.6505  -0.4121   0.7830  -0.9379   0.00    0.0
2019/01/19 00:05:00.000   47.480970856   19.056561382   185.3139   5   8   0.9030   0.9278   1.6574  -0.4178   0.7956  -0.9467   0.00    0.0
2019/01/19 00:05:30.000   47.480968721   19.056563780   185.5319   5   8   0.9065   0.9299   1.6640  -0.4237   0.8079  -0.9557   0.00    0.0
2019/01/19 00:06:00.000   47.480967624   19.056566194   185.8832   5   8   0.9099   0.9321   1.6704  -0.4296   0.8203  -0.9646   0.00    0.0
2019/01/19 00:06:30.000   47.480967170   19.056566817   185.9615   5   8   0.9131   0.9343   1.6767  -0.4354   0.8326  -0.9731   0.00    0.0
2019/01/19 00:07:00.000   47.480967791   19.056567192   185.7585   5   8   0.9163   0.9366   1.6828  -0.4412   0.8449  -0.9813   0.00    0.0
2019/01/19 00:07:30.000   47.480969056   19.056564720   185.7467   5   8   0.9193   0.9389   1.6888  -0.4469   0.8572  -0.9889   0.00    0.0
2019/01/19 00:08:00.000   47.480969611   19.056562396   185.7534   5   8   0.9223   0.9412   1.6945  -0.4525   0.8693  -0.9964   0.00    0.0
2019/01/19 00:08:30.000   47.480969047   19.056562930   185.8467   5   8   0.9254   0.9434   1.6999  -0.4582   0.8811  -1.0040   0.00    0.0
2019/01/19 00:09:00.000   47.480968469   19.056562897   185.9165   5   8   0.9285   0.9457   1.7051  -0.4639   0.8928  -1.0114   0.00    0.0
2019/01/19 00:09:30.000   47.480968028   19.056563460   186.2219   5   8   0.9316   0.9479   1.7101  -0.4695   0.9042  -1.0185   0.00    0.0
2019/01/19 00:10:00.000   47.480967633   19.056564819   186.5533   5   8   0.9347   0.9502   1.7147  -0.4752   0.9154  -1.0256   0.00    0.0
2019/01/19 00:10:30.000   47.480968683   19.056564365   186.7463   5   8   0.9375   0.9524   1.7192  -0.4807   0.9265  -1.0320   0.00    0.0
2019/01/19 00:11:00.000   47.480969686   19.056562636   186.4104   5   8   0.9403   0.9547   1.7235  -0.4861   0.9374  -1.0380   0.00    0.0
2019/01/19 00:11:30.000   47.480969822   19.056563062   185.9498   5   8   0.9432   0.9569   1.7274  -0.4915   0.9479  -1.0440   0.00    0.0
2019/01/19 00:12:00.000   47.480969872   19.056564932   185.8532   5   8   0.9462   0.9591   1.7310  -0.4969   0.9581  -1.0499   0.00    0.0
2019/01/19 00:12:30.000   47.480969726   19.056565576   185.6565   5   8   0.9490   0.9613   1.7343  -0.5022   0.9680  -1.0553   0.00    0.0
2019/01/19 00:13:00.000   47.480969839   19.056567165   185.4769   5   8   0.9518   0.9634   1.7373  -0.5075   0.9776  -1.0605   0.00    0.0
2019/01/19 00:13:30.000   47.480969068   19.056571128   185.6835   5   8   0.9548   0.9654   1.7400  -0.5127   0.9868  -1.0657   0.00    0.0
2019/01/19 00:14:00.000   47.480969255   19.056572486   185.8303   5   8   0.9575   0.9675   1.7424  -0.5178   0.9957  -1.0702   0.00    0.0
2019/01/19 00:14:30.000   47.480970212   19.056572806   185.8812   5   8   0.9601   0.9695   1.7445  -0.5227   1.0044  -1.0741   0.00    0.0
2019/01/19 00:15:00.000   47.480970584   19.056572367   185.7778   5   8   0.9626   0.9715   1.7464  -0.5275   1.0128  -1.0777   0.00    0.0
2019/01/19 00:15:30.000   47.480970015   19.056570303   185.5091   5   8   0.9650   0.9735   1.7480  -0.5321   1.0208  -1.0807   0.00    0.0
2019/01/19 00:16:00.000   47.480970235   19.056568536   185.3548   5   8   0.9673   0.9754   1.7493  -0.5367   1.0285  -1.0833   0.00    0.0
2019/01/19 00:16:30.000   47.480970469   19.056566899   184.6331   5   8   0.9696   0.9772   1.7503  -0.5411   1.0358  -1.0855   0.00    0.0
2019/01/19 00:17:00.000   47.480968889   19.056568621   184.1601   5   8   0.9720   0.9790   1.7508  -0.5455   1.0424  -1.0879   0.00    0.0
2019/01/19 00:17:30.000   47.480967738   19.056568277   184.0961   5   8   0.9743   0.9807   1.7511  -0.5497   1.0487  -1.0896   0.00    0.0
2019/01/19 00:18:00.000   47.480967219   19.056568385   184.1179   5   8   0.9766   0.9823   1.7510  -0.5539   1.0546  -1.0910   0.00    0.0
2019/01/19 00:18:30.000   47.480966575   19.056569584   184.1930   5   8   0.9788   0.9839   1.7506  -0.5579   1.0601  -1.0920   0.00    0.0
2019/01/19 00:19:00.000   47.480965069   19.056569660   184.3247   5   8   0.9810   0.9854   1.7499  -0.5618   1.0651  -1.0926   0.00    0.0
2019/01/19 00:19:30.000   47.480964409   19.056567737   184.3039   5   8   0.9829   0.9869   1.7490  -0.5654   1.0698  -1.0925   0.00    0.0
2019/01/19 00:20:00.000   47.480964237   19.056566872   184.2172   5   8   0.9849   0.9883   1.7477  -0.5690   1.0741  -1.0921   0.00    0.0
2019/01/19 00:20:30.000   47.480964489   19.056566188   184.0826   5   8   0.9867   0.9896   1.7461  -0.5724   1.0779  -1.0913   0.00    0.0
2019/01/19 00:21:00.000   47.480964026   19.056566412   184.0936   5   8   0.9886   0.9909   1.7441  -0.5757   1.0813  -1.0903   0.00    0.0
2019/01/19 00:21:30.000   47.480962390   19.056568543   184.4897   5   8   0.9907   0.9920   1.7418  -0.5790   1.0840  -1.0892   0.00    0.0
2019/01/19 00:22:00.000   47.480961353   19.056569771   184.8049   5   8   0.9925   0.9931   1.7392  -0.5821   1.0863  -1.0875   0.00    0.0
2019/01/19 00:22:30.000   47.480960911   19.056571496   184.8540   5   8   0.9944   0.9941   1.7363  -0.5851   1.0882  -1.0855   0.00    0.0
2019/01/19 00:23:00.000   47.480961839   19.056569752   184.6143   5   8   0.9959   0.9952   1.7331  -0.5878   1.0900  -1.0826   0.00    0.0
2019/01/19 00:23:30.000   47.480962456   19.056567564   184.2813   5   8   0.9974   0.9961   1.7297  -0.5903   1.0913  -1.0793   0.00    0.0
2019/01/19 00:24:00.000   47.480962630   19.056566910   184.1942   5   8   0.9989   0.9970   1.7260  -0.5928   1.0920  -1.0758   0.00    0.0
2019/01/19 00:24:30.000   47.480962038   19.056567308   184.1064   5   8   1.0005   0.9977   1.7220  -0.5952   1.0923  -1.0722   0.00    0.0
2019/01/19 00:25:00.000   47.480960908   19.056570351   184.2578   5   8   1.0022   0.9983   1.7176  -0.5975   1.0919  -1.0686   0.00    0.0
2019/01/19 00:25:30.000   47.480960354   19.056573218   184.4875   5   8   1.0038   0.9989   1.7129  -0.5998   1.0912  -1.0645   0.00    0.0
2019/01/19 00:26:00.000   47.480959560   19.056573582   184.4423   5   8   1.0052   0.9994   1.7081  -0.6017   1.0902  -1.0599   0.00    0.0
2019/01/19 00:26:30.000   47.480959336   19.056570864   184.0769   5   8   1.0064   0.9999   1.7031  -0.6034   1.0889  -1.0546   0.00    0.0
2019/01/19 00:27:00.000   47.480958898   19.056567941   183.9076   5   8   1.0076   1.0002   1.6979  -0.6049   1.0873  -1.0489   0.00    0.0
2019/01/19 00:27:30.000   47.480958780   19.056567159   183.9978   5   8   1.0088   1.0006   1.6923  -0.6065   1.0852  -1.0432   0.00    0.0
2019/01/19 00:28:00.000   47.480959819   19.056565290   183.9445   5   8   1.0099   1.0009   1.6866  -0.6078   1.0829  -1.0370   0.00    0.0
2019/01/19 00:28:30.000   47.480960351   19.056564462   183.8119   5   8   1.0111   1.0010   1.6806  -0.6091   1.0801  -1.0307   0.00    0.0
2019/01/19 00:29:00.000   47.480961252   19.056562985   183.4666   5   8   1.0121   1.0012   1.6744  -0.6102   1.0770  -1.0240   0.00    0.0
2019/01/19 00:29:30.000   47.480962509   19.056563714   183.3226   5   8   1.0133   1.0013   1.6680  -0.6114   1.0735  -1.0173   0.00    0.0
2019/01/19 00:30:00.000   47.480963360   19.056564762   183.1782   5   8   1.0144   1.0012   1.6613  -0.6124   1.0696  -1.0104   0.00    0.0
2019/01/19 00:30:30.000   47.480962349   19.056566959   183.1429   5   8   1.0157   1.0011   1.6545  -0.6134   1.0652  -1.0035   0.00    0.0
2019/01/19 00:31:00.000   47.480960356   19.056569516   183.3305   5   8   1.0170   1.0008   1.6474  -0.6143   1.0605  -0.9965   0.00    0.0
2019/01/19 00:31:30.000   47.480961086   19.056565409   183.1722   5   8   1.0178   1.0006   1.6404  -0.6148   1.0559  -0.9884   0.00    0.0
2019/01/19 00:32:00.000   47.480959298   19.056565270   183.0582   5   8   1.0189   1.0003   1.6330  -0.6153   1.0508  -0.9807   0.00    0.0
2019/01/19 00:32:30.000   47.480956287   19.056567258   182.8289   5   8   1.0202   0.9998   1.6255  -0.6159   1.0451  -0.9732   0.00    0.0
2019/01/19 00:33:00.000   47.480953939   19.056569205   182.7401   5   8   1.0214   0.9993   1.6179  -0.6164   1.0393  -0.9653   0.00    0.0
2019/01/19 00:33:30.000   47.480953155   19.056571015   182.9034   5   8   1.0225   0.9988   1.6101  -0.6168   1.0333  -0.9573   0.00    0.0
2019/01/19 00:34:00.000   47.480953385   19.056571963   183.0423   5   8   1.0235   0.9982   1.6022  -0.6171   1.0272  -0.9489   0.00    0.0
2019/01/19 00:34:30.000   47.480954856   19.056569658   182.8715   5   8   1.0244   0.9977   1.5942  -0.6172   1.0211  -0.9401   0.00    0.0
2019/01/19 00:35:00.000   47.480955209   19.056568930   183.0558   5   8   1.0253   0.9971   1.5862  -0.6173   1.0147  -0.9313   0.00    0.0
2019/01/19 00:35:30.000   47.480954876   19.056568001   182.9957   5   8   1.0262   0.9964   1.5780  -0.6173   1.0080  -0.9224   0.00    0.0
2019/01/19 00:36:00.000   47.480954418   19.056566511   182.7271   5   8   1.0272   0.9957   1.5698  -0.6172   1.0012  -0.9134   0.00    0.0
2019/01/19 00:36:30.000   47.480954208   19.056564873   182.5073   5   8   1.0281   0.9949   1.5614  -0.6170   0.9942  -0.9043   0.00    0.0
2019/01/19 00:37:00.000   47.480953812   19.056563958   182.4446   5   8   1.0290   0.9941   1.5530  -0.6168   0.9870  -0.8952   0.00    0.0
2019/01/19 00:37:30.000   47.480953594   19.056563450   182.4739   5   8   1.0300   0.9933   1.5445  -0.6166   0.9797  -0.8861   0.00    0.0
2019/01/19 00:38:00.000   47.480953377   19.056566113   182.6529   5   8   1.0311   0.9923   1.5358  -0.6165   0.9721  -0.8771   0.00    0.0
2019/01/19 00:38:30.000   47.480954563   19.056567690   182.7787   5   8   1.0322   0.9914   1.5271  -0.6163   0.9645  -0.8680   0.00    0.0
2019/01/19 00:39:00.000   47.480954710   19.056567757   182.8314   5   8   1.0332   0.9905   1.5184  -0.6160   0.9567  -0.8587   0.00    0.0
2019/01/19 00:39:30.000   47.480953762   19.056566936   182.7346   5   8   1.0342   0.9894   1.5097  -0.6156   0.9489  -0.8494   0.00    0.0
2019/01/19 00:40:00.000   47.480954403   19.056564348   182.5095   5   8   1.0351   0.9884   1.5010  -0.6151   0.9411  -0.8398   0.00    0.0
2019/01/19 00:40:30.000   47.480954403   19.056564888   182.5808   5   8   1.0362   0.9874   1.4922  -0.6147   0.9331  -0.8305   0.00    0.0
2019/01/19 00:41:00.000   47.480954143   19.056568465   182.6389   5   8   1.0374   0.9862   1.4833  -0.6144   0.9249  -0.8214   0.00    0.0
2019/01/19 00:41:30.000   47.480954630   19.056568792   182.1953   5   8   1.0385   0.9851   1.4745  -0.6140   0.9167  -0.8120   0.00    0.0
2019/01/19 00:42:00.000   47.480952631   19.056570142   182.0501   5   8   1.0397   0.9839   1.4656  -0.6135   0.9083  -0.8028   0.00    0.0
2019/01/19 00:42:30.000   47.480951063   19.056570515   182.1392   5   8   1.0409   0.9826   1.4567  -0.6130   0.9000  -0.7935   0.00    0.0
2019/01/19 00:43:00.000   47.480951720   19.056569149   182.2976   5   8   1.0419   0.9815   1.4479  -0.6124   0.8918  -0.7840   0.00    0.0
2019/01/19 00:43:30.000   47.480955526   19.056569174   182.7568   5   8   1.0430   0.9804   1.4390  -0.6119   0.8836  -0.7745   0.00    0.0
2019/01/19 00:44:00.000   47.480958423   19.056566980   182.7123   5   8   1.0439   0.9793   1.4302  -0.6113   0.8755  -0.7649   0.00    0.0
2019/01/19 00:44:30.000   47.480959780   19.056564158   182.3752   5   8   1.0450   0.9781   1.4214  -0.6106   0.8673  -0.7554   0.00    0.0
2019/01/19 00:45:00.000   47.480958662   19.056565622   182.2355   5   8   1.0463   0.9767   1.4126  -0.6101   0.8588  -0.7463   0.00    0.0
2019/01/19 00:45:30.000   47.480957864   19.056567505   182.2496   5   8   1.0476   0.9754   1.4037  -0.6096   0.8502  -0.7372   0.00    0.0
2019/01/19 00:46:00.000   47.480958179   19.056568020   182.4431   5   8   1.0489   0.9741   1.3949  -0.6091   0.8418  -0.7280   0.00    0.0
2019/01/19 00:46:30.000   47.480957905   19.056568673   182.5288   5   8   1.0502   0.9727   1.3862  -0.6085   0.8334  -0.7189   0.00    0.0
2019/01/19 00:47:00.000   47.480957712   19.056557627   180.6013   5   9   0.7265   0.8914   1.2036  -0.3142   0.5666  -0.2001   0.00    0.0
2019/01/19 00:47:30.000   47.480957180   19.056557387   180.6951   5   9   0.7284   0.8913   1.2006  -0.3160   0.5651  -0.2006   0.00    0.0
2019/01/19 00:48:00.000   47.480957204   19.056556655   180.6754   5   9   0.7303   0.8912   1.1975  -0.3178   0.5635  -0.2009   0.00    0.0
2019/01/19 00:48:30.000   47.480958439   19.056554742   180.7231   5   9   0.7322   0.8911   1.1943  -0.3195   0.5619  -0.2012   0.00    0.0
2019/01/19 00:49:00.000   47.480959225   19.056555107   180.6732   5   9   0.7341   0.8909   1.1911  -0.3213   0.5601  -0.2015   0.00    0.0
2019/01/19 00:49:30.000   47.480959573   19.056556868   180.8007   5   9   0.7360   0.8907   1.1877  -0.3231   0.5582  -0.2019   0.00    0.0
2019/01/19 00:50:00.000   47.480958359   19.056557877   180.7957   5   9   0.7380   0.8904   1.1843  -0.3249   0.5562  -0.2023   0.00    0.0
2019/01/19 00:50:30.000   47.480957609   19.056559357   180.9706   5   9   0.7399   0.8902   1.1809  -0.3267   0.5542  -0.2027   0.00    0.0
2019/01/19 00:51:00.000   47.480957801   19.056559671   180.9675   5   9   0.7419   0.8899   1.1774  -0.3284   0.5520  -0.2029   0.00    0.0
2019/01/19 00:51:30.000   47.480957475   19.056560602   181.0850   5   9   0.7438   0.8896   1.1738  -0.3302   0.5498  -0.2032   0.00    0.0
2019/01/19 00:52:00.000   47.480955675   19.056561770   180.9681   5   9   0.7458   0.8893   1.1701  -0.3320   0.5475  -0.2035   0.00    0.0
2019/01/19 00:52:30.000   47.480954606   19.056561221   180.8446   5   9   0.7478   0.8889   1.1664  -0.3337   0.5452  -0.2036   0.00    0.0
2019/01/19 00:53:00.000   47.480953955   19.056560315   180.7057   5   9   0.7497   0.8885   1.1627  -0.3353   0.5428  -0.2037   0.00    0.0
2019/01/19 00:53:30.000   47.480955011   19.056559576   180.4896   5   9   0.7516   0.8882   1.1589  -0.3370   0.5404  -0.2038   0.00    0.0
2019/01/19 00:54:00.000   47.480956249   19.056560177   180.3360   5   9   0.7535   0.8878   1.1550  -0.3386   0.5378  -0.2038   0.00    0.0
2019/01/19 00:54:30.000   47.480956798   19.056561424   180.2836   5   9   0.7555   0.8875   1.1511  -0.3403   0.5352  -0.2039   0.00    0.0
2019/01/19 00:55:00.000   47.480955952   19.056561345   180.2957   5   9   0.7575   0.8870   1.1472  -0.3419   0.5326  -0.2040   0.00    0.0
2019/01/19 00:55:30.000   47.480955200   19.056559835   180.1169   5   9   0.7594   0.8866   1.1432  -0.3435   0.5299  -0.2039   0.00    0.0
2019/01/19 00:56:00.000   47.480954797   19.056559732   180.1781   5   9   0.7614   0.8861   1.1392  -0.3451   0.5271  -0.2039   0.00    0.0
2019/01/19 00:56:30.000   47.480953481   19.056558897   180.3843   5   9   0.7633   0.8856   1.1352  -0.3467   0.5243  -0.2039   0.00    0.0
2019/01/19 00:57:00.000   47.480953245   19.056558082   180.2732   5   9   0.7653   0.8851   1.1311  -0.3483   0.5215  -0.2038   0.00    0.0
2019/01/19 00:57:30.000   47.480954055   19.056558136   179.9405   5   9   0.7672   0.8846   1.1270  -0.3498   0.5186  -0.2036   0.00    0.0
2019/01/19 00:58:00.000   47.480954577   19.056557477   179.6274   5   9   0.7691   0.8841   1.1228  -0.3514   0.5157  -0.2035   0.00    0.0
2019/01/19 00:58:30.000   47.480954212   19.056556464   179.1723   5   9   0.7711   0.8836   1.1186  -0.3529   0.5127  -0.2033   0.00    0.0
2019/01/19 00:59:00.000   47.480953862   19.056555150   178.9284   5   9   0.7730   0.8830   1.1144  -0.3544   0.5097  -0.2031   0.00    0.0
2019/01/19 00:59:30.000   47.480955684   19.056555256   178.6192   5   9   0.7749   0.8825   1.1102  -0.3559   0.5067  -0.2028   0.00    0.0
2019/01/19 01:00:00.000   47.480956966   19.056554769   178.9295   5   9   0.7768   0.8819   1.1060  -0.3573   0.5036  -0.2026   0.00    0.0
2019/01/19 01:00:30.000   47.480958712   19.056553285   179.3242   5   9   0.7787   0.8814   1.1017  -0.3587   0.5005  -0.2022   0.00    0.0
2019/01/19 01:01:00.000   47.480961005   19.056551893   179.2975   5   9   0.7806   0.8808   1.0975  -0.3601   0.4974  -0.2019   0.00    0.0
2019/01/19 01:01:30.000   47.480961989   19.056550455   179.2850   5   9   0.7825   0.8802   1.0932  -0.3615   0.4943  -0.2015   0.00    0.0
2019/01/19 01:02:00.000   47.480961930   19.056550361   179.3661   5   9   0.7844   0.8796   1.0889  -0.3629   0.4911  -0.2012   0.00    0.0
2019/01/19 01:02:30.000   47.480961086   19.056550212   179.4285   5   9   0.7863   0.8789   1.0845  -0.3644   0.4879  -0.2010   0.00    0.0
2019/01/19 01:03:00.000   47.480960588   19.056550741   179.6627   5   9   0.7883   0.8782   1.0802  -0.3658   0.4846  -0.2007   0.00    0.0
2019/01/19 01:03:30.000   47.480959763   19.056553116   180.0054   5   9   0.7903   0.8775   1.0758  -0.3672   0.4813  -0.2004   0.00    0.0
2019/01/19 01:04:00.000   47.480960360   19.056553246   180.2943   5   9   0.7922   0.8768   1.0715  -0.3686   0.4780  -0.2000   0.00    0.0
2019/01/19 01:04:30.000   47.480960188   19.056552956   180.6540   5   9   0.7941   0.8761   1.0671  -0.3699   0.4747  -0.1996   0.00    0.0
2019/01/19 01:05:00.000   47.480958942   19.056552218   180.7070   5   9   0.7961   0.8753   1.0628  -0.3712   0.4714  -0.1993   0.00    0.0
2019/01/19 01:05:30.000   47.480959111   19.056549845   180.5860   5   9   0.7979   0.8746   1.0584  -0.3724   0.4681  -0.1988   0.00    0.0
2019/01/19 01:06:00.000   47.480960192   19.056546498   180.4606   5   9   0.7998   0.8739   1.0541  -0.3736   0.4648  -0.1982   0.00    0.0
2019/01/19 01:06:30.000   47.480960682   19.056544475   180.3808   5   9   0.8016   0.8731   1.0497  -0.3748   0.4615  -0.1977   0.00    0.0
2019/01/19 01:07:00.000   47.480961744   19.056544475   180.4303   5   9   0.8035   0.8724   1.0454  -0.3760   0.4582  -0.1972   0.00    0.0
2019/01/19 01:07:30.000   47.480961799   19.056544406   180.5858   5   9   0.8054   0.8716   1.0410  -0.3773   0.4548  -0.1967   0.00    0.0
2019/01/19 01:08:00.000   47.480962678   19.056544893   180.4515   5   9   0.8073   0.8708   1.0367  -0.3785   0.4514  -0.1962   0.00    0.0
2019/01/19 01:08:30.000   47.480963961   19.056544168   180.0667   5   9   0.8091   0.8700   1.0323  -0.3796   0.4481  -0.1956   0.00    0.0
2019/01/19 01:09:00.000   47.480966142   19.056543147   179.8780   5   9   0.8109   0.8692   1.0280  -0.3807   0.4448  -0.1950   0.00    0.0
2019/01/19 01:09:30.000   47.480967474   19.056542991   179.6738   5   9   0.8128   0.8684   1.0236  -0.3818   0.4414  -0.1944   0.00    0.0
2019/01/19 01:10:00.000   47.480967773   19.056543740   179.5300   5   9   0.8146   0.8676   1.0193  -0.3830   0.4380  -0.1939   0.00    0.0
2019/01/19 01:10:30.000   47.480967576   19.056545627   179.4328   5   9   0.8165   0.8667   1.0150  -0.3841   0.4346  -0.1934   0.00    0.0
2019/01/19 01:11:00.000   47.480965954   19.056549085   179.5718   5   9   0.8185   0.8658   1.0107  -0.3853   0.4311  -0.1929   0.00    0.0
2019/01/19 01:11:30.000   47.480963968   19.056549873   179.5672   5   9   0.8204   0.8648   1.0064  -0.3863   0.4276  -0.1924   0.00    0.0
2019/01/19 01:12:00.000   47.480963276   19.056548654   179.3245   5   9   0.8222   0.8639   1.0021  -0.3873   0.4243  -0.1918   0.00    0.0
2019/01/19 01:12:30.000   47.480962310   19.056547738   178.9206   5   9   0.8241   0.8630   0.9978  -0.3883   0.4209  -0.1911   0.00    0.0
2019/01/19 01:13:00.000   47.480961396   19.056546625   178.9359   5   9   0.8259   0.8620   0.9936  -0.3892   0.4176  -0.1905   0.00    0.0
2019/01/19 01:13:30.000   47.480962037   19.056546952   178.9970   5   9   0.8277   0.8611   0.9893  -0.3902   0.4142  -0.1899   0.00    0.0
2019/01/19 01:14:00.000   47.480962568   19.056546574   179.2527   5   9   0.8295   0.8602   0.9851  -0.3911   0.4109  -0.1892   0.00    0.0
2019/01/19 01:14:30.000   47.480964755   19.056545067   179.3885   5   9   0.8312   0.8593   0.9809  -0.3920   0.4076  -0.1884   0.00    0.0
2019/01/19 01:15:00.000   47.480966473   19.056544716   179.5171   5   9   0.8329   0.8584   0.9767  -0.3928   0.4043  -0.1877   0.00    0.0
2019/01/19 01:15:30.000   47.480966997   19.056546111   179.6564   5   9   0.8347   0.8574   0.9725  -0.3937   0.4009  -0.1870   0.00    0.0
2019/01/19 01:16:00.000   47.480967266   19.056547889   179.7541   5   9   0.8365   0.8564   0.9684  -0.3945   0.3976  -0.1863   0.00    0.0
2019/01/19 01:16:30.000   47.480968648   19.056548611   179.7105   5   9   0.8382   0.8554   0.9642  -0.3953   0.3942  -0.1856   0.00    0.0
2019/01/19 01:17:00.000   47.480969251   19.056548248   179.8057   5   9   0.8399   0.8544   0.9601  -0.3961   0.3910  -0.1848   0.00    0.0
2019/01/19 01:17:30.000   47.480970706   19.056548946   179.7666   5   9   0.8416   0.8534   0.9560  -0.3968   0.3877  -0.1841   0.00    0.0
2019/01/19 01:18:00.000   47.480970845   19.056548463   179.7921   5   9   0.8433   0.8524   0.9520  -0.3975   0.3844  -0.1833   0.00    0.0
2019/01/19 01:18:30.000   47.480971183   19.056548438   179.7753   5   9   0.8450   0.8513   0.9479  -0.3982   0.3812  -0.1826   0.00    0.0
2019/01/19 01:19:00.000   47.480971412   19.056548755   179.6301   5   9   0.8467   0.8503   0.9439  -0.3989   0.3779  -0.1818   0.00    0.0
2019/01/19 01:19:30.000   47.480972218   19.056545934   179.5205   5   9   0.8484   0.8492   0.9399  -0.3995   0.3747  -0.1810   0.00    0.0
2019/01/19 01:20:00.000   47.480969622   19.056546489   179.3363   5  10   0.8385   0.8437   0.7776  -0.4122   0.3265  -0.2533   0.00    0.0
2019/01/19 01:20:30.000   47.480968529   19.056544672   179.3972   5  10   0.8395   0.8430   0.7770  -0.4124   0.3260  -0.2535   0.00    0.0
2019/01/19 01:21:00.000   47.480968065   19.056543309   179.5639   5  10   0.8406   0.8422   0.7764  -0.4126   0.3255  -0.2536   0.00    0.0
2019/01/19 01:21:30.000   47.480967458   19.056541799   179.7918   5  10   0.8416   0.8415   0.7757  -0.4128   0.3249  -0.2537   0.00    0.0
2019/01/19 01:22:00.000   47.480966723   19.056540506   179.8005   5  10   0.8426   0.8407   0.7750  -0.4128   0.3243  -0.2538   0.00    0.0
2019/01/19 01:22:30.000   47.480966222   19.056539348   179.8949   5  10   0.8435   0.8399   0.7743  -0.4129   0.3236  -0.2538   0.00    0.0
2019/01/19 01:23:00.000   47.480966270   19.056538192   179.8352   5  10   0.8445   0.8390   0.7736  -0.4128   0.3229  -0.2538   0.00    0.0
2019/01/19 01:23:30.000   47.480966650   19.056536408   179.7843   5  10   0.8453   0.8382   0.7729  -0.4127   0.3221  -0.2537   0.00    0.0
2019/01/19 01:24:00.000   47.480966787   19.056538298   179.8428   5  10   0.8462   0.8373   0.7721  -0.4126   0.3213  -0.2536   0.00    0.0
2019/01/19 01:24:30.000   47.480967951   19.056540648   179.7946   5  10   0.8471   0.8363   0.7712  -0.4125   0.3204  -0.2534   0.00    0.0
2019/01/19 01:25:00.000   47.480968711   19.056543456   179.6657   5  10   0.8479   0.8354   0.7703  -0.4123   0.3194  -0.2532   0.00    0.0
2019/01/19 01:25:30.000   47.480970307   19.056545345   179.2235   5  10   0.8487   0.8344   0.7695  -0.4120   0.3185  -0.2529   0.00    0.0
2019/01/19 01:26:00.000   47.480971041   19.056545549   178.8039   5  10   0.8494   0.8334   0.7686  -0.4117   0.3175  -0.2526   0.00    0.0
2019/01/19 01:26:30.000   47.480967306   19.056544270   179.4423   5   9   0.9954   1.3247   0.7995  -0.9447   0.5466  -0.3679   0.00    0.0
2019/01/19 01:27:00.000   47.480966493   19.056544860   179.5043   5   9   0.9986   1.3255   0.7988  -0.9503   0.5463  -0.3689   0.00    0.0
2019/01/19 01:27:30.000   47.480965748   19.056545728   179.5986   5   9   1.0017   1.3263   0.7979  -0.9558   0.5459  -0.3697   0.00    0.0
2019/01/19 01:28:00.000   47.480967306   19.056546495   179.5670   5   9   1.0047   1.3271   0.7971  -0.9610   0.5455  -0.3704   0.00    0.0
2019/01/19 01:28:30.000   47.480952107   19.056542094   177.9150   5   8   1.0186   1.3288   0.9332  -0.9570   0.5120  -0.4416   0.00    0.0
2019/01/19 01:29:00.000   47.480952542   19.056542176   178.0709   5   8   1.0222   1.3291   0.9342  -0.9626   0.5141  -0.4449   0.00    0.0
2019/01/19 01:29:30.000   47.480953226   19.056541349   178.0409   5   8   1.0257   1.3293   0.9351  -0.9681   0.5162  -0.4481   0.00    0.0
2019/01/19 01:30:00.000   47.480954212   19.056540986   177.9002   5   8   1.0291   1.3295   0.9361  -0.9735   0.5182  -0.4513   0.00    0.0
2019/01/19 01:30:30.000   47.480953770   19.056542472   177.8635   5   8   1.0327   1.3296   0.9369  -0.9789   0.5200  -0.4545   0.00    0.0
2019/01/19 01:31:00.000   47.480957366   19.056538356   177.0309   5   9   0.6863   1.1121   0.8908  -0.4180   0.3081  -0.2300   0.00    0.0
2019/01/19 01:31:30.000   47.480956716   19.056536661   177.0534   5   9   0.6884   1.1116   0.8918  -0.4206   0.3098  -0.2324   0.00    0.0
2019/01/19 01:32:00.000   47.480957768   19.056535701   177.0346   5   9   0.6903   1.1111   0.8928  -0.4230   0.3115  -0.2348   0.00    0.0
2019/01/19 01:32:30.000   47.480958905   19.056535295   177.0383   5   9   0.6923   1.1107   0.8937  -0.4255   0.3131  -0.2372   0.00    0.0
2019/01/19 01:33:00.000   47.480958204   19.056535755   177.2372   5   9   0.6944   1.1102   0.8946  -0.4280   0.3147  -0.2396   0.00    0.0
2019/01/19 01:33:30.000   47.480957879   19.056535594   177.0778   5   9   0.6965   1.1096   0.8955  -0.4305   0.3163  -0.2420   0.00    0.0
2019/01/19 01:34:00.000   47.480957031   19.056534292   176.8395   5   9   0.6985   1.1091   0.8963  -0.4329   0.3179  -0.2444   0.00    0.0
2019/01/19 01:34:30.000   47.480957113   19.056532341   176.6906   5   9   0.7005   1.1085   0.8972  -0.4353   0.3194  -0.2468   0.00    0.0
2019/01/19 01:35:00.000   47.480957584   19.056531587   176.5207   5   9   0.7026   1.1080   0.8980  -0.4377   0.3209  -0.2492   0.00    0.0
2019/01/19 01:35:30.000   47.480959754   19.056531037   176.2018   5   9   0.7045   1.1074   0.8988  -0.4400   0.3224  -0.2515   0.00    0.0
2019/01/19 01:36:00.000   47.480960387   19.056532220   176.1244   5   9   0.7066   1.1068   0.8996  -0.4423   0.3238  -0.2539   0.00    0.0
2019/01/19 01:36:30.000   47.480959937   19.056532964   176.4475   5   9   0.7087   1.1062   0.9003  -0.4447   0.3252  -0.2563   0.00    0.0
2019/01/19 01:37:00.000   47.480958596   19.056535052   176.6497   5   9   0.7109   1.1055   0.9010  -0.4471   0.3265  -0.2588   0.00    0.0
2019/01/19 01:37:30.000   47.480957420   19.056536106   176.7287   5   9   0.7130   1.1048   0.9017  -0.4495   0.3278  -0.2612   0.00    0.0
2019/01/19 01:38:00.000   47.480956764   19.056536076   176.5882   5   9   0.7151   1.1041   0.9024  -0.4518   0.3291  -0.2635   0.00    0.0
2019/01/19 01:38:30.000   47.480956886   19.056535372   176.3831   5   9   0.7172   1.1034   0.9030  -0.4540   0.3303  -0.2658   0.00    0.0
2019/01/19 01:39:00.000   47.480957101   19.056534668   176.3751   5   9   0.7192   1.1027   0.9037  -0.4562   0.3316  -0.2681   0.00    0.0
2019/01/19 01:39:30.000   47.480957747   19.056534184   176.2991   5   9   0.7213   1.1019   0.9043  -0.4584   0.3328  -0.2704   0.00    0.0
2019/01/19 01:40:00.000   47.480958498   19.056534134   176.3559   5   9   0.7233   1.1012   0.9048  -0.4605   0.3339  -0.2727   0.00    0.0
2019/01/19 01:40:30.000   47.480958000   19.056533654   176.3205   5   9   0.7254   1.1004   0.9054  -0.4627   0.3350  -0.2749   0.00    0.0
2019/01/19 01:41:00.000   47.480956864   19.056533447   176.2502   5   9   0.7276   1.0995   0.9059  -0.4648   0.3361  -0.2772   0.00    0.0
2019/01/19 01:41:30.000   47.480954874   19.056533876   176.5190   5   9   0.7297   1.0987   0.9064  -0.4670   0.3371  -0.2795   0.00    0.0
2019/01/19 01:42:00.000   47.480952974   19.056533769   176.7384   5   9   0.7319   1.0978   0.9069  -0.4692   0.3380  -0.2817   0.00    0.0
2019/01/19 01:42:30.000   47.480953350   19.056533518   176.6547   5   9   0.7339   1.0969   0.9073  -0.4712   0.3390  -0.2839   0.00    0.0
2019/01/19 01:43:00.000   47.480954095   19.056533078   176.5145   5   9   0.7360   1.0960   0.9077  -0.4731   0.3399  -0.2860   0.00    0.0
2019/01/19 01:43:30.000   47.480955203   19.056532385   176.2505   5   9   0.7380   1.0951   0.9081  -0.4751   0.3408  -0.2882   0.00    0.0
2019/01/19 01:44:00.000   47.480955528   19.056534124   176.2007   5   9   0.7401   1.0942   0.9084  -0.4770   0.3416  -0.2903   0.00    0.0
2019/01/19 01:44:30.000   47.480955196   19.056535882   176.2242   5   9   0.7422   1.0932   0.9087  -0.4790   0.3423  -0.2925   0.00    0.0
2019/01/19 01:45:00.000   47.480955234   19.056535687   176.2054   5   9   0.7443   1.0922   0.9090  -0.4809   0.3430  -0.2945   0.00    0.0
2019/01/19 01:45:30.000   47.480955880   19.056534802   176.1793   5   9   0.7463   1.0912   0.9093  -0.4827   0.3437  -0.2966   0.00    0.0
2019/01/19 01:46:00.000   47.480957854   19.056532516   175.9436   5   9   0.7482   1.0902   0.9095  -0.4844   0.3444  -0.2985   0.00    0.0
2019/01/19 01:46:30.000   47.480958269   19.056530733   175.7092   5   9   0.7502   1.0892   0.9098  -0.4861   0.3451  -0.3005   0.00    0.0
2019/01/19 01:47:00.000   47.480958158   19.056530483   175.8554   5   9   0.7523   1.0881   0.9099  -0.4879   0.3456  -0.3024   0.00    0.0
2019/01/19 01:47:30.000   47.480958410   19.056530031   175.8612   5   9   0.7543   1.0870   0.9101  -0.4896   0.3461  -0.3044   0.00    0.0
2019/01/19 01:48:00.000   47.480958750   19.056529884   175.8970   5   9   0.7564   1.0859   0.9102  -0.4912   0.3466  -0.3063   0.00    0.0
2019/01/19 01:48:30.000   47.480958095   19.056530098   175.8775   5   9   0.7584   1.0847   0.9103  -0.4929   0.3469  -0.3082   0.00    0.0
2019/01/19 01:49:00.000   47.480958111   19.056530903   175.6492   5   9   0.7605   1.0835   0.9103  -0.4945   0.3473  -0.3101   0.00    0.0
2019/01/19 01:49:30.000   47.480958060   19.056531006   175.4634   5   9   0.7625   1.0823   0.9103  -0.4961   0.3475  -0.3119   0.00    0.0
2019/01/19 01:50:00.000   47.480959673   19.056529609   175.2484   5   9   0.7644   1.0811   0.9103  -0.4976   0.3479  -0.3136   0.00    0.0
2019/01/19 01:50:30.000   47.480961072   19.056530396   175.2072   5   9   0.7664   1.0799   0.9103  -0.4990   0.3481  -0.3154   0.00    0.0
2019/01/19 01:51:00.000   47.480961167   19.056530566   175.1968   5   9   0.7684   1.0786   0.9102  -0.5005   0.3482  -0.3171   0.00    0.0
2019/01/19 01:51:30.000   47.480962122   19.056529002   175.0717   5   9   0.7704   1.0774   0.9101  -0.5019   0.3483  -0.3188   0.00    0.0
2019/01/19 01:52:00.000   47.480961309   19.056529044   175.1401   5   9   0.7724   1.0760   0.9099  -0.5033   0.3484  -0.3204   0.00    0.0
2019/01/19 01:52:30.000   47.480961333   19.056529771   175.2108   5   9   0.7744   1.0747   0.9097  -0.5047   0.3483  -0.3221   0.00    0.0
2019/01/19 01:53:00.000   47.480960930   19.056530078   175.4206   5  10   0.7764   1.0733   0.7822  -0.5060   0.3458  -0.3213   0.00    0.0
2019/01/19 01:53:30.000   47.480961046   19.056530351   175.3870   5  10   0.7784   1.0719   0.7835  -0.5073   0.3469  -0.3236   0.00    0.0
2019/01/19 01:54:00.000   47.480962868   19.056529389   175.3465   5  10   0.7803   1.0705   0.7848  -0.5085   0.3479  -0.3259   0.00    0.0
2019/01/19 01:54:30.000   47.480964352   19.056529284   175.3267   5  10   0.7822   1.0691   0.7861  -0.5096   0.3489  -0.3281   0.00    0.0
2019/01/19 01:55:00.000   47.480965698   19.056527890   175.2090   5  10   0.7841   1.0677   0.7874  -0.5107   0.3499  -0.3303   0.00    0.0
2019/01/19 01:55:30.000   47.480965425   19.056527517   175.1404   5  10   0.7860   1.0662   0.7887  -0.5118   0.3507  -0.3325   0.00    0.0
2019/01/19 01:56:00.000   47.480964426   19.056527279   175.1071   5  10   0.7880   1.0647   0.7899  -0.5129   0.3515  -0.3347   0.00    0.0
2019/01/19 01:56:30.000   47.480962763   19.056527412   175.1218   5  10   0.7899   1.0631   0.7911  -0.5140   0.3522  -0.3369   0.00    0.0
2019/01/19 01:57:00.000   47.480961767   19.056527993   175.3229   5  10   0.7919   1.0615   0.7923  -0.5150   0.3529  -0.3391   0.00    0.0
2019/01/19 01:57:30.000   47.480962086   19.056527597   175.4307   5  10   0.7938   1.0599   0.7934  -0.5159   0.3535  -0.3411   0.00    0.0
2019/01/19 01:58:00.000   47.480962215   19.056527906   175.8287   5  10   0.7956   1.0582   0.7945  -0.5168   0.3540  -0.3432   0.00    0.0
2019/01/19 01:58:30.000   47.480963001   19.056526371   176.0501   5  10   0.7974   1.0566   0.7956  -0.5175   0.3546  -0.3452   0.00    0.0
2019/01/19 01:59:00.000   47.480963089   19.056526448   176.1500   5  10   0.7993   1.0549   0.7967  -0.5183   0.3550  -0.3472   0.00    0.0
2019/01/19 01:59:30.000   47.480957850   19.056540453   178.3793   5  11   0.6395   1.0041   0.7598  -0.3661   0.2783  -0.2323   0.00    0.0
2019/01/19 02:00:00.000   47.480958101   19.056541141   178.2367   5  11   0.6409   1.0024   0.7610  -0.3666   0.2788  -0.2341   0.00    0.0
2019/01/19 02:00:30.000   47.480958107   19.056543348   178.0566   5  11   0.6424   1.0007   0.7621  -0.3672   0.2793  -0.2360   0.00    0.0
2019/01/19 02:01:00.000   47.480957154   19.056543943   178.0471   5  11   0.6439   0.9989   0.7632  -0.3677   0.2797  -0.2378   0.00    0.0
2019/01/19 02:01:30.000   47.480956298   19.056543678   177.9997   5  11   0.6453   0.9972   0.7643  -0.3682   0.2802  -0.2395   0.00    0.0
2019/01/19 02:02:00.000   47.480959235   19.056549611   177.0625   5  10   0.6518   1.3024   0.8276  -0.4367   0.5452  -0.2668   0.00    0.0
2019/01/19 02:02:30.000   47.480958576   19.056549029   177.1109   5  10   0.6534   1.2997   0.8298  -0.4383   0.5475  -0.2693   0.00    0.0
2019/01/19 02:03:00.000   47.480958983   19.056547196   176.9430   5  10   0.6549   1.2970   0.8319  -0.4398   0.5497  -0.2717   0.00    0.0
2019/01/19 02:03:30.000   47.480960126   19.056544570   176.7010   5  10   0.6564   1.2943   0.8340  -0.4411   0.5519  -0.2741   0.00    0.0
2019/01/19 02:04:00.000   47.480961140   19.056542632   176.5703   5  10   0.6579   1.2916   0.8361  -0.4425   0.5540  -0.2765   0.00    0.0
2019/01/19 02:04:30.000   47.480960220   19.056543887   176.6758   5  10   0.6596   1.2887   0.8381  -0.4440   0.5560  -0.2790   0.00    0.0
2019/01/19 02:05:00.000   47.480959069   19.056544765   177.0573   5  10   0.6612   1.2859   0.8401  -0.4455   0.5578  -0.2814   0.00    0.0
2019/01/19 02:05:30.000   47.480958494   19.056544629   177.4099   5  10   0.6628   1.2830   0.8421  -0.4469   0.5596  -0.2838   0.00    0.0
2019/01/19 02:06:00.000   47.480958774   19.056544481   177.5999   5  10   0.6644   1.2802   0.8441  -0.4481   0.5613  -0.2862   0.00    0.0
2019/01/19 02:06:30.000   47.480960650   19.056543388   177.1237   5  10   0.6659   1.2773   0.8460  -0.4492   0.5630  -0.2884   0.00    0.0
2019/01/19 02:07:00.000   47.480961818   19.056540435   176.4309   5  10   0.6673   1.2744   0.8479  -0.4502   0.5646  -0.2906   0.00    0.0
2019/01/19 02:07:30.000   47.480960253   19.056539352   176.1270   5  10   0.6689   1.2714   0.8498  -0.4514   0.5660  -0.2930   0.00    0.0
2019/01/19 02:08:00.000   47.480956732   19.056542262   176.6114   5  10   0.6707   1.2683   0.8516  -0.4529   0.5672  -0.2954   0.00    0.0
2019/01/19 02:08:30.000   47.480954095   19.056546671   177.2894   5  10   0.6725   1.2653   0.8533  -0.4542   0.5683  -0.2978   0.00    0.0
2019/01/19 02:09:00.000   47.480952577   19.056549069   177.9209   5  10   0.6741   1.2622   0.8550  -0.4554   0.5694  -0.3001   0.00    0.0
2019/01/19 02:09:30.000   47.480952401   19.056549041   178.0827   5  10   0.6757   1.2591   0.8567  -0.4563   0.5704  -0.3023   0.00    0.0
2019/01/19 02:10:00.000   47.480954925   19.056546011   177.5701   5  10   0.6771   1.2560   0.8584  -0.4570   0.5714  -0.3043   0.00    0.0
2019/01/19 02:10:30.000   47.480956728   19.056542826   177.0638   5  10   0.6784   1.2529   0.8601  -0.4576   0.5724  -0.3063   0.00    0.0
2019/01/19 02:11:00.000   47.480955948   19.056542563   177.0851   5  10   0.6800   1.2498   0.8617  -0.4584   0.5731  -0.3084   0.00    0.0
2019/01/19 02:11:30.000   47.480954013   19.056542906   177.2147   5  10   0.6816   1.2465   0.8633  -0.4593   0.5737  -0.3105   0.00    0.0
2019/01/19 02:12:00.000   47.480951816   19.056544342   177.7104   5  10   0.6832   1.2433   0.8647  -0.4602   0.5742  -0.3126   0.00    0.0
2019/01/19 02:12:30.000   47.480951476   19.056545077   177.8806   5  10   0.6847   1.2400   0.8662  -0.4609   0.5746  -0.3147   0.00    0.0
2019/01/19 02:13:00.000   47.480952759   19.056544120   177.7787   5  10   0.6862   1.2368   0.8676  -0.4614   0.5750  -0.3165   0.00    0.0
2019/01/19 02:13:30.000   47.480952781   19.056541052   177.1712   5  11   0.6530   1.2327   0.8155  -0.4714   0.5887  -0.2537   0.00    0.0
2019/01/19 02:14:00.000   47.480955352   19.056540146   176.6776   5  11   0.6542   1.2294   0.8171  -0.4718   0.5889  -0.2554   0.00    0.0
2019/01/19 02:14:30.000   47.480955597   19.056540399   176.4428   5  11   0.6556   1.2260   0.8186  -0.4723   0.5890  -0.2572   0.00    0.0
2019/01/19 02:15:00.000   47.480954440   19.056541180   176.4241   5  11   0.6570   1.2226   0.8202  -0.4728   0.5890  -0.2590   0.00    0.0
2019/01/19 02:15:30.000   47.480954055   19.056541486   176.3855   5  11   0.6584   1.2192   0.8216  -0.4733   0.5889  -0.2607   0.00    0.0
2019/01/19 02:16:00.000   47.480955084   19.056539538   176.1480   5  11   0.6596   1.2158   0.8231  -0.4736   0.5887  -0.2624   0.00    0.0
2019/01/19 02:16:30.000   47.480955577   19.056538426   176.0763   5  11   0.6609   1.2123   0.8245  -0.4738   0.5885  -0.2640   0.00    0.0
2019/01/19 02:17:00.000   47.480955561   19.056538917   176.0533   5  11   0.6623   1.2088   0.8259  -0.4741   0.5881  -0.2656   0.00    0.0
2019/01/19 02:17:30.000   47.480954989   19.056539252   176.1720   5  11   0.6636   1.2053   0.8272  -0.4744   0.5876  -0.2672   0.00    0.0
2019/01/19 02:18:00.000   47.480954058   19.056538903   175.8895   5  10   0.6737   1.2023   0.9342  -0.4705   0.5704  -0.3154   0.00    0.0
2019/01/19 02:18:30.000   47.480953871   19.056539027   175.5809   5  10   0.6758   1.1985   0.9394  -0.4716   0.5737  -0.3201   0.00    0.0
2019/01/19 02:19:00.000   47.480954707   19.056538809   175.1421   5  10   0.6779   1.1947   0.9447  -0.4726   0.5770  -0.3249   0.00    0.0
2019/01/19 02:19:30.000   47.480954292   19.056540456   174.9784   5  10   0.6802   1.1910   0.9499  -0.4739   0.5804  -0.3299   0.00    0.0
2019/01/19 02:20:00.000   47.480953982   19.056540692   174.9806   5  10   0.6825   1.1873   0.9553  -0.4751   0.5838  -0.3349   0.00    0.0
2019/01/19 02:20:30.000   47.480954491   19.056538968   175.1247   5  10   0.6847   1.1837   0.9607  -0.4763   0.5873  -0.3399   0.00    0.0
2019/01/19 02:21:00.000   47.480955558   19.056536623   175.3762   5  10   0.6869   1.1801   0.9661  -0.4774   0.5909  -0.3449   0.00    0.0
2019/01/19 02:21:30.000   47.480955734   19.056537258   175.6152   5  10   0.6892   1.1766   0.9716  -0.4788   0.5945  -0.3502   0.00    0.0
2019/01/19 02:22:00.000   47.480956320   19.056538729   175.9783   5  10   0.6916   1.1732   0.9771  -0.4802   0.5981  -0.3556   0.00    0.0
2019/01/19 02:22:30.000   47.480956202   19.056539729   176.5102   5  10   0.6941   1.1698   0.9827  -0.4817   0.6017  -0.3610   0.00    0.0
2019/01/19 02:23:00.000   47.480956050   19.056541243   177.0394   5  10   0.6966   1.1664   0.9884  -0.4832   0.6054  -0.3666   0.00    0.0
2019/01/19 02:23:30.000   47.480957007   19.056541234   177.3259   5  10   0.6991   1.1631   0.9941  -0.4847   0.6091  -0.3722   0.00    0.0
2019/01/19 02:24:00.000   47.480957688   19.056540154   177.2046   5  10   0.7016   1.1599   0.9998  -0.4863   0.6130  -0.3778   0.00    0.0
2019/01/19 02:24:30.000   47.480957787   19.056539551   176.9576   5  10   0.7041   1.1567   1.0056  -0.4879   0.6168  -0.3836   0.00    0.0
2019/01/19 02:25:00.000   47.480957324   19.056538902   176.5435   5  10   0.7068   1.1535   1.0115  -0.4896   0.6207  -0.3896   0.00    0.0
2019/01/19 02:25:30.000   47.480956686   19.056539157   176.2659   5  10   0.7095   1.1504   1.0174  -0.4913   0.6247  -0.3956   0.00    0.0
2019/01/19 02:26:00.000   47.480956521   19.056538970   175.8641   5  10   0.7122   1.1473   1.0233  -0.4931   0.6287  -0.4017   0.00    0.0
2019/01/19 02:26:30.000   47.480956283   19.056539075   175.6951   5  10   0.7149   1.1443   1.0293  -0.4950   0.6327  -0.4080   0.00    0.0
2019/01/19 02:27:00.000   47.480956056   19.056538343   175.5615   5  10   0.7177   1.1413   1.0354  -0.4969   0.6368  -0.4143   0.00    0.0
2019/01/19 02:27:30.000   47.480955753   19.056538067   175.8754   5  10   0.7205   1.1384   1.0415  -0.4988   0.6409  -0.4207   0.00    0.0
2019/01/19 02:28:00.000   47.480955520   19.056538832   176.2131   5  10   0.7234   1.1355   1.0476  -0.5008   0.6450  -0.4273   0.00    0.0
2019/01/19 02:28:30.000   47.480955638   19.056538799   176.3635   5  10   0.7264   1.1327   1.0538  -0.5029   0.6493  -0.4339   0.00    0.0
2019/01/19 02:29:00.000   47.480958358   19.056538306   175.4343   5  11   0.6170   0.9030   1.0397  -0.2408   0.5131  -0.3602   0.00    0.0
2019/01/19 02:29:30.000   47.480958895   19.056535970   174.6788   5  11   0.6195   0.9028   1.0459  -0.2435   0.5175  -0.3662   0.00    0.0
2019/01/19 02:30:00.000   47.480957361   19.056535112   174.6102   5  11   0.6221   0.9025   1.0521  -0.2462   0.5218  -0.3723   0.00    0.0
2019/01/19 02:30:30.000   47.480954909   19.056535903   174.9205   5  11   0.6248   0.9021   1.0584  -0.2491   0.5261  -0.3787   0.00    0.0
2019/01/19 02:31:00.000   47.480953680   19.056537279   175.4528   5  11   0.6276   0.9018   1.0646  -0.2519   0.5304  -0.3851   0.00    0.0
2019/01/19 02:31:30.000   47.480953547   19.056538770   176.0385   5  11   0.6303   0.9015   1.0709  -0.2548   0.5348  -0.3916   0.00    0.0
2019/01/19 02:32:00.000   47.480954227   19.056538629   176.4182   5  11   0.6331   0.9013   1.0773  -0.2576   0.5392  -0.3981   0.00    0.0
2019/01/19 02:32:30.000   47.480955989   19.056536888   176.1240   5  11   0.6357   0.9010   1.0837  -0.2603   0.5437  -0.4045   0.00    0.0
2019/01/19 02:33:00.000   47.480956397   19.056536073   175.7090   5  11   0.6385   0.9007   1.0901  -0.2631   0.5481  -0.4112   0.00    0.0
2019/01/19 02:33:30.000   47.480955642   19.056536296   175.4154   5  11   0.6414   0.9004   1.0966  -0.2660   0.5525  -0.4180   0.00    0.0
2019/01/19 02:34:00.000   47.480954376   19.056537063   175.3372   5  11   0.6443   0.9000   1.1031  -0.2689   0.5569  -0.4249   0.00    0.0
2019/01/19 02:34:30.000   47.480953779   19.056537335   175.6191   5  11   0.6472   0.8997   1.1096  -0.2719   0.5613  -0.4319   0.00    0.0
2019/01/19 02:35:00.000   47.480954273   19.056536707   175.6162   5  11   0.6501   0.8994   1.1161  -0.2747   0.5658  -0.4389   0.00    0.0
2019/01/19 02:35:30.000   47.480955483   19.056535553   175.5712   5  11   0.6530   0.8991   1.1227  -0.2776   0.5702  -0.4459   0.00    0.0
2019/01/19 02:36:00.000   47.480957062   19.056534892   175.5817   5  11   0.6559   0.8987   1.1293  -0.2805   0.5747  -0.4530   0.00    0.0
2019/01/19 02:36:30.000   47.480957623   19.056534897   175.8003   5  11   0.6589   0.8984   1.1359  -0.2834   0.5792  -0.4603   0.00    0.0
2019/01/19 02:37:00.000   47.480958059   19.056535058   175.7740   5  11   0.6620   0.8980   1.1425  -0.2863   0.5836  -0.4677   0.00    0.0
2019/01/19 02:37:30.000   47.480956344   19.056535348   175.9738   5  11   0.6651   0.8976   1.1491  -0.2893   0.5879  -0.4752   0.00    0.0
2019/01/19 02:38:00.000   47.480953108   19.056535783   175.9941   5  11   0.6683   0.8972   1.1557  -0.2923   0.5922  -0.4829   0.00    0.0
2019/01/19 02:38:30.000   47.480950284   19.056537198   175.9126   5  11   0.6716   0.8967   1.1624  -0.2954   0.5965  -0.4906   0.00    0.0
2019/01/19 02:39:00.000   47.480949450   19.056537823   175.6893   5  11   0.6748   0.8963   1.1690  -0.2984   0.6008  -0.4984   0.00    0.0
2019/01/19 02:39:30.000   47.480950905   19.056538304   175.4809   5  11   0.6779   0.8959   1.1757  -0.3013   0.6051  -0.5061   0.00    0.0
2019/01/19 02:40:00.000   47.480952579   19.056536960   175.3388   5  11   0.6810   0.8955   1.1823  -0.3042   0.6095  -0.5138   0.00    0.0
2019/01/19 02:40:30.000   47.480953175   19.056535400   175.4942   5  11   0.6842   0.8951   1.1890  -0.3071   0.6138  -0.5216   0.00    0.0
2019/01/19 02:41:00.000   47.480952733   19.056534133   175.8821   5  11   0.6874   0.8946   1.1957  -0.3100   0.6181  -0.5295   0.00    0.0
2019/01/19 02:41:30.000   47.480951780   19.056534449   176.2173   5  11   0.6907   0.8941   1.2023  -0.3130   0.6222  -0.5375   0.00    0.0
2019/01/19 02:42:00.000   47.480951286   19.056534585   176.2723   5  11   0.6940   0.8936   1.2090  -0.3160   0.6263  -0.5456   0.00    0.0
2019/01/19 02:42:30.000   47.480950898   19.056535388   175.8990   5  11   0.6973   0.8931   1.2155  -0.3189   0.6304  -0.5537   0.00    0.0
2019/01/19 02:43:00.000   47.480951745   19.056535161   175.4710   5  11   0.7006   0.8925   1.2221  -0.3218   0.6344  -0.5618   0.00    0.0
2019/01/19 02:43:30.000   47.480953751   19.056534893   175.0161   5  11   0.7039   0.8920   1.2287  -0.3247   0.6385  -0.5699   0.00    0.0
2019/01/19 02:44:00.000   47.480954447   19.056534689   175.0367   5  11   0.7072   0.8915   1.2352  -0.3276   0.6424  -0.5781   0.00    0.0
2019/01/19 02:44:30.000   47.480953391   19.056533572   175.0976   5  11   0.7105   0.8909   1.2417  -0.3304   0.6462  -0.5863   0.00    0.0
2019/01/19 02:45:00.000   47.480951008   19.056530975   175.0102   5  11   0.7138   0.8902   1.2482  -0.3332   0.6500  -0.5946   0.00    0.0
2019/01/19 02:45:30.000   47.480949459   19.056529556   174.8265   5  11   0.7171   0.8895   1.2547  -0.3360   0.6536  -0.6028   0.00    0.0
2019/01/19 02:46:00.000   47.480949061   19.056529599   174.8361   5  11   0.7205   0.8889   1.2610  -0.3388   0.6572  -0.6111   0.00    0.0
2019/01/19 02:46:30.000   47.480950228   19.056530534   175.0445   5  11   0.7239   0.8882   1.2673  -0.3416   0.6607  -0.6195   0.00    0.0
2019/01/19 02:47:00.000   47.480950975   19.056530017   175.1555   5  11   0.7272   0.8875   1.2735  -0.3443   0.6642  -0.6277   0.00    0.0
2019/01/19 02:47:30.000   47.480950625   19.056530246   175.4277   5  11   0.7306   0.8867   1.2797  -0.3470   0.6674  -0.6360   0.00    0.0
2019/01/19 02:48:00.000   47.480949190   19.056531253   175.4218   5  11   0.7340   0.8859   1.2858  -0.3497   0.6706  -0.6444   0.00    0.0
2019/01/19 02:48:30.000   47.480949319   19.056532332   175.5132   5  11   0.7375   0.8851   1.2918  -0.3524   0.6736  -0.6527   0.00    0.0
2019/01/19 02:49:00.000   47.480951028   19.056533550   175.4739   5  11   0.7408   0.8843   1.2977  -0.3550   0.6766  -0.6610   0.00    0.0
2019/01/19 02:49:30.000   47.480953197   19.056533262   175.2868   5  11   0.7441   0.8835   1.3035  -0.3575   0.6795  -0.6691   0.00    0.0
2019/01/19 02:50:00.000   47.480955456   19.056532113   175.1418   5  11   0.7473   0.8827   1.3093  -0.3599   0.6823  -0.6770   0.00    0.0
2019/01/19 02:50:30.000   47.480955483   19.056531302   175.4095   5  11   0.7506   0.8818   1.3150  -0.3623   0.6849  -0.6850   0.00    0.0
2019/01/19 02:51:00.000   47.480955351   19.056528682   175.5289   5  11   0.7537   0.8808   1.3206  -0.3646   0.6874  -0.6929   0.00    0.0
2019/01/19 02:51:30.000   47.480955861   19.056527365   175.8167   5  11   0.7569   0.8799   1.3261  -0.3669   0.6897  -0.7007   0.00    0.0
2019/01/19 02:52:00.000   47.480955857   19.056527191   175.9828   5  11   0.7602   0.8788   1.3314  -0.3691   0.6918  -0.7085   0.00    0.0
2019/01/19 02:52:30.000   47.480955117   19.056527929   176.0370   5  11   0.7634   0.8777   1.3366  -0.3714   0.6936  -0.7163   0.00    0.0
2019/01/19 02:53:00.000   47.480953820   19.056529086   176.2361   5  11   0.7667   0.8766   1.3416  -0.3735   0.6953  -0.7241   0.00    0.0
2019/01/19 02:53:30.000   47.480953274   19.056526848   175.9136   5  11   0.7698   0.8755   1.3466  -0.3755   0.6969  -0.7315   0.00    0.0
2019/01/19 02:54:00.000   47.480952470   19.056525325   175.8260   5  11   0.7728   0.8743   1.3514  -0.3774   0.6983  -0.7388   0.00    0.0
2019/01/19 02:54:30.000   47.480953055   19.056524795   175.7379   5  11   0.7759   0.8731   1.3561  -0.3793   0.6996  -0.7460   0.00    0.0
2019/01/19 02:55:00.000   47.480953734   19.056525176   175.9015   5  11   0.7789   0.8718   1.3606  -0.3811   0.7006  -0.7531   0.00    0.0
2019/01/19 02:55:30.000   47.480954501   19.056525858   176.2688   5  11   0.7820   0.8705   1.3649  -0.3829   0.7014  -0.7600   0.00    0.0
2019/01/19 02:56:00.000   47.480954215   19.056526327   176.6534   5  11   0.7849   0.8692   1.3690  -0.3845   0.7020  -0.7668   0.00    0.0
2019/01/19 02:56:30.000   47.480954182   19.056526279   176.5331   5  11   0.7879   0.8678   1.3730  -0.3861   0.7024  -0.7734   0.00    0.0
2019/01/19 02:57:00.000   47.480954982   19.056525938   176.2069   5  11   0.7907   0.8664   1.3768  -0.3875   0.7027  -0.7798   0.00    0.0
2019/01/19 02:57:30.000   47.480954519   19.056526182   176.3263   5  11   0.7935   0.8649   1.3804  -0.3889   0.7026  -0.7860   0.00    0.0
2019/01/19 02:58:00.000   47.480954079   19.056526933   176.2718   5  11   0.7963   0.8634   1.3838  -0.3902   0.7023  -0.7921   0.00    0.0
2019/01/19 02:58:30.000   47.480953977   19.056527925   176.3345   5  11   0.7990   0.8618   1.3871  -0.3914   0.7018  -0.7979   0.00    0.0
2019/01/19 02:59:00.000   47.480954544   19.056527030   176.3022   5  11   0.8016   0.8602   1.3901  -0.3924   0.7011  -0.8034   0.00    0.0
2019/01/19 02:59:30.000   47.480955495   19.056527660   176.5802   5  11   0.8042   0.8586   1.3929  -0.3934   0.7002  -0.8087   0.00    0.0
2019/01/19 03:00:00.000   47.480956142   19.056529206   176.7208   5  11   0.8067   0.8569   1.3955  -0.3943   0.6990  -0.8139   0.00    0.0
2019/01/19 03:00:30.000   47.480955842   19.056529930   176.7160   5  11   0.8092   0.8552   1.3979  -0.3951   0.6976  -0.8187   0.00    0.0
2019/01/19 03:01:00.000   47.480955551   19.056530402   176.9334   5  11   0.8116   0.8534   1.4001  -0.3957   0.6959  -0.8233   0.00    0.0
2019/01/19 03:01:30.000   47.480955332   19.056529124   177.2902   5  11   0.8138   0.8516   1.4021  -0.3962   0.6940  -0.8275   0.00    0.0
2019/01/19 03:02:00.000   47.480955429   19.056526841   177.6840   5  11   0.8159   0.8497   1.4039  -0.3966   0.6920  -0.8312   0.00    0.0
2019/01/19 03:02:30.000   47.480955356   19.056525427   177.9099   5  11   0.8179   0.8478   1.4055  -0.3968   0.6897  -0.8348   0.00    0.0
2019/01/19 03:03:00.000   47.480954851   19.056524412   178.0645   5  11   0.8199   0.8459   1.4068  -0.3970   0.6871  -0.8382   0.00    0.0
2019/01/19 03:03:30.000   47.480953731   19.056523744   177.9358   5  11   0.8218   0.8439   1.4079  -0.3971   0.6842  -0.8412   0.00    0.0
2019/01/19 03:04:00.000   47.480954101   19.056521977   177.8339   5  11   0.8236   0.8419   1.4088  -0.3970   0.6812  -0.8439   0.00    0.0
2019/01/19 03:04:30.000   47.480954372   19.056521248   177.9179   5  11   0.8253   0.8398   1.4095  -0.3968   0.6780  -0.8463   0.00    0.0
2019/01/19 03:05:00.000   47.480953823   19.056520599   178.1730   5  11   0.8270   0.8377   1.4098  -0.3965   0.6744  -0.8484   0.00    0.0
2019/01/19 03:05:30.000   47.480953830   19.056519798   178.2702   5  11   0.8286   0.8356   1.4100  -0.3962   0.6707  -0.8502   0.00    0.0
2019/01/19 03:06:00.000   47.480954513   19.056518471   178.9117   5  11   0.8300   0.8335   1.4099  -0.3956   0.6668  -0.8515   0.00    0.0
2019/01/19 03:06:30.000   47.480956481   19.056517358   179.5441   5  11   0.8314   0.8313   1.4096  -0.3950   0.6627  -0.8526   0.00    0.0
2019/01/19 03:07:00.000   47.480957080   19.056516259   179.6640   5  11   0.8326   0.8291   1.4091  -0.3943   0.6583  -0.8533   0.00    0.0
2019/01/19 03:07:30.000   47.480966779   19.056526314   182.2729   5  12   0.6421   0.7961   1.0305  -0.2744   0.4387  -0.3434   0.00    0.0
2019/01/19 03:08:00.000   47.480965471   19.056527257   182.4007   5  12   0.6436   0.7944   1.0316  -0.2749   0.4369  -0.3450   0.00    0.0
2019/01/19 03:08:30.000   47.480964733   19.056530041   182.0440   5  11   0.6555   1.1365   1.1512  -0.3704   0.8495  -0.4059   0.00    0.0
2019/01/19 03:09:00.000   47.480965048   19.056529840   181.9539   5  11   0.6574   1.1358   1.1537  -0.3731   0.8511  -0.4092   0.00    0.0
2019/01/19 03:09:30.000   47.480966827   19.056527518   181.7176   5  11   0.6591   1.1351   1.1563  -0.3755   0.8526  -0.4121   0.00    0.0
2019/01/19 03:10:00.000   47.480966824   19.056526153   181.6392   5  11   0.6608   1.1342   1.1586  -0.3780   0.8539  -0.4151   0.00    0.0
2019/01/19 03:10:30.000   47.480966905   19.056526856   181.4492   5  11   0.6626   1.1333   1.1609  -0.3806   0.8549  -0.4182   0.00    0.0
2019/01/19 03:11:00.000   47.480967298   19.056526935   181.4771   5  11   0.6644   1.1324   1.1631  -0.3830   0.8558  -0.4211   0.00    0.0
2019/01/19 03:11:30.000   47.480968118   19.056526624   181.6957   5  11   0.6661   1.1314   1.1651  -0.3853   0.8564  -0.4239   0.00    0.0
2019/01/19 03:12:00.000   47.480968315   19.056526700   181.5621   5  11   0.6679   1.1303   1.1670  -0.3876   0.8569  -0.4267   0.00    0.0
2019/01/19 03:12:30.000   47.480967926   19.056526925   181.4261   5  11   0.6697   1.1292   1.1688  -0.3899   0.8572  -0.4294   0.00    0.0
2019/01/19 03:13:00.000   47.480966572   19.056526952   181.5148   5  11   0.6714   1.1280   1.1705  -0.3922   0.8572  -0.4320   0.00    0.0
2019/01/19 03:13:30.000   47.480965519   19.056527953   181.7377   5  11   0.6732   1.1268   1.1721  -0.3944   0.8570  -0.4346   0.00    0.0
2019/01/19 03:14:00.000   47.480965881   19.056529536   181.7887   5  11   0.6749   1.1255   1.1735  -0.3965   0.8566  -0.4371   0.00    0.0
2019/01/19 03:14:30.000   47.480966121   19.056530016   181.6505   5  11   0.6766   1.1241   1.1748  -0.3985   0.8561  -0.4394   0.00    0.0
2019/01/19 03:15:00.000   47.480965465   19.056530180   181.5868   5  11   0.6782   1.1227   1.1760  -0.4004   0.8553  -0.4416   0.00    0.0
2019/01/19 03:15:30.000   47.480964365   19.056529574   181.4911   5  11   0.6799   1.1212   1.1771  -0.4022   0.8543  -0.4437   0.00    0.0
2019/01/19 03:16:00.000   47.480963780   19.056529324   181.4523   5  11   0.6815   1.1197   1.1781  -0.4040   0.8531  -0.4457   0.00    0.0
2019/01/19 03:16:30.000   47.480964326   19.056529980   180.9078   5  11   0.6831   1.1181   1.1789  -0.4057   0.8517  -0.4476   0.00    0.0
2019/01/19 03:17:00.000   47.480966342   19.056529336   180.2335   5  11   0.6845   1.1166   1.1796  -0.4071   0.8502  -0.4492   0.00    0.0
2019/01/19 03:17:30.000   47.480967707   19.056529181   179.8445   5  11   0.6860   1.1149   1.1802  -0.4086   0.8485  -0.4508   0.00    0.0
2019/01/19 03:18:00.000   47.480966782   19.056529824   179.9836   5  11   0.6875   1.1131   1.1806  -0.4101   0.8464  -0.4524   0.00    0.0
2019/01/19 03:18:30.000   47.480965653   19.056530491   180.3612   5  11   0.6891   1.1113   1.1809  -0.4116   0.8442  -0.4539   0.00    0.0
2019/01/19 03:19:00.000   47.480964976   19.056530713   180.7452   5  11   0.6905   1.1095   1.1811  -0.4129   0.8417  -0.4552   0.00    0.0
2019/01/19 03:19:30.000   47.480967056   19.056531146   180.8494   5  11   0.6919   1.1076   1.1811  -0.4140   0.8392  -0.4563   0.00    0.0
2019/01/19 03:20:00.000   47.480968148   19.056530857   180.9962   5  11   0.6932   1.1057   1.1811  -0.4151   0.8364  -0.4573   0.00    0.0
2019/01/19 03:20:30.000   47.480967760   19.056530157   181.4525   5  11   0.6946   1.1037   1.1809  -0.4161   0.8334  -0.4582   0.00    0.0
2019/01/19 03:21:00.000   47.480966330   19.056529223   181.7146   5  11   0.6959   1.1016   1.1806  -0.4171   0.8302  -0.4590   0.00    0.0
2019/01/19 03:21:30.000   47.480964665   19.056528787   181.8932   5  11   0.6973   1.0995   1.1801  -0.4181   0.8268  -0.4598   0.00    0.0
2019/01/19 03:22:00.000   47.480963915   19.056528748   181.9189   5  11   0.6986   1.0973   1.1795  -0.4189   0.8232  -0.4603   0.00    0.0
2019/01/19 03:22:30.000   47.480964342   19.056529921   181.8988   5  11   0.6998   1.0951   1.1788  -0.4197   0.8194  -0.4608   0.00    0.0
2019/01/19 03:23:00.000   47.480964796   19.056530957   181.5122   5  11   0.7011   1.0929   1.1779  -0.4204   0.8154  -0.4612   0.00    0.0
2019/01/19 03:23:30.000   47.480964709   19.056530002   180.9817   5  11   0.7022   1.0906   1.1770  -0.4209   0.8113  -0.4613   0.00    0.0
2019/01/19 03:24:00.000   47.480964980   19.056529174   180.9160   5  11   0.7034   1.0883   1.1759  -0.4214   0.8070  -0.4613   0.00    0.0
2019/01/19 03:24:30.000   47.480965489   19.056528279   181.2072   5  11   0.7044   1.0860   1.1747  -0.4218   0.8026  -0.4612   0.00    0.0
2019/01/19 03:25:00.000   47.480966253   19.056528460   181.3758   5  11   0.7055   1.0836   1.1734  -0.4221   0.7980  -0.4610   0.00    0.0
2019/01/19 03:25:30.000   47.480966027   19.056528776   181.7592   5  11   0.7066   1.0812   1.1719  -0.4225   0.7932  -0.4607   0.00    0.0
2019/01/19 03:26:00.000   47.480967441   19.056529479   181.8249   5  11   0.7076   1.0787   1.1703  -0.4227   0.7882  -0.4603   0.00    0.0
2019/01/19 03:26:30.000   47.480969075   19.056529219   181.5183   5  11   0.7086   1.0762   1.1687  -0.4228   0.7832  -0.4596   0.00    0.0
2019/01/19 03:27:00.000   47.480968425   19.056529750   181.6259   5  11   0.7096   1.0737   1.1669  -0.4229   0.7779  -0.4590   0.00    0.0
2019/01/19 03:27:30.000   47.480967347   19.056529391   181.9902   5  11   0.7106   1.0711   1.1650  -0.4230   0.7725  -0.4583   0.00    0.0
2019/01/19 03:28:00.000   47.480966360   19.056531179   182.4464   5  11   0.7116   1.0684   1.1629  -0.4230   0.7668  -0.4575   0.00    0.0
2019/01/19 03:28:30.000   47.480966241   19.056533940   182.6621   5  11   0.7126   1.0658   1.1607  -0.4230   0.7611  -0.4567   0.00    0.0
2019/01/19 03:29:00.000   47.480966815   19.056534316   182.7757   5  11   0.7135   1.0631   1.1585  -0.4229   0.7553  -0.4556   0.00    0.0
2019/01/19 03:29:30.000   47.480967814   19.056532573   182.7096   5  11   0.7142   1.0604   1.1562  -0.4226   0.7495  -0.4542   0.00    0.0
