% program   : GINA 1.0 gpstk's raw solution
% inp file  : C:\Users\lus2bp\Source\Repos\GINA\70_EGNOS_Project\files\PositionComparisonInputFiles\bute0190\bute0190.19o
% inp file  : C:\Users\lus2bp\Source\Repos\GINA\70_EGNOS_Project\files\PositionComparisonInputFiles\bute0190\brdc0190.19n
% obs start : 2019/01/19 00:00:00.0 GPST (week2036 518400.0s)
% obs end   : 2019/01/19 23:59:30.0 GPST (week2036 604770.0s)
% pos mode  : single
% elev mask : 10.0 deg
% ionos opt : Ionex model
% tropo opt : Saas
% ephemeris : broadcasted
% (lat/lon/height=WGS84/ellipsoidal,Q=1:fix,2:float,3:sbas,4:dgps,5:single,6:ppp,ns=# of satellites)
%  GPST                  latitude(deg) longitude(deg)  height(m)   Q  ns   sdn(m)   sde(m)   sdu(m)  sdne(m)  sdeu(m)  sdun(m) age(s)  ratio
2019/01/19 00:00:00.000   47.480973458   19.056564661   182.0312   5  10   0.7050   0.5181   0.2734   0.2685   0.2685   0.4970   0.00    0.0
2019/01/19 00:00:30.000   47.480959210   19.056576946   185.6617   5   8   0.9665   0.9200   0.4587   0.8464   0.8464   0.9342   0.00    0.0
2019/01/19 00:01:00.000   47.480960934   19.056577664   185.9020   5   8   0.9692   0.9279   0.4624   0.8611   0.8611   0.9394   0.00    0.0
2019/01/19 00:01:30.000   47.480961111   19.056579519   185.8998   5   8   0.9720   0.9359   0.4662   0.8759   0.8759   0.9447   0.00    0.0
2019/01/19 00:02:00.000   47.480961603   19.056578499   186.0062   5   8   0.9747   0.9437   0.4699   0.8907   0.8907   0.9501   0.00    0.0
2019/01/19 00:02:30.000   47.480962484   19.056577313   186.7143   5   8   0.9776   0.9515   0.4736   0.9054   0.9054   0.9556   0.00    0.0
2019/01/19 00:03:00.000   47.480962610   19.056575941   186.8379   5   8   0.9804   0.9592   0.4773   0.9202   0.9202   0.9612   0.00    0.0
2019/01/19 00:03:30.000   47.480963210   19.056571559   186.5470   5   8   0.9833   0.9669   0.4810   0.9349   0.9349   0.9668   0.00    0.0
2019/01/19 00:04:00.000   47.480963036   19.056568697   186.3912   5   8   0.9862   0.9745   0.4847   0.9496   0.9496   0.9725   0.00    0.0
2019/01/19 00:04:30.000   47.480962418   19.056569347   186.3505   5   8   0.9891   0.9820   0.4883   0.9643   0.9643   0.9783   0.00    0.0
2019/01/19 00:05:00.000   47.480960790   19.056568429   186.3268   5   8   0.9920   0.9893   0.4920   0.9789   0.9789   0.9841   0.00    0.0
2019/01/19 00:05:30.000   47.480958689   19.056570727   186.5372   5   8   0.9950   0.9966   0.4956   0.9933   0.9933   0.9900   0.00    0.0
2019/01/19 00:06:00.000   47.480957625   19.056573044   186.8805   5   8   0.9979   1.0038   0.4992   1.0077   1.0077   0.9959   0.00    0.0
2019/01/19 00:06:30.000   47.480957202   19.056573569   186.9507   5   8   1.0009   1.0109   0.5028   1.0219   1.0219   1.0018   0.00    0.0
2019/01/19 00:07:00.000   47.480957851   19.056573849   186.7393   5   8   1.0039   1.0178   0.5063   1.0360   1.0360   1.0078   0.00    0.0
2019/01/19 00:07:30.000   47.480959144   19.056571283   186.7191   5   8   1.0069   1.0246   0.5099   1.0500   1.0500   1.0138   0.00    0.0
2019/01/19 00:08:00.000   47.480959725   19.056568866   186.7171   5   8   1.0098   1.0313   0.5134   1.0638   1.0638   1.0198   0.00    0.0
2019/01/19 00:08:30.000   47.480959186   19.056569310   186.8017   5   8   1.0128   1.0379   0.5168   1.0773   1.0773   1.0258   0.00    0.0
2019/01/19 00:09:00.000   47.480958630   19.056569188   186.8625   5   8   1.0158   1.0443   0.5203   1.0907   1.0907   1.0318   0.00    0.0
2019/01/19 00:09:30.000   47.480958211   19.056569663   187.1590   5   8   1.0187   1.0506   0.5237   1.1038   1.1038   1.0378   0.00    0.0
2019/01/19 00:10:00.000   47.480957836   19.056570936   187.4812   5   8   1.0216   1.0567   0.5271   1.1167   1.1167   1.0437   0.00    0.0
2019/01/19 00:10:30.000   47.480958916   19.056570402   187.6662   5   8   1.0245   1.0626   0.5304   1.1293   1.1293   1.0497   0.00    0.0
2019/01/19 00:11:00.000   47.480959934   19.056568578   187.3189   5   8   1.0274   1.0684   0.5337   1.1416   1.1416   1.0556   0.00    0.0
2019/01/19 00:11:30.000   47.480960083   19.056568912   186.8471   5   8   1.0303   1.0740   0.5370   1.1536   1.1536   1.0614   0.00    0.0
2019/01/19 00:12:00.000   47.480960145   19.056570691   186.7392   5   8   1.0331   1.0794   0.5402   1.1653   1.1653   1.0672   0.00    0.0
2019/01/19 00:12:30.000   47.480960009   19.056571242   186.5321   5   8   1.0359   1.0847   0.5434   1.1766   1.1766   1.0730   0.00    0.0
2019/01/19 00:13:00.000   47.480960132   19.056572741   186.3417   5   8   1.0386   1.0897   0.5466   1.1876   1.1876   1.0787   0.00    0.0
2019/01/19 00:13:30.000   47.480959369   19.056576617   186.5378   5   8   1.0413   1.0946   0.5497   1.1982   1.1982   1.0843   0.00    0.0
2019/01/19 00:14:00.000   47.480959565   19.056577889   186.6742   5   8   1.0439   1.0992   0.5528   1.2085   1.2085   1.0898   0.00    0.0
2019/01/19 00:14:30.000   47.480960529   19.056578124   186.7149   5   8   1.0465   1.1037   0.5558   1.2183   1.2183   1.0952   0.00    0.0
2019/01/19 00:15:00.000   47.480960906   19.056577599   186.6024   5   8   1.0491   1.1079   0.5587   1.2277   1.2277   1.1005   0.00    0.0
2019/01/19 00:15:30.000   47.480960342   19.056575446   186.3256   5   8   1.0515   1.1120   0.5616   1.2367   1.2367   1.1057   0.00    0.0
2019/01/19 00:16:00.000   47.480960559   19.056573596   186.1621   5   8   1.0539   1.1159   0.5645   1.2452   1.2452   1.1107   0.00    0.0
2019/01/19 00:16:30.000   47.480960789   19.056571878   185.4314   5   8   1.0562   1.1195   0.5673   1.2533   1.2533   1.1157   0.00    0.0
2019/01/19 00:17:00.000   47.480959202   19.056573514   184.9474   5   8   1.0585   1.1229   0.5701   1.2609   1.2609   1.1205   0.00    0.0
2019/01/19 00:17:30.000   47.480958044   19.056573085   184.8724   5   8   1.0607   1.1260   0.5729   1.2680   1.2680   1.1252   0.00    0.0
2019/01/19 00:18:00.000   47.480957516   19.056573109   184.8833   5   8   1.0629   1.1290   0.5755   1.2747   1.2747   1.1297   0.00    0.0
2019/01/19 00:18:30.000   47.480956863   19.056574226   184.9477   5   8   1.0649   1.1317   0.5782   1.2808   1.2808   1.1341   0.00    0.0
2019/01/19 00:19:00.000   47.480955344   19.056574228   185.0697   5   8   1.0669   1.1342   0.5808   1.2865   1.2865   1.1383   0.00    0.0
2019/01/19 00:19:30.000   47.480954670   19.056572234   185.0396   5   8   1.0688   1.1365   0.5833   1.2917   1.2917   1.1423   0.00    0.0
2019/01/19 00:20:00.000   47.480954483   19.056571300   184.9437   5   8   1.0706   1.1385   0.5858   1.2963   1.2963   1.1462   0.00    0.0
2019/01/19 00:20:30.000   47.480954720   19.056570548   184.8000   5   8   1.0724   1.1404   0.5882   1.3005   1.3005   1.1500   0.00    0.0
2019/01/19 00:21:00.000   47.480954248   19.056570702   184.8022   5   8   1.0740   1.1420   0.5906   1.3041   1.3041   1.1535   0.00    0.0
2019/01/19 00:21:30.000   47.480952605   19.056572763   185.1895   5   8   1.0756   1.1433   0.5929   1.3073   1.3073   1.1569   0.00    0.0
2019/01/19 00:22:00.000   47.480951559   19.056573923   185.4959   5   8   1.0771   1.1445   0.5952   1.3099   1.3099   1.1601   0.00    0.0
2019/01/19 00:22:30.000   47.480951106   19.056575581   185.5363   5   8   1.0784   1.1454   0.5975   1.3120   1.3120   1.1631   0.00    0.0
2019/01/19 00:23:00.000   47.480952023   19.056573771   185.2879   5   8   1.0797   1.1461   0.5997   1.3136   1.3136   1.1659   0.00    0.0
2019/01/19 00:23:30.000   47.480952627   19.056571518   184.9462   5   8   1.0810   1.1466   0.6018   1.3147   1.3147   1.1685   0.00    0.0
2019/01/19 00:24:00.000   47.480952788   19.056570800   184.8504   5   8   1.0821   1.1469   0.6039   1.3153   1.3153   1.1709   0.00    0.0
2019/01/19 00:24:30.000   47.480952181   19.056571136   184.7539   5   8   1.0831   1.1469   0.6060   1.3154   1.3154   1.1732   0.00    0.0
2019/01/19 00:25:00.000   47.480951036   19.056574117   184.8967   5   8   1.0841   1.1467   0.6080   1.3151   1.3151   1.1752   0.00    0.0
2019/01/19 00:25:30.000   47.480950464   19.056576923   185.1179   5   8   1.0850   1.1464   0.6099   1.3142   1.3142   1.1771   0.00    0.0
2019/01/19 00:26:00.000   47.480949653   19.056577228   185.0643   5   8   1.0857   1.1458   0.6119   1.3129   1.3129   1.1788   0.00    0.0
2019/01/19 00:26:30.000   47.480949410   19.056574452   184.6905   5   8   1.0864   1.1450   0.6137   1.3112   1.3112   1.1803   0.00    0.0
2019/01/19 00:27:00.000   47.480948951   19.056571469   184.5124   5   8   1.0870   1.1441   0.6156   1.3090   1.3090   1.1816   0.00    0.0
2019/01/19 00:27:30.000   47.480948807   19.056570617   184.5930   5   8   1.0875   1.1429   0.6174   1.3063   1.3063   1.1827   0.00    0.0
2019/01/19 00:28:00.000   47.480949818   19.056568679   184.5302   5   8   1.0880   1.1416   0.6192   1.3033   1.3033   1.1837   0.00    0.0
2019/01/19 00:28:30.000   47.480950324   19.056567784   184.3882   5   8   1.0883   1.1401   0.6209   1.2998   1.2998   1.1845   0.00    0.0
2019/01/19 00:29:00.000   47.480951197   19.056566240   184.0338   5   8   1.0886   1.1384   0.6226   1.2959   1.2959   1.1851   0.00    0.0
2019/01/19 00:29:30.000   47.480952426   19.056566905   183.8809   5   8   1.0888   1.1365   0.6242   1.2917   1.2917   1.1855   0.00    0.0
2019/01/19 00:30:00.000   47.480953249   19.056567890   183.7278   5   8   1.0889   1.1345   0.6259   1.2870   1.2870   1.1858   0.00    0.0
2019/01/19 00:30:30.000   47.480952209   19.056570024   183.6839   5   8   1.0890   1.1323   0.6275   1.2821   1.2821   1.1859   0.00    0.0
2019/01/19 00:31:00.000   47.480950203   19.056572524   183.8661   5   8   1.0890   1.1299   0.6291   1.2767   1.2767   1.1858   0.00    0.0
2019/01/19 00:31:30.000   47.480950921   19.056568361   183.7026   5   8   1.0889   1.1274   0.6306   1.2711   1.2711   1.1856   0.00    0.0
2019/01/19 00:32:00.000   47.480949116   19.056568175   183.5844   5   8   1.0887   1.1248   0.6321   1.2651   1.2651   1.1852   0.00    0.0
2019/01/19 00:32:30.000   47.480946085   19.056570124   183.3508   5   8   1.0884   1.1220   0.6336   1.2588   1.2588   1.1847   0.00    0.0
2019/01/19 00:33:00.000   47.480943713   19.056572042   183.2562   5   8   1.0882   1.1191   0.6351   1.2523   1.2523   1.1841   0.00    0.0
2019/01/19 00:33:30.000   47.480942905   19.056573824   183.4141   5   8   1.0878   1.1160   0.6366   1.2455   1.2455   1.1833   0.00    0.0
2019/01/19 00:34:00.000   47.480943110   19.056574746   183.5479   5   8   1.0874   1.1128   0.6380   1.2384   1.2384   1.1824   0.00    0.0
2019/01/19 00:34:30.000   47.480944556   19.056572416   183.3722   5   8   1.0869   1.1095   0.6394   1.2311   1.2311   1.1814   0.00    0.0
2019/01/19 00:35:00.000   47.480944883   19.056571664   183.5519   5   8   1.0864   1.1061   0.6408   1.2235   1.2235   1.1802   0.00    0.0
2019/01/19 00:35:30.000   47.480944525   19.056570713   183.4876   5   8   1.0858   1.1026   0.6422   1.2157   1.2157   1.1790   0.00    0.0
2019/01/19 00:36:00.000   47.480944038   19.056569197   183.2136   5   8   1.0852   1.0990   0.6436   1.2078   1.2078   1.1776   0.00    0.0
2019/01/19 00:36:30.000   47.480943799   19.056567529   182.9870   5   8   1.0845   1.0953   0.6449   1.1996   1.1996   1.1761   0.00    0.0
2019/01/19 00:37:00.000   47.480943373   19.056566586   182.9179   5   8   1.0837   1.0915   0.6463   1.1913   1.1913   1.1745   0.00    0.0
2019/01/19 00:37:30.000   47.480943125   19.056566050   182.9411   5   8   1.0830   1.0876   0.6476   1.1829   1.1829   1.1728   0.00    0.0
2019/01/19 00:38:00.000   47.480942876   19.056568688   183.1144   5   8   1.0822   1.0836   0.6490   1.1742   1.1742   1.1711   0.00    0.0
2019/01/19 00:38:30.000   47.480944031   19.056570241   183.2347   5   8   1.0813   1.0796   0.6503   1.1655   1.1655   1.1692   0.00    0.0
2019/01/19 00:39:00.000   47.480944146   19.056570286   183.2822   5   8   1.0804   1.0754   0.6516   1.1566   1.1566   1.1673   0.00    0.0
2019/01/19 00:39:30.000   47.480943165   19.056569444   183.1805   5   8   1.0795   1.0713   0.6529   1.1476   1.1476   1.1653   0.00    0.0
2019/01/19 00:40:00.000   47.480943772   19.056566836   182.9512   5   8   1.0785   1.0670   0.6542   1.1385   1.1385   1.1632   0.00    0.0
2019/01/19 00:40:30.000   47.480943737   19.056567356   183.0183   5   8   1.0775   1.0627   0.6555   1.1293   1.1293   1.1611   0.00    0.0
2019/01/19 00:41:00.000   47.480943450   19.056570908   183.0719   5   8   1.0765   1.0583   0.6568   1.1201   1.1201   1.1589   0.00    0.0
2019/01/19 00:41:30.000   47.480943911   19.056571214   182.6244   5   8   1.0755   1.0539   0.6581   1.1108   1.1108   1.1566   0.00    0.0
2019/01/19 00:42:00.000   47.480941885   19.056572544   182.4756   5   8   1.0744   1.0495   0.6594   1.1014   1.1014   1.1543   0.00    0.0
2019/01/19 00:42:30.000   47.480940289   19.056572899   182.5611   5   8   1.0733   1.0450   0.6607   1.0919   1.0919   1.1519   0.00    0.0
2019/01/19 00:43:00.000   47.480940916   19.056571515   182.7161   5   8   1.0722   1.0404   0.6620   1.0825   1.0825   1.1496   0.00    0.0
2019/01/19 00:43:30.000   47.480944691   19.056571523   183.1720   5   8   1.0710   1.0358   0.6633   1.0730   1.0730   1.1471   0.00    0.0
2019/01/19 00:44:00.000   47.480947557   19.056569312   183.1244   5   8   1.0699   1.0312   0.6646   1.0634   1.0634   1.1446   0.00    0.0
2019/01/19 00:44:30.000   47.480948880   19.056566477   182.7843   5   8   1.0687   1.0266   0.6659   1.0539   1.0539   1.1421   0.00    0.0
2019/01/19 00:45:00.000   47.480947728   19.056567929   182.6419   5   8   1.0675   1.0219   0.6672   1.0443   1.0443   1.1395   0.00    0.0
2019/01/19 00:45:30.000   47.480946894   19.056569801   182.6534   5   8   1.0663   1.0173   0.6685   1.0348   1.0348   1.1369   0.00    0.0
2019/01/19 00:46:00.000   47.480947173   19.056570308   182.8444   5   8   1.0650   1.0126   0.6698   1.0252   1.0252   1.1343   0.00    0.0
2019/01/19 00:46:30.000   47.480946862   19.056570953   182.9277   5   8   1.0638   1.0078   0.6711   1.0157   1.0157   1.1317   0.00    0.0
2019/01/19 00:47:00.000   47.480946552   19.056558597   180.7400   5   9   0.9394   0.7898   0.4055   0.6237   0.6237   0.8824   0.00    0.0
2019/01/19 00:47:30.000   47.480946000   19.056558388   180.8437   5   9   0.9396   0.7891   0.4085   0.6227   0.6227   0.8828   0.00    0.0
2019/01/19 00:48:00.000   47.480946002   19.056557688   180.8336   5   9   0.9398   0.7884   0.4114   0.6215   0.6215   0.8832   0.00    0.0
2019/01/19 00:48:30.000   47.480947214   19.056555809   180.8906   5   9   0.9400   0.7876   0.4143   0.6202   0.6202   0.8835   0.00    0.0
2019/01/19 00:49:00.000   47.480947976   19.056556209   180.8497   5   9   0.9401   0.7867   0.4172   0.6189   0.6189   0.8838   0.00    0.0
2019/01/19 00:49:30.000   47.480948298   19.056558008   180.9860   5   9   0.9402   0.7858   0.4200   0.6175   0.6175   0.8840   0.00    0.0
2019/01/19 00:50:00.000   47.480947054   19.056559058   180.9891   5   9   0.9403   0.7849   0.4229   0.6159   0.6159   0.8842   0.00    0.0
2019/01/19 00:50:30.000   47.480946268   19.056560585   181.1705   5   9   0.9404   0.7838   0.4258   0.6143   0.6143   0.8844   0.00    0.0
2019/01/19 00:51:00.000   47.480946422   19.056560948   181.1738   5   9   0.9405   0.7827   0.4287   0.6126   0.6126   0.8845   0.00    0.0
2019/01/19 00:51:30.000   47.480946062   19.056561927   181.2982   5   9   0.9405   0.7816   0.4315   0.6109   0.6109   0.8846   0.00    0.0
2019/01/19 00:52:00.000   47.480944233   19.056563144   181.1886   5   9   0.9406   0.7804   0.4344   0.6090   0.6090   0.8847   0.00    0.0
2019/01/19 00:52:30.000   47.480943133   19.056562645   181.0724   5   9   0.9406   0.7792   0.4372   0.6071   0.6071   0.8847   0.00    0.0
2019/01/19 00:53:00.000   47.480942451   19.056561790   180.9406   5   9   0.9406   0.7779   0.4401   0.6051   0.6051   0.8847   0.00    0.0
2019/01/19 00:53:30.000   47.480943478   19.056561106   180.7311   5   9   0.9405   0.7766   0.4429   0.6031   0.6031   0.8846   0.00    0.0
2019/01/19 00:54:00.000   47.480944686   19.056561763   180.5842   5   9   0.9405   0.7752   0.4457   0.6009   0.6009   0.8845   0.00    0.0
2019/01/19 00:54:30.000   47.480945200   19.056563061   180.5397   5   9   0.9404   0.7738   0.4485   0.5987   0.5987   0.8844   0.00    0.0
2019/01/19 00:55:00.000   47.480944314   19.056563031   180.5607   5   9   0.9403   0.7723   0.4512   0.5965   0.5965   0.8842   0.00    0.0
2019/01/19 00:55:30.000   47.480943520   19.056561571   180.3908   5   9   0.9402   0.7708   0.4540   0.5942   0.5942   0.8840   0.00    0.0
2019/01/19 00:56:00.000   47.480943072   19.056561521   180.4611   5   9   0.9401   0.7693   0.4567   0.5918   0.5918   0.8837   0.00    0.0
2019/01/19 00:56:30.000   47.480941711   19.056560739   180.6764   5   9   0.9399   0.7677   0.4595   0.5894   0.5894   0.8834   0.00    0.0
2019/01/19 00:57:00.000   47.480941429   19.056559966   180.5726   5   9   0.9397   0.7661   0.4622   0.5869   0.5869   0.8831   0.00    0.0
2019/01/19 00:57:30.000   47.480942192   19.056560062   180.2470   5   9   0.9396   0.7645   0.4649   0.5844   0.5844   0.8828   0.00    0.0
2019/01/19 00:58:00.000   47.480942665   19.056559436   179.9414   5   9   0.9394   0.7628   0.4675   0.5818   0.5818   0.8824   0.00    0.0
2019/01/19 00:58:30.000   47.480942249   19.056558435   179.4951   5   9   0.9391   0.7611   0.4702   0.5792   0.5792   0.8820   0.00    0.0
2019/01/19 00:59:00.000   47.480941847   19.056557133   179.2600   5   9   0.9389   0.7593   0.4728   0.5766   0.5766   0.8816   0.00    0.0
2019/01/19 00:59:30.000   47.480943615   19.056557250   178.9596   5   9   0.9387   0.7576   0.4755   0.5739   0.5739   0.8811   0.00    0.0
2019/01/19 01:00:00.000   47.480944842   19.056556775   179.2788   5   9   0.9384   0.7558   0.4781   0.5711   0.5711   0.8806   0.00    0.0
2019/01/19 01:00:30.000   47.480946551   19.056555225   179.6818   5   9   0.9381   0.7539   0.4807   0.5684   0.5684   0.8801   0.00    0.0
2019/01/19 01:01:00.000   47.480948805   19.056553766   179.6634   5   9   0.9378   0.7521   0.4832   0.5656   0.5656   0.8795   0.00    0.0
2019/01/19 01:01:30.000   47.480949735   19.056552255   179.6619   5   9   0.9375   0.7502   0.4858   0.5627   0.5627   0.8789   0.00    0.0
2019/01/19 01:02:00.000   47.480949618   19.056552091   179.7540   5   9   0.9372   0.7483   0.4883   0.5599   0.5599   0.8783   0.00    0.0
2019/01/19 01:02:30.000   47.480948715   19.056551875   179.8273   5   9   0.9368   0.7463   0.4908   0.5570   0.5570   0.8777   0.00    0.0
2019/01/19 01:03:00.000   47.480948155   19.056552340   180.0726   5   9   0.9365   0.7444   0.4933   0.5540   0.5540   0.8770   0.00    0.0
2019/01/19 01:03:30.000   47.480947267   19.056554653   180.4263   5   9   0.9361   0.7424   0.4957   0.5511   0.5511   0.8763   0.00    0.0
2019/01/19 01:04:00.000   47.480947800   19.056554722   180.7262   5   9   0.9357   0.7404   0.4982   0.5481   0.5481   0.8756   0.00    0.0
2019/01/19 01:04:30.000   47.480947561   19.056554374   181.0970   5   9   0.9353   0.7384   0.5006   0.5452   0.5452   0.8748   0.00    0.0
2019/01/19 01:05:00.000   47.480946248   19.056553579   181.1611   5   9   0.9349   0.7363   0.5030   0.5421   0.5421   0.8740   0.00    0.0
2019/01/19 01:05:30.000   47.480946347   19.056551153   181.0512   5   9   0.9345   0.7343   0.5054   0.5391   0.5391   0.8732   0.00    0.0
2019/01/19 01:06:00.000   47.480947357   19.056547755   180.9368   5   9   0.9340   0.7322   0.5077   0.5361   0.5361   0.8724   0.00    0.0
2019/01/19 01:06:30.000   47.480947782   19.056545680   180.8692   5   9   0.9335   0.7301   0.5100   0.5330   0.5330   0.8715   0.00    0.0
2019/01/19 01:07:00.000   47.480948780   19.056545631   180.9306   5   9   0.9331   0.7280   0.5123   0.5300   0.5300   0.8706   0.00    0.0
2019/01/19 01:07:30.000   47.480948770   19.056545514   181.0981   5   9   0.9326   0.7259   0.5146   0.5269   0.5269   0.8697   0.00    0.0
2019/01/19 01:08:00.000   47.480949582   19.056545956   180.9759   5   9   0.9321   0.7238   0.5168   0.5238   0.5238   0.8687   0.00    0.0
2019/01/19 01:08:30.000   47.480950795   19.056545190   180.6034   5   9   0.9315   0.7216   0.5190   0.5207   0.5207   0.8678   0.00    0.0
2019/01/19 01:09:00.000   47.480952904   19.056544137   180.4277   5   9   0.9310   0.7195   0.5212   0.5176   0.5176   0.8668   0.00    0.0
2019/01/19 01:09:30.000   47.480954163   19.056543951   180.2364   5   9   0.9304   0.7173   0.5234   0.5145   0.5145   0.8657   0.00    0.0
2019/01/19 01:10:00.000   47.480954387   19.056544671   180.1056   5   9   0.9299   0.7151   0.5255   0.5114   0.5114   0.8647   0.00    0.0
2019/01/19 01:10:30.000   47.480954113   19.056546531   180.0213   5   9   0.9293   0.7129   0.5276   0.5082   0.5082   0.8636   0.00    0.0
2019/01/19 01:11:00.000   47.480952413   19.056549964   180.1732   5   9   0.9287   0.7107   0.5297   0.5051   0.5051   0.8625   0.00    0.0
2019/01/19 01:11:30.000   47.480950348   19.056550728   180.1816   5   9   0.9281   0.7085   0.5318   0.5020   0.5020   0.8614   0.00    0.0
2019/01/19 01:12:00.000   47.480949574   19.056549488   179.9517   5   9   0.9275   0.7063   0.5338   0.4989   0.4989   0.8602   0.00    0.0
2019/01/19 01:12:30.000   47.480948530   19.056548546   179.5614   5   9   0.9269   0.7041   0.5358   0.4957   0.4957   0.8591   0.00    0.0
2019/01/19 01:13:00.000   47.480947536   19.056547395   179.5901   5   9   0.9262   0.7019   0.5378   0.4926   0.4926   0.8579   0.00    0.0
2019/01/19 01:13:30.000   47.480948096   19.056547677   179.6631   5   9   0.9255   0.6996   0.5398   0.4895   0.4895   0.8566   0.00    0.0
2019/01/19 01:14:00.000   47.480948542   19.056547257   179.9307   5   9   0.9249   0.6974   0.5417   0.4863   0.4863   0.8554   0.00    0.0
2019/01/19 01:14:30.000   47.480950646   19.056545710   180.0783   5   9   0.9242   0.6952   0.5436   0.4832   0.4832   0.8541   0.00    0.0
2019/01/19 01:15:00.000   47.480952278   19.056545323   180.2188   5   9   0.9235   0.6929   0.5454   0.4801   0.4801   0.8528   0.00    0.0
2019/01/19 01:15:30.000   47.480952714   19.056546683   180.3701   5   9   0.9228   0.6906   0.5473   0.4769   0.4769   0.8515   0.00    0.0
2019/01/19 01:16:00.000   47.480952893   19.056548429   180.4797   5   9   0.9220   0.6884   0.5491   0.4738   0.4738   0.8501   0.00    0.0
2019/01/19 01:16:30.000   47.480954184   19.056549122   180.4481   5   9   0.9213   0.6861   0.5509   0.4707   0.4707   0.8487   0.00    0.0
2019/01/19 01:17:00.000   47.480954694   19.056548733   180.5553   5   9   0.9205   0.6838   0.5526   0.4676   0.4676   0.8473   0.00    0.0
2019/01/19 01:17:30.000   47.480956054   19.056549407   180.5282   5   9   0.9197   0.6816   0.5543   0.4645   0.4645   0.8459   0.00    0.0
2019/01/19 01:18:00.000   47.480956095   19.056548904   180.5657   5   9   0.9189   0.6793   0.5560   0.4614   0.4614   0.8445   0.00    0.0
2019/01/19 01:18:30.000   47.480956334   19.056548862   180.5610   5   9   0.9181   0.6770   0.5577   0.4583   0.4583   0.8430   0.00    0.0
2019/01/19 01:19:00.000   47.480956461   19.056549165   180.4278   5   9   0.9173   0.6747   0.5593   0.4552   0.4552   0.8415   0.00    0.0
2019/01/19 01:19:30.000   47.480957170   19.056546325   180.3283   5   9   0.9165   0.6725   0.5609   0.4522   0.4522   0.8399   0.00    0.0
2019/01/19 01:20:00.000   47.480954420   19.056546916   180.1467   5  10   0.9134   0.6462   0.5755   0.4175   0.4175   0.8342   0.00    0.0
2019/01/19 01:20:30.000   47.480953255   19.056545055   180.2197   5  10   0.9128   0.6459   0.5762   0.4172   0.4172   0.8332   0.00    0.0
2019/01/19 01:21:00.000   47.480952716   19.056543651   180.3983   5  10   0.9122   0.6456   0.5768   0.4167   0.4167   0.8322   0.00    0.0
2019/01/19 01:21:30.000   47.480952031   19.056542107   180.6385   5  10   0.9116   0.6452   0.5774   0.4163   0.4163   0.8310   0.00    0.0
2019/01/19 01:22:00.000   47.480951217   19.056540787   180.6598   5  10   0.9109   0.6448   0.5780   0.4157   0.4157   0.8298   0.00    0.0
2019/01/19 01:22:30.000   47.480950637   19.056539605   180.7670   5  10   0.9102   0.6443   0.5785   0.4151   0.4151   0.8285   0.00    0.0
2019/01/19 01:23:00.000   47.480950605   19.056538426   180.7203   5  10   0.9095   0.6438   0.5790   0.4145   0.4145   0.8272   0.00    0.0
2019/01/19 01:23:30.000   47.480950904   19.056536620   180.6823   5  10   0.9087   0.6433   0.5794   0.4138   0.4138   0.8257   0.00    0.0
2019/01/19 01:24:00.000   47.480950959   19.056538492   180.7538   5  10   0.9079   0.6427   0.5798   0.4130   0.4130   0.8243   0.00    0.0
2019/01/19 01:24:30.000   47.480952040   19.056540824   180.7185   5  10   0.9070   0.6420   0.5801   0.4122   0.4122   0.8227   0.00    0.0
2019/01/19 01:25:00.000   47.480952716   19.056543617   180.6024   5  10   0.9061   0.6413   0.5804   0.4113   0.4113   0.8211   0.00    0.0
2019/01/19 01:25:30.000   47.480954227   19.056545492   180.1731   5  10   0.9052   0.6406   0.5807   0.4104   0.4104   0.8194   0.00    0.0
2019/01/19 01:26:00.000   47.480954873   19.056545681   179.7660   5  10   0.9042   0.6398   0.5809   0.4094   0.4094   0.8176   0.00    0.0
2019/01/19 01:26:30.000   47.480956507   19.056545097   179.5111   5   9   1.4208   0.8433   0.8281   0.7111   0.7111   2.0188   0.00    0.0
2019/01/19 01:27:00.000   47.480955687   19.056545636   179.5699   5   9   1.4223   0.8438   0.8316   0.7119   0.7119   2.0228   0.00    0.0
2019/01/19 01:27:30.000   47.480954935   19.056546453   179.6609   5   9   1.4236   0.8442   0.8351   0.7126   0.7126   2.0266   0.00    0.0
2019/01/19 01:28:00.000   47.480956487   19.056547170   179.6257   5   9   1.4249   0.8445   0.8385   0.7132   0.7132   2.0302   0.00    0.0
2019/01/19 01:28:30.000   47.480942314   19.056543088   178.0866   5   8   1.4267   0.8314   0.8398   0.6911   0.6911   2.0355   0.00    0.0
2019/01/19 01:29:00.000   47.480942738   19.056543127   178.2414   5   8   1.4276   0.8335   0.8433   0.6946   0.6946   2.0381   0.00    0.0
2019/01/19 01:29:30.000   47.480943411   19.056542257   178.2102   5   8   1.4284   0.8355   0.8467   0.6980   0.6980   2.0405   0.00    0.0
2019/01/19 01:30:00.000   47.480944386   19.056541852   178.0679   5   8   1.4292   0.8375   0.8501   0.7014   0.7014   2.0427   0.00    0.0
2019/01/19 01:30:30.000   47.480943932   19.056543296   178.0296   5   8   1.4299   0.8395   0.8534   0.7046   0.7046   2.0447   0.00    0.0
2019/01/19 01:31:00.000   47.480945932   19.056540623   177.5567   5   9   1.1593   0.6160   0.4779   0.3794   0.3794   1.3441   0.00    0.0
2019/01/19 01:31:30.000   47.480945270   19.056538887   177.5756   5   9   1.1593   0.6180   0.4806   0.3819   0.3819   1.3439   0.00    0.0
2019/01/19 01:32:00.000   47.480946308   19.056537887   177.5530   5   9   1.1592   0.6200   0.4833   0.3843   0.3843   1.3437   0.00    0.0
2019/01/19 01:32:30.000   47.480947430   19.056537443   177.5529   5   9   1.1591   0.6219   0.4861   0.3867   0.3867   1.3434   0.00    0.0
2019/01/19 01:33:00.000   47.480946714   19.056537866   177.7477   5   9   1.1589   0.6238   0.4887   0.3891   0.3891   1.3431   0.00    0.0
2019/01/19 01:33:30.000   47.480946378   19.056537672   177.5841   5   9   1.1588   0.6257   0.4914   0.3915   0.3915   1.3428   0.00    0.0
2019/01/19 01:34:00.000   47.480945518   19.056536337   177.3415   5   9   1.1586   0.6276   0.4941   0.3938   0.3938   1.3424   0.00    0.0
2019/01/19 01:34:30.000   47.480945587   19.056534356   177.1883   5   9   1.1585   0.6294   0.4967   0.3961   0.3961   1.3420   0.00    0.0
2019/01/19 01:35:00.000   47.480946038   19.056533577   177.0128   5   9   1.1583   0.6312   0.4993   0.3984   0.3984   1.3416   0.00    0.0
2019/01/19 01:35:30.000   47.480948183   19.056532998   176.6890   5   9   1.1580   0.6330   0.5019   0.4006   0.4006   1.3410   0.00    0.0
2019/01/19 01:36:00.000   47.480948795   19.056534154   176.6065   5   9   1.1578   0.6347   0.5044   0.4028   0.4028   1.3405   0.00    0.0
2019/01/19 01:36:30.000   47.480948324   19.056534872   176.9246   5   9   1.1575   0.6364   0.5070   0.4049   0.4049   1.3399   0.00    0.0
2019/01/19 01:37:00.000   47.480946963   19.056536936   177.1217   5   9   1.1573   0.6381   0.5095   0.4071   0.4071   1.3393   0.00    0.0
2019/01/19 01:37:30.000   47.480945767   19.056537966   177.1957   5   9   1.1570   0.6397   0.5120   0.4092   0.4092   1.3386   0.00    0.0
2019/01/19 01:38:00.000   47.480945090   19.056537913   177.0500   5   9   1.1566   0.6413   0.5145   0.4112   0.4112   1.3378   0.00    0.0
2019/01/19 01:38:30.000   47.480945190   19.056537183   176.8396   5   9   1.1563   0.6429   0.5170   0.4132   0.4132   1.3371   0.00    0.0
2019/01/19 01:39:00.000   47.480945369   19.056536432   176.8294   5   9   1.1559   0.6444   0.5194   0.4152   0.4152   1.3362   0.00    0.0
2019/01/19 01:39:30.000   47.480945987   19.056535895   176.7519   5   9   1.1556   0.6459   0.5219   0.4171   0.4171   1.3353   0.00    0.0
2019/01/19 01:40:00.000   47.480946712   19.056535794   176.8069   5   9   1.1552   0.6474   0.5243   0.4190   0.4190   1.3344   0.00    0.0
2019/01/19 01:40:30.000   47.480946189   19.056535262   176.7696   5   9   1.1547   0.6488   0.5266   0.4209   0.4209   1.3334   0.00    0.0
2019/01/19 01:41:00.000   47.480945028   19.056535004   176.6974   5   9   1.1543   0.6502   0.5290   0.4226   0.4226   1.3324   0.00    0.0
2019/01/19 01:41:30.000   47.480943014   19.056535384   176.9644   5   9   1.1538   0.6515   0.5314   0.4244   0.4244   1.3313   0.00    0.0
2019/01/19 01:42:00.000   47.480941090   19.056535228   177.1820   5   9   1.1533   0.6528   0.5337   0.4261   0.4261   1.3301   0.00    0.0
2019/01/19 01:42:30.000   47.480941442   19.056534930   177.0965   5   9   1.1528   0.6541   0.5360   0.4278   0.4278   1.3289   0.00    0.0
2019/01/19 01:43:00.000   47.480942164   19.056534443   176.9544   5   9   1.1522   0.6553   0.5382   0.4294   0.4294   1.3276   0.00    0.0
2019/01/19 01:43:30.000   47.480943248   19.056533705   176.6887   5   9   1.1517   0.6565   0.5405   0.4310   0.4310   1.3263   0.00    0.0
2019/01/19 01:44:00.000   47.480943551   19.056535399   176.6370   5   9   1.1511   0.6577   0.5427   0.4325   0.4325   1.3249   0.00    0.0
2019/01/19 01:44:30.000   47.480943196   19.056537114   176.6586   5   9   1.1504   0.6588   0.5449   0.4339   0.4339   1.3235   0.00    0.0
2019/01/19 01:45:00.000   47.480943214   19.056536877   176.6372   5   9   1.1498   0.6599   0.5471   0.4353   0.4353   1.3220   0.00    0.0
2019/01/19 01:45:30.000   47.480943841   19.056535951   176.6084   5   9   1.1491   0.6609   0.5493   0.4367   0.4367   1.3205   0.00    0.0
2019/01/19 01:46:00.000   47.480945796   19.056533626   176.3699   5   9   1.1484   0.6619   0.5514   0.4380   0.4380   1.3189   0.00    0.0
2019/01/19 01:46:30.000   47.480946193   19.056531804   176.1328   5   9   1.1477   0.6628   0.5536   0.4393   0.4393   1.3172   0.00    0.0
2019/01/19 01:47:00.000   47.480946064   19.056531517   176.2763   5   9   1.1470   0.6637   0.5557   0.4405   0.4405   1.3155   0.00    0.0
2019/01/19 01:47:30.000   47.480946297   19.056531028   176.2794   5   9   1.1462   0.6646   0.5577   0.4416   0.4416   1.3137   0.00    0.0
2019/01/19 01:48:00.000   47.480946616   19.056530841   176.3124   5   9   1.1454   0.6654   0.5598   0.4427   0.4427   1.3119   0.00    0.0
2019/01/19 01:48:30.000   47.480945939   19.056531016   176.2903   5   9   1.1446   0.6662   0.5618   0.4438   0.4438   1.3100   0.00    0.0
2019/01/19 01:49:00.000   47.480945934   19.056531784   176.0592   5   9   1.1437   0.6669   0.5638   0.4447   0.4447   1.3081   0.00    0.0
2019/01/19 01:49:30.000   47.480945860   19.056531855   175.8709   5   9   1.1428   0.6676   0.5658   0.4457   0.4457   1.3061   0.00    0.0
2019/01/19 01:50:00.000   47.480947449   19.056530436   175.6536   5   9   1.1419   0.6683   0.5678   0.4465   0.4465   1.3040   0.00    0.0
2019/01/19 01:50:30.000   47.480948831   19.056531204   175.6085   5   9   1.1410   0.6689   0.5697   0.4473   0.4473   1.3019   0.00    0.0
2019/01/19 01:51:00.000   47.480948913   19.056531356   175.5934   5   9   1.1400   0.6695   0.5716   0.4481   0.4481   1.2997   0.00    0.0
2019/01/19 01:51:30.000   47.480949856   19.056529774   175.4637   5   9   1.1391   0.6700   0.5735   0.4488   0.4488   1.2975   0.00    0.0
2019/01/19 01:52:00.000   47.480949030   19.056529799   175.5276   5   9   1.1381   0.6704   0.5754   0.4494   0.4494   1.2952   0.00    0.0
2019/01/19 01:52:30.000   47.480949042   19.056530508   175.5937   5   9   1.1370   0.6709   0.5772   0.4500   0.4500   1.2928   0.00    0.0
2019/01/19 01:53:00.000   47.480948534   19.056530826   175.7884   5  10   1.1360   0.6692   0.5794   0.4477   0.4477   1.2904   0.00    0.0
2019/01/19 01:53:30.000   47.480948650   19.056531078   175.7516   5  10   1.1349   0.6704   0.5810   0.4494   0.4494   1.2880   0.00    0.0
2019/01/19 01:54:00.000   47.480950472   19.056530095   175.7078   5  10   1.1338   0.6717   0.5826   0.4511   0.4511   1.2855   0.00    0.0
2019/01/19 01:54:30.000   47.480951956   19.056529970   175.6848   5  10   1.1326   0.6729   0.5842   0.4527   0.4527   1.2829   0.00    0.0
2019/01/19 01:55:00.000   47.480953306   19.056528553   175.5644   5  10   1.1315   0.6740   0.5858   0.4542   0.4542   1.2802   0.00    0.0
2019/01/19 01:55:30.000   47.480953037   19.056528157   175.4932   5  10   1.1303   0.6751   0.5873   0.4557   0.4557   1.2775   0.00    0.0
2019/01/19 01:56:00.000   47.480952044   19.056527896   175.4574   5  10   1.1290   0.6761   0.5888   0.4571   0.4571   1.2747   0.00    0.0
2019/01/19 01:56:30.000   47.480950386   19.056528005   175.4697   5  10   1.1278   0.6771   0.5902   0.4584   0.4584   1.2719   0.00    0.0
2019/01/19 01:57:00.000   47.480949395   19.056528560   175.6675   5  10   1.1265   0.6781   0.5917   0.4597   0.4597   1.2690   0.00    0.0
2019/01/19 01:57:30.000   47.480949722   19.056528134   175.7716   5  10   1.1251   0.6789   0.5931   0.4609   0.4609   1.2660   0.00    0.0
2019/01/19 01:58:00.000   47.480949859   19.056528408   176.1657   5  10   1.1238   0.6798   0.5945   0.4620   0.4620   1.2629   0.00    0.0
2019/01/19 01:58:30.000   47.480950654   19.056526839   176.3833   5  10   1.1224   0.6806   0.5958   0.4631   0.4631   1.2597   0.00    0.0
2019/01/19 01:59:00.000   47.480950750   19.056526880   176.4795   5  10   1.1210   0.6813   0.5971   0.4641   0.4641   1.2565   0.00    0.0
2019/01/19 01:59:30.000   47.480945572   19.056540729   178.6841   5  11   1.0507   0.5889   0.4566   0.3468   0.3468   1.1039   0.00    0.0
2019/01/19 02:00:00.000   47.480945821   19.056541402   178.5422   5  11   1.0492   0.5898   0.4578   0.3478   0.3478   1.1008   0.00    0.0
2019/01/19 02:00:30.000   47.480945809   19.056543552   178.3617   5  11   1.0477   0.5906   0.4591   0.3488   0.3488   1.0976   0.00    0.0
2019/01/19 02:01:00.000   47.480944836   19.056544084   178.3524   5  11   1.0462   0.5914   0.4603   0.3497   0.3497   1.0944   0.00    0.0
2019/01/19 02:01:30.000   47.480943954   19.056543746   178.3063   5  11   1.0446   0.5921   0.4615   0.3506   0.3506   1.0912   0.00    0.0
2019/01/19 02:02:00.000   47.480947108   19.056549979   177.3139   5  10   1.3407   0.7795   0.3658   0.6075   0.6075   1.7975   0.00    0.0
2019/01/19 02:02:30.000   47.480946432   19.056549360   177.3593   5  10   1.3384   0.7815   0.3691   0.6106   0.6106   1.7912   0.00    0.0
2019/01/19 02:03:00.000   47.480946822   19.056547491   177.1881   5  10   1.3360   0.7834   0.3723   0.6136   0.6136   1.7849   0.00    0.0
2019/01/19 02:03:30.000   47.480947952   19.056544830   176.9412   5  10   1.3336   0.7852   0.3755   0.6165   0.6165   1.7785   0.00    0.0
2019/01/19 02:04:00.000   47.480948940   19.056542838   176.8054   5  10   1.3312   0.7870   0.3787   0.6193   0.6193   1.7720   0.00    0.0
2019/01/19 02:04:30.000   47.480947996   19.056544036   176.9050   5  10   1.3287   0.7887   0.3818   0.6220   0.6220   1.7654   0.00    0.0
2019/01/19 02:05:00.000   47.480946821   19.056544859   177.2803   5  10   1.3262   0.7904   0.3848   0.6246   0.6246   1.7588   0.00    0.0
2019/01/19 02:05:30.000   47.480946222   19.056544668   177.6264   5  10   1.3237   0.7920   0.3878   0.6272   0.6272   1.7521   0.00    0.0
2019/01/19 02:06:00.000   47.480946478   19.056544464   177.8096   5  10   1.3211   0.7935   0.3907   0.6296   0.6296   1.7453   0.00    0.0
2019/01/19 02:06:30.000   47.480948331   19.056543318   177.3258   5  10   1.3185   0.7950   0.3936   0.6319   0.6319   1.7385   0.00    0.0
2019/01/19 02:07:00.000   47.480949476   19.056540310   176.6253   5  10   1.3159   0.7964   0.3965   0.6341   0.6341   1.7315   0.00    0.0
2019/01/19 02:07:30.000   47.480947887   19.056539174   176.3133   5  10   1.3132   0.7977   0.3993   0.6363   0.6363   1.7245   0.00    0.0
2019/01/19 02:08:00.000   47.480944342   19.056542030   176.7894   5  10   1.3105   0.7990   0.4020   0.6383   0.6383   1.7175   0.00    0.0
2019/01/19 02:08:30.000   47.480941681   19.056546385   177.4588   5  10   1.3078   0.8002   0.4047   0.6402   0.6402   1.7104   0.00    0.0
2019/01/19 02:09:00.000   47.480940140   19.056548728   178.0814   5  10   1.3051   0.8013   0.4074   0.6420   0.6420   1.7032   0.00    0.0
2019/01/19 02:09:30.000   47.480939940   19.056548645   178.2340   5  10   1.3023   0.8024   0.4100   0.6437   0.6437   1.6960   0.00    0.0
2019/01/19 02:10:00.000   47.480942442   19.056545559   177.7124   5  10   1.2995   0.8034   0.4126   0.6453   0.6453   1.6886   0.00    0.0
2019/01/19 02:10:30.000   47.480944223   19.056542315   177.1970   5  10   1.2966   0.8043   0.4151   0.6468   0.6468   1.6812   0.00    0.0
2019/01/19 02:11:00.000   47.480943424   19.056541997   177.2076   5  10   1.2937   0.8052   0.4176   0.6482   0.6482   1.6738   0.00    0.0
2019/01/19 02:11:30.000   47.480941469   19.056542285   177.3262   5  10   1.2908   0.8060   0.4200   0.6495   0.6495   1.6663   0.00    0.0
2019/01/19 02:12:00.000   47.480939254   19.056543665   177.8106   5  10   1.2879   0.8067   0.4224   0.6507   0.6507   1.6587   0.00    0.0
2019/01/19 02:12:30.000   47.480938894   19.056544343   177.9694   5  10   1.2849   0.8073   0.4248   0.6517   0.6517   1.6511   0.00    0.0
2019/01/19 02:13:00.000   47.480940159   19.056543330   177.8559   5  10   1.2819   0.8079   0.4271   0.6527   0.6527   1.6433   0.00    0.0
2019/01/19 02:13:30.000   47.480939372   19.056539190   177.1093   5  11   1.2788   0.8108   0.4315   0.6573   0.6573   1.6354   0.00    0.0
2019/01/19 02:14:00.000   47.480941946   19.056538240   176.6065   5  11   1.2758   0.8113   0.4338   0.6580   0.6580   1.6276   0.00    0.0
2019/01/19 02:14:30.000   47.480942194   19.056538450   176.3625   5  11   1.2727   0.8117   0.4360   0.6587   0.6587   1.6197   0.00    0.0
2019/01/19 02:15:00.000   47.480941024   19.056539195   176.3367   5  11   1.2696   0.8120   0.4381   0.6593   0.6593   1.6118   0.00    0.0
2019/01/19 02:15:30.000   47.480940621   19.056539462   176.2904   5  11   1.2664   0.8123   0.4403   0.6597   0.6597   1.6038   0.00    0.0
2019/01/19 02:16:00.000   47.480941631   19.056537474   176.0452   5  11   1.2632   0.8125   0.4424   0.6601   0.6601   1.5958   0.00    0.0
2019/01/19 02:16:30.000   47.480942104   19.056536322   175.9656   5  11   1.2600   0.8127   0.4444   0.6603   0.6603   1.5877   0.00    0.0
2019/01/19 02:17:00.000   47.480942067   19.056536772   175.9346   5  11   1.2568   0.8128   0.4465   0.6605   0.6605   1.5795   0.00    0.0
2019/01/19 02:17:30.000   47.480941473   19.056537066   176.0452   5  11   1.2535   0.8128   0.4485   0.6606   0.6606   1.5714   0.00    0.0
2019/01/19 02:18:00.000   47.480941009   19.056536791   175.8123   5  10   1.2504   0.8068   0.4494   0.6508   0.6508   1.5636   0.00    0.0
2019/01/19 02:18:30.000   47.480940804   19.056536871   175.4990   5  10   1.2470   0.8095   0.4518   0.6552   0.6552   1.5550   0.00    0.0
2019/01/19 02:19:00.000   47.480941622   19.056536607   175.0573   5  10   1.2436   0.8122   0.4542   0.6596   0.6596   1.5465   0.00    0.0
2019/01/19 02:19:30.000   47.480941190   19.056538209   174.8911   5  10   1.2402   0.8150   0.4566   0.6641   0.6641   1.5382   0.00    0.0
2019/01/19 02:20:00.000   47.480940861   19.056538399   174.8905   5  10   1.2370   0.8178   0.4591   0.6687   0.6687   1.5301   0.00    0.0
2019/01/19 02:20:30.000   47.480941349   19.056536630   175.0316   5  10   1.2337   0.8206   0.4615   0.6733   0.6733   1.5221   0.00    0.0
2019/01/19 02:21:00.000   47.480942392   19.056534241   175.2797   5  10   1.2306   0.8234   0.4640   0.6779   0.6779   1.5144   0.00    0.0
2019/01/19 02:21:30.000   47.480942546   19.056534831   175.5157   5  10   1.2275   0.8263   0.4664   0.6827   0.6827   1.5067   0.00    0.0
2019/01/19 02:22:00.000   47.480943113   19.056536261   175.8763   5  10   1.2245   0.8292   0.4689   0.6875   0.6875   1.4993   0.00    0.0
2019/01/19 02:22:30.000   47.480942977   19.056537218   176.4052   5  10   1.2215   0.8321   0.4714   0.6923   0.6923   1.4920   0.00    0.0
2019/01/19 02:23:00.000   47.480942810   19.056538691   176.9303   5  10   1.2185   0.8351   0.4739   0.6973   0.6973   1.4848   0.00    0.0
2019/01/19 02:23:30.000   47.480943752   19.056538640   177.2128   5  10   1.2157   0.8381   0.4765   0.7023   0.7023   1.4778   0.00    0.0
2019/01/19 02:24:00.000   47.480944417   19.056537517   177.0876   5  10   1.2129   0.8411   0.4790   0.7073   0.7073   1.4710   0.00    0.0
2019/01/19 02:24:30.000   47.480944501   19.056536871   176.8368   5  10   1.2101   0.8441   0.4816   0.7124   0.7124   1.4643   0.00    0.0
2019/01/19 02:25:00.000   47.480944023   19.056536177   176.4191   5  10   1.2074   0.8472   0.4841   0.7176   0.7176   1.4578   0.00    0.0
2019/01/19 02:25:30.000   47.480943371   19.056536386   176.1382   5  10   1.2047   0.8503   0.4867   0.7229   0.7229   1.4514   0.00    0.0
2019/01/19 02:26:00.000   47.480943192   19.056536153   175.7334   5  10   1.2021   0.8534   0.4893   0.7282   0.7282   1.4451   0.00    0.0
2019/01/19 02:26:30.000   47.480942937   19.056536215   175.5620   5  10   1.1996   0.8566   0.4919   0.7336   0.7336   1.4390   0.00    0.0
2019/01/19 02:27:00.000   47.480942694   19.056535438   175.4266   5  10   1.1971   0.8598   0.4946   0.7391   0.7391   1.4331   0.00    0.0
2019/01/19 02:27:30.000   47.480942376   19.056535117   175.7388   5  10   1.1947   0.8630   0.4972   0.7446   0.7446   1.4272   0.00    0.0
2019/01/19 02:28:00.000   47.480942127   19.056535836   176.0749   5  10   1.1923   0.8662   0.4999   0.7502   0.7502   1.4215   0.00    0.0
2019/01/19 02:28:30.000   47.480942228   19.056535759   176.2238   5  10   1.1899   0.8694   0.5026   0.7558   0.7558   1.4160   0.00    0.0
2019/01/19 02:29:00.000   47.480940261   19.056535120   176.2057   5  11   0.9367   0.7619   0.2751   0.5805   0.5805   0.8774   0.00    0.0
2019/01/19 02:29:30.000   47.480940854   19.056532796   175.4399   5  11   0.9369   0.7656   0.2793   0.5861   0.5861   0.8778   0.00    0.0
2019/01/19 02:30:00.000   47.480939375   19.056531951   175.3600   5  11   0.9371   0.7693   0.2834   0.5917   0.5917   0.8782   0.00    0.0
2019/01/19 02:30:30.000   47.480936977   19.056532753   175.6594   5  11   0.9374   0.7730   0.2875   0.5974   0.5974   0.8786   0.00    0.0
2019/01/19 02:31:00.000   47.480935798   19.056534140   176.1810   5  11   0.9376   0.7766   0.2917   0.6031   0.6031   0.8791   0.00    0.0
2019/01/19 02:31:30.000   47.480935715   19.056535639   176.7565   5  11   0.9378   0.7803   0.2957   0.6089   0.6089   0.8795   0.00    0.0
2019/01/19 02:32:00.000   47.480936443   19.056535507   177.1262   5  11   0.9380   0.7840   0.2998   0.6146   0.6146   0.8799   0.00    0.0
2019/01/19 02:32:30.000   47.480938256   19.056533780   176.8220   5  11   0.9382   0.7877   0.3038   0.6204   0.6204   0.8803   0.00    0.0
2019/01/19 02:33:00.000   47.480938716   19.056532980   176.3972   5  11   0.9384   0.7914   0.3079   0.6263   0.6263   0.8807   0.00    0.0
2019/01/19 02:33:30.000   47.480938013   19.056533218   176.0943   5  11   0.9386   0.7951   0.3119   0.6321   0.6321   0.8810   0.00    0.0
2019/01/19 02:34:00.000   47.480936799   19.056533999   176.0070   5  11   0.9388   0.7988   0.3158   0.6380   0.6380   0.8814   0.00    0.0
2019/01/19 02:34:30.000   47.480936252   19.056534283   176.2802   5  11   0.9391   0.8025   0.3198   0.6439   0.6439   0.8818   0.00    0.0
2019/01/19 02:35:00.000   47.480936796   19.056533669   176.2687   5  11   0.9393   0.8062   0.3238   0.6498   0.6498   0.8822   0.00    0.0
2019/01/19 02:35:30.000   47.480938065   19.056532537   176.2174   5  11   0.9394   0.8098   0.3277   0.6557   0.6557   0.8826   0.00    0.0
2019/01/19 02:36:00.000   47.480939707   19.056531901   176.2225   5  11   0.9396   0.8135   0.3316   0.6617   0.6617   0.8829   0.00    0.0
2019/01/19 02:36:30.000   47.480940328   19.056531931   176.4356   5  11   0.9398   0.8171   0.3355   0.6676   0.6676   0.8833   0.00    0.0
2019/01/19 02:37:00.000   47.480940820   19.056532122   176.4025   5  11   0.9400   0.8208   0.3394   0.6736   0.6736   0.8836   0.00    0.0
2019/01/19 02:37:30.000   47.480939160   19.056532442   176.5957   5  11   0.9402   0.8244   0.3432   0.6795   0.6795   0.8839   0.00    0.0
2019/01/19 02:38:00.000   47.480935979   19.056532904   176.6096   5  11   0.9403   0.8280   0.3471   0.6855   0.6855   0.8842   0.00    0.0
2019/01/19 02:38:30.000   47.480933209   19.056534344   176.5219   5  11   0.9405   0.8316   0.3509   0.6915   0.6915   0.8845   0.00    0.0
2019/01/19 02:39:00.000   47.480932434   19.056535001   176.2938   5  11   0.9406   0.8351   0.3547   0.6974   0.6974   0.8848   0.00    0.0
2019/01/19 02:39:30.000   47.480933947   19.056535513   176.0808   5  11   0.9407   0.8387   0.3585   0.7033   0.7033   0.8850   0.00    0.0
2019/01/19 02:40:00.000   47.480935679   19.056534199   175.9340   5  11   0.9409   0.8422   0.3622   0.7093   0.7093   0.8852   0.00    0.0
2019/01/19 02:40:30.000   47.480936333   19.056532668   176.0844   5  11   0.9410   0.8457   0.3659   0.7151   0.7151   0.8854   0.00    0.0
2019/01/19 02:41:00.000   47.480935948   19.056531429   176.4674   5  11   0.9411   0.8492   0.3697   0.7210   0.7210   0.8856   0.00    0.0
2019/01/19 02:41:30.000   47.480935050   19.056531774   176.7977   5  11   0.9411   0.8526   0.3734   0.7269   0.7269   0.8857   0.00    0.0
2019/01/19 02:42:00.000   47.480934611   19.056531937   176.8478   5  11   0.9412   0.8560   0.3770   0.7327   0.7327   0.8858   0.00    0.0
2019/01/19 02:42:30.000   47.480934278   19.056532766   176.4693   5  11   0.9412   0.8593   0.3807   0.7384   0.7384   0.8859   0.00    0.0
2019/01/19 02:43:00.000   47.480935180   19.056532564   176.0361   5  11   0.9413   0.8627   0.3843   0.7441   0.7441   0.8860   0.00    0.0
2019/01/19 02:43:30.000   47.480937240   19.056532322   175.5761   5  11   0.9413   0.8659   0.3879   0.7498   0.7498   0.8860   0.00    0.0
2019/01/19 02:44:00.000   47.480937984   19.056532148   175.5912   5  11   0.9412   0.8692   0.3914   0.7554   0.7554   0.8859   0.00    0.0
2019/01/19 02:44:30.000   47.480936976   19.056531060   175.6467   5  11   0.9412   0.8724   0.3950   0.7609   0.7609   0.8859   0.00    0.0
2019/01/19 02:45:00.000   47.480934644   19.056528503   175.5527   5  11   0.9411   0.8755   0.3985   0.7664   0.7664   0.8857   0.00    0.0
2019/01/19 02:45:30.000   47.480933146   19.056527123   175.3622   5  11   0.9411   0.8786   0.4020   0.7718   0.7718   0.8856   0.00    0.0
2019/01/19 02:46:00.000   47.480932797   19.056527206   175.3650   5  11   0.9409   0.8816   0.4054   0.7771   0.7771   0.8854   0.00    0.0
2019/01/19 02:46:30.000   47.480934012   19.056528181   175.5667   5  11   0.9408   0.8845   0.4088   0.7823   0.7823   0.8851   0.00    0.0
2019/01/19 02:47:00.000   47.480934805   19.056527703   175.6709   5  11   0.9406   0.8874   0.4122   0.7874   0.7874   0.8848   0.00    0.0
2019/01/19 02:47:30.000   47.480934501   19.056527971   175.9363   5  11   0.9404   0.8903   0.4155   0.7924   0.7924   0.8844   0.00    0.0
2019/01/19 02:48:00.000   47.480933112   19.056529017   175.9238   5  11   0.9402   0.8930   0.4189   0.7973   0.7973   0.8840   0.00    0.0
2019/01/19 02:48:30.000   47.480933289   19.056530130   176.0090   5  11   0.9400   0.8957   0.4221   0.8021   0.8021   0.8835   0.00    0.0
2019/01/19 02:49:00.000   47.480935046   19.056531380   175.9634   5  11   0.9397   0.8983   0.4254   0.8067   0.8067   0.8830   0.00    0.0
2019/01/19 02:49:30.000   47.480937264   19.056531129   175.7704   5  11   0.9393   0.9008   0.4285   0.8112   0.8112   0.8824   0.00    0.0
2019/01/19 02:50:00.000   47.480939574   19.056530019   175.6198   5  11   0.9390   0.9032   0.4317   0.8156   0.8156   0.8817   0.00    0.0
2019/01/19 02:50:30.000   47.480939665   19.056529260   175.8848   5  11   0.9386   0.9055   0.4348   0.8198   0.8198   0.8809   0.00    0.0
2019/01/19 02:51:00.000   47.480939600   19.056526695   176.0021   5  11   0.9381   0.9077   0.4379   0.8239   0.8239   0.8801   0.00    0.0
2019/01/19 02:51:30.000   47.480940176   19.056525435   176.2878   5  11   0.9376   0.9099   0.4409   0.8277   0.8277   0.8792   0.00    0.0
2019/01/19 02:52:00.000   47.480940239   19.056525319   176.4518   5  11   0.9371   0.9119   0.4438   0.8314   0.8314   0.8782   0.00    0.0
2019/01/19 02:52:30.000   47.480939563   19.056526118   176.5042   5  11   0.9366   0.9138   0.4467   0.8350   0.8350   0.8771   0.00    0.0
2019/01/19 02:53:00.000   47.480938331   19.056527341   176.7017   5  11   0.9360   0.9157   0.4496   0.8383   0.8383   0.8760   0.00    0.0
2019/01/19 02:53:30.000   47.480937849   19.056525170   176.3778   5  11   0.9353   0.9174   0.4524   0.8414   0.8414   0.8748   0.00    0.0
2019/01/19 02:54:00.000   47.480937109   19.056523714   176.2887   5  11   0.9346   0.9189   0.4551   0.8443   0.8443   0.8735   0.00    0.0
2019/01/19 02:54:30.000   47.480937756   19.056523254   176.1989   5  11   0.9338   0.9204   0.4578   0.8470   0.8470   0.8721   0.00    0.0
2019/01/19 02:55:00.000   47.480938497   19.056523704   176.3609   5  11   0.9330   0.9218   0.4605   0.8495   0.8495   0.8705   0.00    0.0
2019/01/19 02:55:30.000   47.480939326   19.056524457   176.7262   5  11   0.9322   0.9230   0.4630   0.8518   0.8518   0.8690   0.00    0.0
2019/01/19 02:56:00.000   47.480939097   19.056524987   177.1108   5  11   0.9313   0.9241   0.4656   0.8538   0.8538   0.8673   0.00    0.0
2019/01/19 02:56:30.000   47.480939120   19.056525002   176.9904   5  11   0.9303   0.9250   0.4680   0.8555   0.8555   0.8655   0.00    0.0
2019/01/19 02:57:00.000   47.480939975   19.056524725   176.6637   5  11   0.9293   0.9258   0.4704   0.8571   0.8571   0.8636   0.00    0.0
2019/01/19 02:57:30.000   47.480939568   19.056525035   176.7826   5  11   0.9283   0.9265   0.4727   0.8583   0.8583   0.8617   0.00    0.0
2019/01/19 02:58:00.000   47.480939183   19.056525854   176.7272   5  11   0.9271   0.9270   0.4749   0.8593   0.8593   0.8596   0.00    0.0
2019/01/19 02:58:30.000   47.480939135   19.056526915   176.7887   5  11   0.9260   0.9274   0.4771   0.8600   0.8600   0.8574   0.00    0.0
2019/01/19 02:59:00.000   47.480939756   19.056526091   176.7550   5  11   0.9247   0.9277   0.4792   0.8605   0.8605   0.8551   0.00    0.0
2019/01/19 02:59:30.000   47.480940760   19.056526794   177.0311   5  11   0.9234   0.9278   0.4813   0.8607   0.8607   0.8527   0.00    0.0
2019/01/19 03:00:00.000   47.480941459   19.056528415   177.1697   5  11   0.9221   0.9277   0.4832   0.8606   0.8606   0.8503   0.00    0.0
2019/01/19 03:00:30.000   47.480941238   19.056529166   177.1685   5  11   0.9207   0.9275   0.4851   0.8602   0.8602   0.8477   0.00    0.0
2019/01/19 03:01:00.000   47.480941027   19.056529665   177.3894   5  11   0.9192   0.9271   0.4869   0.8595   0.8595   0.8450   0.00    0.0
2019/01/19 03:01:30.000   47.480940890   19.056528413   177.7495   5  11   0.9177   0.9266   0.4886   0.8585   0.8585   0.8422   0.00    0.0
2019/01/19 03:02:00.000   47.480941066   19.056526156   178.1462   5  11   0.9161   0.9259   0.4903   0.8573   0.8573   0.8393   0.00    0.0
2019/01/19 03:02:30.000   47.480941070   19.056524767   178.3747   5  11   0.9145   0.9251   0.4919   0.8557   0.8557   0.8364   0.00    0.0
2019/01/19 03:03:00.000   47.480940638   19.056523777   178.5317   5  11   0.9129   0.9241   0.4934   0.8539   0.8539   0.8333   0.00    0.0
2019/01/19 03:03:30.000   47.480939591   19.056523134   178.4050   5  11   0.9111   0.9229   0.4948   0.8517   0.8517   0.8301   0.00    0.0
2019/01/19 03:04:00.000   47.480940030   19.056521390   178.3048   5  11   0.9093   0.9216   0.4962   0.8493   0.8493   0.8269   0.00    0.0
2019/01/19 03:04:30.000   47.480940369   19.056520685   178.3901   5  11   0.9075   0.9201   0.4974   0.8465   0.8465   0.8235   0.00    0.0
2019/01/19 03:05:00.000   47.480939884   19.056520058   178.6461   5  11   0.9056   0.9185   0.4986   0.8435   0.8435   0.8201   0.00    0.0
2019/01/19 03:05:30.000   47.480939954   19.056519276   178.7458   5  11   0.9036   0.9167   0.4997   0.8402   0.8402   0.8165   0.00    0.0
2019/01/19 03:06:00.000   47.480940700   19.056517965   179.3913   5  11   0.9016   0.9147   0.5008   0.8366   0.8366   0.8129   0.00    0.0
2019/01/19 03:06:30.000   47.480942732   19.056516872   180.0281   5  11   0.8996   0.9126   0.5017   0.8327   0.8327   0.8092   0.00    0.0
2019/01/19 03:07:00.000   47.480943393   19.056515793   180.1520   5  11   0.8975   0.9103   0.5026   0.8285   0.8285   0.8055   0.00    0.0
2019/01/19 03:07:30.000   47.480949099   19.056522562   181.6138   5  12   0.8429   0.7176   0.3889   0.5149   0.5149   0.7105   0.00    0.0
2019/01/19 03:08:00.000   47.480947865   19.056523511   181.7527   5  12   0.8415   0.7167   0.3906   0.5136   0.5136   0.7081   0.00    0.0
2019/01/19 03:08:30.000   47.480946930   19.056525647   181.5303   5  11   1.1758   0.9617   0.2882   0.9249   0.9249   1.3825   0.00    0.0
2019/01/19 03:09:00.000   47.480947329   19.056525482   181.4461   5  11   1.1755   0.9630   0.2930   0.9275   0.9275   1.3817   0.00    0.0
2019/01/19 03:09:30.000   47.480949189   19.056523197   181.2156   5  11   1.1751   0.9643   0.2977   0.9298   0.9298   1.3808   0.00    0.0
2019/01/19 03:10:00.000   47.480949269   19.056521879   181.1447   5  11   1.1746   0.9654   0.3024   0.9320   0.9320   1.3798   0.00    0.0
2019/01/19 03:10:30.000   47.480949439   19.056522633   180.9669   5  11   1.1741   0.9664   0.3070   0.9339   0.9339   1.3786   0.00    0.0
2019/01/19 03:11:00.000   47.480949921   19.056522760   181.0067   5  11   1.1736   0.9673   0.3114   0.9357   0.9357   1.3773   0.00    0.0
2019/01/19 03:11:30.000   47.480950831   19.056522495   181.2365   5  11   1.1730   0.9681   0.3158   0.9372   0.9372   1.3758   0.00    0.0
2019/01/19 03:12:00.000   47.480951115   19.056522616   181.1140   5  11   1.1723   0.9688   0.3202   0.9385   0.9385   1.3742   0.00    0.0
2019/01/19 03:12:30.000   47.480950811   19.056522883   180.9889   5  11   1.1715   0.9693   0.3244   0.9396   0.9396   1.3725   0.00    0.0
2019/01/19 03:13:00.000   47.480949540   19.056522951   181.0885   5  11   1.1707   0.9698   0.3286   0.9405   0.9405   1.3706   0.00    0.0
2019/01/19 03:13:30.000   47.480948568   19.056523991   181.3221   5  11   1.1699   0.9701   0.3327   0.9411   0.9411   1.3686   0.00    0.0
2019/01/19 03:14:00.000   47.480949009   19.056525612   181.3838   5  11   1.1689   0.9703   0.3367   0.9416   0.9416   1.3664   0.00    0.0
2019/01/19 03:14:30.000   47.480949326   19.056526127   181.2560   5  11   1.1679   0.9704   0.3406   0.9418   0.9418   1.3641   0.00    0.0
2019/01/19 03:15:00.000   47.480948745   19.056526325   181.2028   5  11   1.1669   0.9704   0.3445   0.9418   0.9418   1.3616   0.00    0.0
2019/01/19 03:15:30.000   47.480947719   19.056525751   181.1174   5  11   1.1658   0.9703   0.3483   0.9415   0.9415   1.3590   0.00    0.0
2019/01/19 03:16:00.000   47.480947207   19.056525531   181.0890   5  11   1.1646   0.9701   0.3520   0.9411   0.9411   1.3563   0.00    0.0
2019/01/19 03:16:30.000   47.480947827   19.056526215   180.5555   5  11   1.1633   0.9697   0.3556   0.9404   0.9404   1.3534   0.00    0.0
2019/01/19 03:17:00.000   47.480949916   19.056525597   179.8921   5  11   1.1620   0.9693   0.3592   0.9394   0.9394   1.3503   0.00    0.0
2019/01/19 03:17:30.000   47.480951351   19.056525466   179.5138   5  11   1.1607   0.9687   0.3627   0.9383   0.9383   1.3472   0.00    0.0
2019/01/19 03:18:00.000   47.480950494   19.056526132   179.6636   5  11   1.1593   0.9679   0.3661   0.9369   0.9369   1.3439   0.00    0.0
2019/01/19 03:18:30.000   47.480949431   19.056526821   180.0516   5  11   1.1578   0.9671   0.3695   0.9353   0.9353   1.3404   0.00    0.0
2019/01/19 03:19:00.000   47.480948819   19.056527063   180.4459   5  11   1.1562   0.9662   0.3728   0.9335   0.9335   1.3369   0.00    0.0
2019/01/19 03:19:30.000   47.480950961   19.056527515   180.5602   5  11   1.1546   0.9651   0.3760   0.9314   0.9314   1.3332   0.00    0.0
2019/01/19 03:20:00.000   47.480952112   19.056527244   180.7169   5  11   1.1530   0.9639   0.3792   0.9292   0.9292   1.3293   0.00    0.0
2019/01/19 03:20:30.000   47.480951778   19.056526563   181.1826   5  11   1.1513   0.9626   0.3823   0.9267   0.9267   1.3254   0.00    0.0
2019/01/19 03:21:00.000   47.480950400   19.056525647   181.4538   5  11   1.1495   0.9612   0.3853   0.9239   0.9239   1.3213   0.00    0.0
2019/01/19 03:21:30.000   47.480948787   19.056525229   181.6412   5  11   1.1477   0.9597   0.3883   0.9210   0.9210   1.3171   0.00    0.0
2019/01/19 03:22:00.000   47.480948088   19.056525206   181.6754   5  11   1.1458   0.9580   0.3912   0.9179   0.9179   1.3128   0.00    0.0
2019/01/19 03:22:30.000   47.480948567   19.056526393   181.6637   5  11   1.1438   0.9563   0.3940   0.9145   0.9145   1.3084   0.00    0.0
2019/01/19 03:23:00.000   47.480949077   19.056527448   181.2867   5  11   1.1419   0.9544   0.3968   0.9109   0.9109   1.3038   0.00    0.0
2019/01/19 03:23:30.000   47.480949048   19.056526515   180.7668   5  11   1.1398   0.9524   0.3995   0.9072   0.9072   1.2992   0.00    0.0
2019/01/19 03:24:00.000   47.480949374   19.056525708   180.7111   5  11   1.1377   0.9504   0.4021   0.9032   0.9032   1.2944   0.00    0.0
2019/01/19 03:24:30.000   47.480949939   19.056524837   181.0131   5  11   1.1356   0.9482   0.4047   0.8991   0.8991   1.2896   0.00    0.0
2019/01/19 03:25:00.000   47.480950758   19.056525042   181.1926   5  11   1.1334   0.9459   0.4073   0.8947   0.8947   1.2846   0.00    0.0
2019/01/19 03:25:30.000   47.480950585   19.056525382   181.5865   5  11   1.1312   0.9435   0.4098   0.8902   0.8902   1.2796   0.00    0.0
2019/01/19 03:26:00.000   47.480952049   19.056526109   181.6623   5  11   1.1289   0.9410   0.4122   0.8855   0.8855   1.2745   0.00    0.0
2019/01/19 03:26:30.000   47.480953732   19.056525872   181.3655   5  11   1.1266   0.9384   0.4145   0.8806   0.8806   1.2693   0.00    0.0
2019/01/19 03:27:00.000   47.480953128   19.056526425   181.4825   5  11   1.1243   0.9357   0.4169   0.8755   0.8755   1.2640   0.00    0.0
2019/01/19 03:27:30.000   47.480952095   19.056526088   181.8558   5  11   1.1219   0.9329   0.4191   0.8703   0.8703   1.2586   0.00    0.0
2019/01/19 03:28:00.000   47.480951150   19.056527898   182.3209   5  11   1.1195   0.9300   0.4213   0.8649   0.8649   1.2532   0.00    0.0
2019/01/19 03:28:30.000   47.480951071   19.056530679   182.5450   5  11   1.1170   0.9270   0.4235   0.8594   0.8594   1.2477   0.00    0.0
2019/01/19 03:29:00.000   47.480951683   19.056531077   182.6664   5  11   1.1145   0.9239   0.4256   0.8537   0.8537   1.2421   0.00    0.0
2019/01/19 03:29:30.000   47.480952719   19.056529354   182.6079   5  11   1.1120   0.9208   0.4276   0.8479   0.8479   1.2365   0.00    0.0
