% program   : GINA 1.0
% inp file  : C:\Users\lus2bp\Source\Repos\GINA\70_EGNOS_Project\files\PositionComparisonInputFiles\bute0190\bute0190.19o
% inp file  : C:\Users\lus2bp\Source\Repos\GINA\70_EGNOS_Project\files\PositionComparisonInputFiles\bute0190\brdc0190.19n
% obs start : 2019/01/19 00:00:00.0 GPST (week2036 518400.0s)
% obs end   : 2019/01/19 23:59:30.0 GPST (week2036 604770.0s)
% pos mode  : single
% elev mask : 15.0 deg
% ionos opt : ems
% tropo opt : Zero
% ephemeris : broadcasted
% (lat/lon/height=WGS84/ellipsoidal,Q=1:fix,2:float,3:sbas,4:dgps,5:single,6:ppp,ns=# of satellites)
%  GPST                  latitude(deg) longitude(deg)  height(m)   Q  ns   sdn(m)   sde(m)   sdu(m)  sdne(m)  sdeu(m)  sdun(m) age(s)  ratio
2019/01/19 00:00:00.000   47.480959507   19.056544370   198.3577   5   7   2.2349   1.4553   0.8579   2.2067  -0.6014  -0.4978   0.00    0.0
2019/01/19 00:00:30.000   47.480961597   19.056544828   198.1898   5   7   2.2460   1.4648   0.8601   2.2504  -0.6112  -0.5206   0.00    0.0
2019/01/19 00:01:00.000   47.480963706   19.056547080   198.1545   5   7   2.2571   1.4743   0.8623   2.2943  -0.6212  -0.5436   0.00    0.0
2019/01/19 00:01:30.000   47.480964182   19.056549974   197.9572   5   7   2.2683   1.4837   0.8646   2.3380  -0.6313  -0.5668   0.00    0.0
2019/01/19 00:02:00.000   47.480964849   19.056549158   198.0114   5   7   2.2795   1.4929   0.8670   2.3817  -0.6415  -0.5900   0.00    0.0
2019/01/19 00:02:30.000   47.480965759   19.056547052   198.8661   5   7   2.2907   1.5021   0.8694   2.4252  -0.6518  -0.6133   0.00    0.0
2019/01/19 00:03:00.000   47.480965835   19.056544076   199.2638   5   7   2.3019   1.5112   0.8719   2.4685  -0.6622  -0.6368   0.00    0.0
2019/01/19 00:03:30.000   47.480966905   19.056542485   198.4631   5   7   2.3130   1.5201   0.8744   2.5115  -0.6726  -0.6603   0.00    0.0
2019/01/19 00:04:00.000   47.480967177   19.056542449   197.7805   5   7   2.3241   1.5289   0.8770   2.5541  -0.6831  -0.6838   0.00    0.0
2019/01/19 00:04:30.000   47.480966716   19.056543504   197.6496   5   7   2.3351   1.5375   0.8797   2.5963  -0.6936  -0.7074   0.00    0.0
2019/01/19 00:05:00.000   47.480965342   19.056543993   197.3482   5   7   2.3460   1.5459   0.8824   2.6380  -0.7041  -0.7310   0.00    0.0
2019/01/19 00:05:30.000   47.480963335   19.056546245   197.5509   5   7   2.3568   1.5541   0.8852   2.6790  -0.7146  -0.7546   0.00    0.0
2019/01/19 00:06:00.000   47.480962353   19.056548451   197.9004   5   7   2.3674   1.5620   0.8880   2.7194  -0.7250  -0.7781   0.00    0.0
2019/01/19 00:06:30.000   47.480962094   19.056549773   197.8029   5   7   2.3778   1.5698   0.8908   2.7589  -0.7354  -0.8016   0.00    0.0
2019/01/19 00:07:00.000   47.480962802   19.056549784   197.6300   5   7   2.3880   1.5773   0.8937   2.7976  -0.7457  -0.8250   0.00    0.0
2019/01/19 00:07:30.000   47.480964167   19.056547123   197.6159   5   7   2.3980   1.5845   0.8966   2.8353  -0.7559  -0.8482   0.00    0.0
2019/01/19 00:08:00.000   47.480964795   19.056544364   197.6708   5   7   2.4078   1.5914   0.8995   2.8720  -0.7659  -0.8713   0.00    0.0
2019/01/19 00:08:30.000   47.480964138   19.056542434   198.2247   5   7   2.4173   1.5980   0.9025   2.9076  -0.7758  -0.8941   0.00    0.0
2019/01/19 00:09:00.000   47.480963513   19.056540433   198.6647   5   7   2.4265   1.6043   0.9054   2.9419  -0.7855  -0.9168   0.00    0.0
2019/01/19 00:09:30.000   47.480963183   19.056541100   198.9221   5   7   2.4353   1.6102   0.9084   2.9748  -0.7950  -0.9391   0.00    0.0
2019/01/19 00:10:00.000   47.480962944   19.056543281   199.0559   5   7   2.4439   1.6158   0.9114   3.0063  -0.8043  -0.9612   0.00    0.0
2019/01/19 00:10:30.000   47.480964118   19.056543357   199.1096   5   7   2.4520   1.6210   0.9143   3.0364  -0.8132  -0.9830   0.00    0.0
2019/01/19 00:11:00.000   47.480965324   19.056543431   198.3623   5   7   2.4598   1.6258   0.9173   3.0648  -0.8219  -1.0044   0.00    0.0
2019/01/19 00:11:30.000   47.480965582   19.056544657   197.6985   5   7   2.4671   1.6302   0.9202   3.0915  -0.8303  -1.0254   0.00    0.0
2019/01/19 00:12:00.000   47.480966476   19.056558590   194.9579   5   8   1.4139   1.4036   0.9177   1.4173  -0.7542  -0.8418   0.00    0.0
2019/01/19 00:12:30.000   47.480966366   19.056559187   194.7147   5   8   1.4185   1.4049   0.9199   1.4269  -0.7561  -0.8486   0.00    0.0
2019/01/19 00:13:00.000   47.480966512   19.056560730   194.4890   5   8   1.4230   1.4061   0.9221   1.4360  -0.7577  -0.8552   0.00    0.0
2019/01/19 00:13:30.000   47.480965770   19.056564649   194.6502   5   8   1.4274   1.4069   0.9242   1.4446  -0.7591  -0.8616   0.00    0.0
2019/01/19 00:14:00.000   47.480965984   19.056565964   194.7520   5   8   1.4316   1.4076   0.9263   1.4525  -0.7601  -0.8678   0.00    0.0
2019/01/19 00:14:30.000   47.480966965   19.056566241   194.7584   5   8   1.4356   1.4080   0.9283   1.4599  -0.7609  -0.8737   0.00    0.0
2019/01/19 00:15:00.000   47.480967357   19.056565761   194.6110   5   8   1.4394   1.4082   0.9303   1.4666  -0.7614  -0.8794   0.00    0.0
2019/01/19 00:15:30.000   47.480966808   19.056563657   194.2988   5   8   1.4430   1.4082   0.9322   1.4728  -0.7616  -0.8849   0.00    0.0
2019/01/19 00:16:00.000   47.480967043   19.056561850   194.1015   5   8   1.4465   1.4079   0.9341   1.4783  -0.7615  -0.8901   0.00    0.0
2019/01/19 00:16:30.000   47.480967291   19.056560175   193.3374   5   8   1.4498   1.4074   0.9359   1.4831  -0.7610  -0.8950   0.00    0.0
2019/01/19 00:17:00.000   47.480965722   19.056561861   192.8223   5   8   1.4528   1.4066   0.9376   1.4873  -0.7603  -0.8997   0.00    0.0
2019/01/19 00:17:30.000   47.480964580   19.056561481   192.7169   5   8   1.4557   1.4056   0.9393   1.4909  -0.7593  -0.9042   0.00    0.0
2019/01/19 00:18:00.000   47.480964067   19.056561553   192.6977   5   8   1.4584   1.4044   0.9410   1.4938  -0.7580  -0.9084   0.00    0.0
2019/01/19 00:18:30.000   47.480963428   19.056562718   192.7324   5   8   1.4609   1.4029   0.9426   1.4960  -0.7563  -0.9123   0.00    0.0
2019/01/19 00:19:00.000   47.480961924   19.056562762   192.8242   5   8   1.4631   1.4012   0.9441   1.4976  -0.7544  -0.9159   0.00    0.0
2019/01/19 00:19:30.000   47.480961266   19.056560807   192.7641   5   8   1.4652   1.3993   0.9456   1.4985  -0.7521  -0.9193   0.00    0.0
2019/01/19 00:20:00.000   47.480961093   19.056559911   192.6386   5   8   1.4671   1.3971   0.9470   1.4987  -0.7496  -0.9224   0.00    0.0
2019/01/19 00:20:30.000   47.480961343   19.056559197   192.4658   5   8   1.4687   1.3947   0.9484   1.4983  -0.7467  -0.9253   0.00    0.0
2019/01/19 00:21:00.000   47.480960876   19.056559392   192.4392   5   8   1.4702   1.3921   0.9497   1.4972  -0.7436  -0.9278   0.00    0.0
2019/01/19 00:21:30.000   47.480959235   19.056561495   192.7983   5   8   1.4714   1.3892   0.9510   1.4955  -0.7402  -0.9301   0.00    0.0
2019/01/19 00:22:00.000   47.480958192   19.056562696   193.0771   5   8   1.4724   1.3861   0.9522   1.4931  -0.7365  -0.9321   0.00    0.0
2019/01/19 00:22:30.000   47.480957743   19.056564394   193.0904   5   8   1.4733   1.3828   0.9534   1.4901  -0.7324  -0.9339   0.00    0.0
2019/01/19 00:23:00.000   47.480958662   19.056562625   192.8156   5   8   1.4739   1.3793   0.9545   1.4865  -0.7282  -0.9354   0.00    0.0
2019/01/19 00:23:30.000   47.480959269   19.056560413   192.4481   5   8   1.4743   1.3756   0.9556   1.4822  -0.7236  -0.9366   0.00    0.0
2019/01/19 00:24:00.000   47.480959433   19.056559735   192.3272   5   8   1.4745   1.3717   0.9566   1.4774  -0.7188  -0.9376   0.00    0.0
2019/01/19 00:24:30.000   47.480958830   19.056560111   192.2062   5   8   1.4746   1.3675   0.9576   1.4719  -0.7137  -0.9383   0.00    0.0
2019/01/19 00:25:00.000   47.480957688   19.056563131   192.3251   5   8   1.4744   1.3632   0.9586   1.4659  -0.7084  -0.9388   0.00    0.0
2019/01/19 00:25:30.000   47.480957120   19.056565978   192.5232   5   8   1.4740   1.3587   0.9595   1.4593  -0.7028  -0.9391   0.00    0.0
2019/01/19 00:26:00.000   47.480956313   19.056566322   192.4470   5   8   1.4735   1.3540   0.9604   1.4522  -0.6970  -0.9391   0.00    0.0
2019/01/19 00:26:30.000   47.480956076   19.056563585   192.0514   5   8   1.4727   1.3492   0.9612   1.4445  -0.6910  -0.9388   0.00    0.0
2019/01/19 00:27:00.000   47.480955624   19.056560644   191.8526   5   8   1.4718   1.3442   0.9620   1.4364  -0.6848  -0.9384   0.00    0.0
2019/01/19 00:27:30.000   47.480955492   19.056559845   191.9141   5   8   1.4707   1.3390   0.9628   1.4277  -0.6783  -0.9377   0.00    0.0
2019/01/19 00:28:00.000   47.480956515   19.056557959   191.8329   5   8   1.4695   1.3336   0.9635   1.4186  -0.6717  -0.9369   0.00    0.0
2019/01/19 00:28:30.000   47.480957033   19.056557116   191.6732   5   8   1.4680   1.3281   0.9642   1.4090  -0.6648  -0.9358   0.00    0.0
2019/01/19 00:29:00.000   47.480957918   19.056555624   191.3016   5   8   1.4664   1.3225   0.9649   1.3990  -0.6578  -0.9345   0.00    0.0
2019/01/19 00:29:30.000   47.480959160   19.056556340   191.1322   5   8   1.4647   1.3167   0.9656   1.3886  -0.6506  -0.9331   0.00    0.0
2019/01/19 00:30:00.000   47.480959996   19.056557376   190.9633   5   8   1.4627   1.3108   0.9663   1.3777  -0.6433  -0.9315   0.00    0.0
2019/01/19 00:30:30.000   47.480958969   19.056559561   190.9042   5   8   1.4607   1.3048   0.9669   1.3665  -0.6358  -0.9297   0.00    0.0
2019/01/19 00:31:00.000   47.480956961   19.056562107   191.0690   5   8   1.4584   1.2987   0.9675   1.3550  -0.6282  -0.9278   0.00    0.0
2019/01/19 00:31:30.000   47.480957675   19.056557989   190.8888   5   8   1.4561   1.2925   0.9681   1.3431  -0.6204  -0.9257   0.00    0.0
2019/01/19 00:32:00.000   47.480955872   19.056557841   190.7536   5   8   1.4536   1.2862   0.9687   1.3309  -0.6125  -0.9234   0.00    0.0
2019/01/19 00:32:30.000   47.480952845   19.056559821   190.5042   5   8   1.4510   1.2797   0.9693   1.3184  -0.6045  -0.9210   0.00    0.0
2019/01/19 00:33:00.000   47.480950482   19.056561761   190.3961   5   8   1.4483   1.2732   0.9699   1.3057  -0.5964  -0.9185   0.00    0.0
2019/01/19 00:33:30.000   47.480949682   19.056563565   190.5411   5   8   1.4454   1.2666   0.9704   1.2927  -0.5882  -0.9159   0.00    0.0
2019/01/19 00:34:00.000   47.480949898   19.056564508   190.6626   5   8   1.4424   1.2600   0.9710   1.2794  -0.5800  -0.9132   0.00    0.0
2019/01/19 00:34:30.000   47.480951353   19.056562198   190.4753   5   8   1.4394   1.2533   0.9716   1.2660  -0.5716  -0.9104   0.00    0.0
2019/01/19 00:35:00.000   47.480951692   19.056561467   190.6440   5   8   1.4362   1.2465   0.9721   1.2523  -0.5631  -0.9074   0.00    0.0
2019/01/19 00:35:30.000   47.480951345   19.056560535   190.5694   5   8   1.4329   1.2397   0.9727   1.2385  -0.5546  -0.9044   0.00    0.0
2019/01/19 00:36:00.000   47.480950872   19.056559044   190.2871   5   8   1.4295   1.2328   0.9733   1.2245  -0.5461  -0.9013   0.00    0.0
2019/01/19 00:36:30.000   47.480950647   19.056557405   190.0547   5   8   1.4261   1.2259   0.9739   1.2104  -0.5375  -0.8981   0.00    0.0
2019/01/19 00:37:00.000   47.480950237   19.056556491   189.9803   5   8   1.4226   1.2189   0.9744   1.1961  -0.5289  -0.8949   0.00    0.0
2019/01/19 00:37:30.000   47.480950006   19.056555985   189.9988   5   8   1.4189   1.2119   0.9750   1.1818  -0.5202  -0.8916   0.00    0.0
2019/01/19 00:38:00.000   47.480949776   19.056558650   190.1681   5   8   1.4153   1.2049   0.9756   1.1673  -0.5115  -0.8883   0.00    0.0
2019/01/19 00:38:30.000   47.480950948   19.056560231   190.2850   5   8   1.4115   1.1979   0.9763   1.1528  -0.5028  -0.8849   0.00    0.0
2019/01/19 00:39:00.000   47.480951082   19.056560303   190.3299   5   8   1.4077   1.1909   0.9769   1.1382  -0.4940  -0.8815   0.00    0.0
2019/01/19 00:39:30.000   47.480950121   19.056559488   190.2263   5   8   1.4038   1.1839   0.9775   1.1236  -0.4853  -0.8781   0.00    0.0
2019/01/19 00:40:00.000   47.480950749   19.056556908   189.9954   5   8   1.3999   1.1768   0.9782   1.1089  -0.4765  -0.8746   0.00    0.0
2019/01/19 00:40:30.000   47.480950735   19.056557457   190.0618   5   8   1.3959   1.1698   0.9789   1.0942  -0.4678  -0.8711   0.00    0.0
2019/01/19 00:41:00.000   47.480950463   19.056561043   190.1161   5   8   1.3919   1.1628   0.9796   1.0795  -0.4591  -0.8676   0.00    0.0
2019/01/19 00:41:30.000   47.480950937   19.056561381   189.6696   5   8   1.3879   1.1557   0.9803   1.0648  -0.4503  -0.8641   0.00    0.0
2019/01/19 00:42:00.000   47.480948924   19.056562744   189.5227   5   8   1.3838   1.1487   0.9811   1.0501  -0.4416  -0.8605   0.00    0.0
2019/01/19 00:42:30.000   47.480947344   19.056563130   189.6109   5   8   1.3796   1.1418   0.9818   1.0355  -0.4329  -0.8570   0.00    0.0
2019/01/19 00:43:00.000   47.480948231   19.056561829   189.8138   5   8   1.3755   1.1348   0.9826   1.0208  -0.4243  -0.8535   0.00    0.0
2019/01/19 00:43:30.000   47.480951782   19.056561821   190.2297   5   8   1.3713   1.1279   0.9834   1.0063  -0.4156  -0.8500   0.00    0.0
2019/01/19 00:44:00.000   47.480954666   19.056559644   190.1874   5   8   1.3671   1.1210   0.9842   0.9917  -0.4070  -0.8465   0.00    0.0
2019/01/19 00:44:30.000   47.480956010   19.056556842   189.8534   5   8   1.3629   1.1141   0.9851   0.9772  -0.3985  -0.8430   0.00    0.0
2019/01/19 00:45:00.000   47.480954879   19.056558326   189.7179   5   8   1.3586   1.1073   0.9860   0.9628  -0.3899  -0.8395   0.00    0.0
2019/01/19 00:45:30.000   47.480954068   19.056560231   189.7372   5   8   1.3544   1.1005   0.9869   0.9485  -0.3814  -0.8361   0.00    0.0
2019/01/19 00:46:00.000   47.480954370   19.056560770   189.9368   5   8   1.3501   1.0937   0.9878   0.9343  -0.3730  -0.8326   0.00    0.0
2019/01/19 00:46:30.000   47.480954082   19.056561449   190.0297   5   8   1.3458   1.0870   0.9888   0.9201  -0.3646  -0.8292   0.00    0.0
2019/01/19 00:47:00.000   47.480954446   19.056559640   189.9347   5   8   1.3415   1.0804   0.9898   0.9060  -0.3562  -0.8259   0.00    0.0
2019/01/19 00:47:30.000   47.480953822   19.056560111   190.1361   5   8   1.3372   1.0738   0.9908   0.8921  -0.3479  -0.8225   0.00    0.0
2019/01/19 00:48:00.000   47.480953744   19.056560202   190.2417   5   8   1.3330   1.0672   0.9918   0.8782  -0.3396  -0.8192   0.00    0.0
2019/01/19 00:48:30.000   47.480954838   19.056558225   190.2444   5   8   1.3287   1.0608   0.9929   0.8644  -0.3314  -0.8160   0.00    0.0
2019/01/19 00:49:00.000   47.480955472   19.056557471   189.9579   5   8   1.3244   1.0543   0.9940   0.8508  -0.3232  -0.8127   0.00    0.0
2019/01/19 00:49:30.000   47.480955695   19.056557865   189.8135   5   8   1.3201   1.0479   0.9951   0.8373  -0.3151  -0.8095   0.00    0.0
2019/01/19 00:50:00.000   47.480954383   19.056558333   189.6935   5   8   1.3158   1.0416   0.9963   0.8239  -0.3071  -0.8064   0.00    0.0
2019/01/19 00:50:30.000   47.480953545   19.056559495   189.7971   5   8   1.3116   1.0354   0.9975   0.8106  -0.2991  -0.8033   0.00    0.0
2019/01/19 00:51:00.000   47.480953655   19.056559579   189.7413   5   8   1.3073   1.0292   0.9987   0.7974  -0.2911  -0.8002   0.00    0.0
2019/01/19 00:51:30.000   47.480953278   19.056559681   189.7089   5   8   1.3031   1.0230   0.9999   0.7844  -0.2832  -0.7972   0.00    0.0
2019/01/19 00:52:00.000   47.480951357   19.056561859   189.7503   5   8   1.2988   1.0170   1.0012   0.7715  -0.2754  -0.7942   0.00    0.0
2019/01/19 00:52:30.000   47.480950152   19.056562276   189.7732   5   8   1.2946   1.0110   1.0025   0.7588  -0.2676  -0.7913   0.00    0.0
2019/01/19 00:53:00.000   47.480949335   19.056562556   189.8114   5   8   1.2904   1.0050   1.0038   0.7462  -0.2599  -0.7884   0.00    0.0
2019/01/19 00:53:30.000   47.480949420   19.056562610   190.1037   5   7   1.9161   1.0217   1.0501   1.0363  -0.3170  -1.2172   0.00    0.0
2019/01/19 00:54:00.000   47.480950707   19.056563865   189.9273   5   7   1.9092   1.0143   1.0525   1.0110  -0.3077  -1.2180   0.00    0.0
2019/01/19 00:54:30.000   47.480951469   19.056565604   189.7611   5   7   1.9025   1.0070   1.0550   0.9862  -0.2984  -1.2190   0.00    0.0
2019/01/19 00:55:00.000   47.480951274   19.056567212   189.5952   5   7   1.8959   0.9999   1.0575   0.9617  -0.2892  -1.2203   0.00    0.0
2019/01/19 00:55:30.000   47.480950492   19.056566194   189.4212   5   7   1.8894   0.9930   1.0601   0.9377  -0.2799  -1.2218   0.00    0.0
2019/01/19 00:56:00.000   47.480949478   19.056564924   189.5754   5   7   1.8832   0.9861   1.0628   0.9139  -0.2708  -1.2236   0.00    0.0
2019/01/19 00:56:30.000   47.480947869   19.056563436   189.7928   5   7   1.8770   0.9794   1.0655   0.8906  -0.2616  -1.2255   0.00    0.0
2019/01/19 00:57:00.000   47.480947686   19.056562850   189.6344   5   7   1.8711   0.9729   1.0684   0.8675  -0.2525  -1.2277   0.00    0.0
2019/01/19 00:57:30.000   47.480949037   19.056562423   189.0145   5   7   1.8653   0.9664   1.0713   0.8449  -0.2434  -1.2301   0.00    0.0
2019/01/19 00:58:00.000   47.480950151   19.056562249   188.4895   5   7   1.8596   0.9601   1.0742   0.8225  -0.2344  -1.2328   0.00    0.0
2019/01/19 00:58:30.000   47.480949774   19.056563301   188.1697   5   7   1.8542   0.9539   1.0773   0.8004  -0.2254  -1.2356   0.00    0.0
2019/01/19 00:59:00.000   47.480949461   19.056563623   188.0039   5   7   1.8488   0.9479   1.0804   0.7787  -0.2164  -1.2387   0.00    0.0
2019/01/19 00:59:30.000   47.480950653   19.056562814   187.8254   5   7   1.8436   0.9419   1.0836   0.7573  -0.2074  -1.2421   0.00    0.0
2019/01/19 01:00:00.000   47.480952627   19.056564029   187.9874   5   7   1.8386   0.9361   1.0868   0.7361  -0.1984  -1.2456   0.00    0.0
2019/01/19 01:00:30.000   47.480955013   19.056564541   188.2744   5   7   1.8337   0.9305   1.0901   0.7153  -0.1895  -1.2494   0.00    0.0
2019/01/19 01:01:00.000   47.480959890   19.056558743   187.1363   5   8   1.5866   0.9071   0.7309   0.5302  -0.0334  -0.5133   0.00    0.0
2019/01/19 01:01:30.000   47.480961646   19.056557712   186.9187   5   8   1.5842   0.9035   0.7333   0.5196  -0.0320  -0.5193   0.00    0.0
2019/01/19 01:02:00.000   47.480961861   19.056557474   186.9290   5   8   1.5818   0.8999   0.7357   0.5091  -0.0306  -0.5253   0.00    0.0
2019/01/19 01:02:30.000   47.480960781   19.056556656   187.0542   5   8   1.5794   0.8963   0.7381   0.4987  -0.0291  -0.5313   0.00    0.0
2019/01/19 01:03:00.000   47.480959069   19.056555576   187.5966   5   8   1.5770   0.8928   0.7406   0.4882  -0.0276  -0.5373   0.00    0.0
2019/01/19 01:03:30.000   47.480957749   19.056557086   188.0679   5   8   1.5747   0.8893   0.7430   0.4778  -0.0260  -0.5433   0.00    0.0
2019/01/19 01:04:00.000   47.480958068   19.056556575   188.4337   5   8   1.5725   0.8858   0.7456   0.4675  -0.0244  -0.5492   0.00    0.0
2019/01/19 01:04:30.000   47.480957424   19.056555483   188.9192   5   8   1.5702   0.8823   0.7481   0.4572  -0.0227  -0.5552   0.00    0.0
2019/01/19 01:05:00.000   47.480955968   19.056554196   189.0367   5   8   1.5680   0.8789   0.7506   0.4469  -0.0210  -0.5612   0.00    0.0
2019/01/19 01:05:30.000   47.480956567   19.056551838   188.8309   5   8   1.5659   0.8755   0.7532   0.4367  -0.0193  -0.5672   0.00    0.0
2019/01/19 01:06:00.000   47.480958760   19.056549059   188.4660   5   8   1.5638   0.8721   0.7558   0.4265  -0.0175  -0.5733   0.00    0.0
2019/01/19 01:06:30.000   47.480960189   19.056547417   188.1951   5   8   1.5617   0.8687   0.7584   0.4164  -0.0157  -0.5793   0.00    0.0
2019/01/19 01:07:00.000   47.480961349   19.056547093   188.2537   5   8   1.5596   0.8654   0.7611   0.4063  -0.0139  -0.5853   0.00    0.0
2019/01/19 01:07:30.000   47.480962037   19.056547112   188.3001   5   8   1.5576   0.8621   0.7637   0.3963  -0.0120  -0.5913   0.00    0.0
2019/01/19 01:08:00.000   47.480962887   19.056547167   188.2116   5   8   1.5557   0.8589   0.7664   0.3863  -0.0100  -0.5974   0.00    0.0
2019/01/19 01:08:30.000   47.480964167   19.056546034   187.8693   5   8   1.5537   0.8557   0.7691   0.3764  -0.0081  -0.6034   0.00    0.0
2019/01/19 01:09:00.000   47.480966494   19.056544715   187.6931   5   8   1.5519   0.8525   0.7719   0.3665  -0.0060  -0.6095   0.00    0.0
2019/01/19 01:09:30.000   47.480967797   19.056544139   187.5431   5   8   1.5500   0.8494   0.7746   0.3567  -0.0040  -0.6156   0.00    0.0
2019/01/19 01:10:00.000   47.480967427   19.056544041   187.5959   5   8   1.5482   0.8463   0.7774   0.3469  -0.0019  -0.6216   0.00    0.0
2019/01/19 01:10:30.000   47.480966563   19.056545113   187.6950   5   8   1.5464   0.8432   0.7802   0.3372   0.0002  -0.6277   0.00    0.0
2019/01/19 01:11:00.000   47.480964431   19.056547886   187.9969   5   8   1.5447   0.8402   0.7830   0.3276   0.0024  -0.6338   0.00    0.0
2019/01/19 01:11:30.000   47.480962437   19.056548322   188.0495   5   8   1.5430   0.8372   0.7859   0.3180   0.0046  -0.6400   0.00    0.0
2019/01/19 01:12:00.000   47.480962259   19.056547071   187.7564   5   8   1.5413   0.8342   0.7888   0.3085   0.0068  -0.6461   0.00    0.0
2019/01/19 01:12:30.000   47.480961475   19.056545916   187.3764   5   8   1.5397   0.8313   0.7916   0.2990   0.0091  -0.6522   0.00    0.0
2019/01/19 01:13:00.000   47.480961673   19.056545089   187.2254   5   8   1.5381   0.8284   0.7946   0.2896   0.0114  -0.6584   0.00    0.0
2019/01/19 01:13:30.000   47.480962454   19.056545134   187.3274   5   8   1.5366   0.8256   0.7975   0.2802   0.0137  -0.6645   0.00    0.0
2019/01/19 01:14:00.000   47.480963827   19.056544850   187.4832   5   8   1.5351   0.8228   0.8004   0.2709   0.0161  -0.6707   0.00    0.0
2019/01/19 01:14:30.000   47.480967061   19.056543519   187.4830   5   8   1.5336   0.8200   0.8034   0.2616   0.0185  -0.6769   0.00    0.0
2019/01/19 01:15:00.000   47.480969406   19.056543107   187.5659   5   8   1.5321   0.8173   0.8064   0.2524   0.0209  -0.6831   0.00    0.0
2019/01/19 01:15:30.000   47.480969836   19.056544079   187.8088   5   8   1.5307   0.8146   0.8094   0.2433   0.0234  -0.6893   0.00    0.0
2019/01/19 01:16:00.000   47.480969684   19.056545291   188.0774   5   8   1.5294   0.8120   0.8125   0.2342   0.0259  -0.6955   0.00    0.0
2019/01/19 01:16:30.000   47.480924109   19.056555503   183.4975   5   7   1.5618   1.2425   0.8195   0.5299  -0.0474  -0.7277   0.00    0.0
2019/01/19 01:17:00.000   47.480924269   19.056555131   183.4846   5   7   1.5602   1.2383   0.8226   0.5184  -0.0453  -0.7341   0.00    0.0
2019/01/19 01:17:30.000   47.480924273   19.056555435   183.5131   5   7   1.5586   1.2341   0.8258   0.5069  -0.0431  -0.7405   0.00    0.0
2019/01/19 01:18:00.000   47.480923725   19.056554958   183.4226   5   7   1.5570   1.2298   0.8290   0.4955  -0.0410  -0.7469   0.00    0.0
2019/01/19 01:18:30.000   47.480924850   19.056554726   183.3920   5   7   1.5555   1.2256   0.8321   0.4842  -0.0387  -0.7533   0.00    0.0
2019/01/19 01:19:00.000   47.480925998   19.056554460   183.4202   5   7   1.5540   1.2213   0.8354   0.4729  -0.0365  -0.7597   0.00    0.0
2019/01/19 01:19:30.000   47.480928870   19.056551640   183.1855   5   7   1.5526   1.2171   0.8386   0.4617  -0.0342  -0.7661   0.00    0.0
2019/01/19 01:20:00.000   47.480930086   19.056549719   183.2741   5   7   1.5511   1.2128   0.8419   0.4506  -0.0319  -0.7725   0.00    0.0
2019/01/19 01:20:30.000   47.480930754   19.056547837   183.2842   5   7   1.5497   1.2086   0.8451   0.4395  -0.0296  -0.7789   0.00    0.0
2019/01/19 01:21:00.000   47.480931902   19.056546754   183.3560   5   7   1.5484   1.2043   0.8484   0.4285  -0.0272  -0.7854   0.00    0.0
2019/01/19 01:21:30.000   47.480932846   19.056545746   183.4187   5   7   1.5470   1.2001   0.8517   0.4176  -0.0248  -0.7918   0.00    0.0
2019/01/19 01:22:00.000   47.480932192   19.056544606   183.4393   5   7   1.5457   1.1958   0.8551   0.4068  -0.0224  -0.7983   0.00    0.0
2019/01/19 01:22:30.000   47.480931707   19.056542743   183.5560   5   7   1.5444   1.1916   0.8584   0.3961  -0.0199  -0.8047   0.00    0.0
2019/01/19 01:23:00.000   47.480931798   19.056540679   183.5051   5   7   1.5431   1.1873   0.8618   0.3855  -0.0175  -0.8112   0.00    0.0
2019/01/19 01:23:30.000   47.480932094   19.056538288   183.3999   5   7   1.5419   1.1831   0.8652   0.3749  -0.0150  -0.8177   0.00    0.0
2019/01/19 01:24:00.000   47.480932712   19.056539291   183.6959   5   7   1.5407   1.1789   0.8686   0.3644  -0.0124  -0.8242   0.00    0.0
2019/01/19 01:24:30.000   47.480934179   19.056540781   183.9170   5   7   1.5395   1.1746   0.8720   0.3540  -0.0099  -0.8307   0.00    0.0
2019/01/19 01:25:00.000   47.480936871   19.056542616   183.8826   5   7   1.5383   1.1704   0.8754   0.3438  -0.0073  -0.8371   0.00    0.0
2019/01/19 01:25:30.000   47.480939143   19.056543576   183.4632   5   7   1.5372   1.1662   0.8789   0.3336  -0.0047  -0.8436   0.00    0.0
2019/01/19 01:26:00.000   47.480938465   19.056543758   182.9276   5   7   1.5360   1.1621   0.8823   0.3235  -0.0021  -0.8501   0.00    0.0
2019/01/19 01:26:30.000   47.480937943   19.056543547   182.5407   5   7   1.5349   1.1579   0.8858   0.3135   0.0005  -0.8566   0.00    0.0
2019/01/19 01:27:00.000   47.480934953   19.056545173   182.3355   5   7   1.5338   1.1537   0.8893   0.3036   0.0031  -0.8631   0.00    0.0
2019/01/19 01:27:30.000   47.480933466   19.056546675   182.3280   5   7   1.5327   1.1496   0.8928   0.2938   0.0058  -0.8696   0.00    0.0
2019/01/19 01:28:00.000   47.480935074   19.056547277   182.2872   5   7   1.5317   1.1455   0.8963   0.2841   0.0085  -0.8761   0.00    0.0
2019/01/19 01:28:30.000   47.480936179   19.056547710   182.4561   5   7   1.5306   1.1414   0.8999   0.2745   0.0112  -0.8826   0.00    0.0
2019/01/19 01:29:00.000   47.480936394   19.056547735   182.6268   5   7   1.5296   1.1373   0.9034   0.2650   0.0139  -0.8891   0.00    0.0
2019/01/19 01:29:30.000   47.480938315   19.056546007   182.7592   5   7   1.5286   1.1332   0.9070   0.2556   0.0166  -0.8956   0.00    0.0
2019/01/19 01:30:00.000   47.480940559   19.056544735   182.7785   5   7   1.5276   1.1292   0.9105   0.2463   0.0193  -0.9020   0.00    0.0
2019/01/19 01:30:30.000   47.480940989   19.056545540   182.8608   5   7   1.5266   1.1251   0.9141   0.2372   0.0221  -0.9085   0.00    0.0
2019/01/19 01:31:00.000   47.480940895   19.056544769   182.9471   5   7   1.5256   1.1211   0.9177   0.2281   0.0248  -0.9149   0.00    0.0
2019/01/19 01:31:30.000   47.480940663   19.056542501   182.8891   5   7   1.5246   1.1171   0.9213   0.2192   0.0276  -0.9214   0.00    0.0
2019/01/19 01:32:00.000   47.480941057   19.056541962   183.0157   5   7   1.5236   1.1132   0.9249   0.2103   0.0303  -0.9278   0.00    0.0
2019/01/19 01:32:30.000   47.480942195   19.056541409   183.0617   5   7   1.5227   1.1092   0.9286   0.2016   0.0331  -0.9342   0.00    0.0
2019/01/19 01:33:00.000   47.480943058   19.056540179   182.9088   5   7   1.5217   1.1053   0.9322   0.1929   0.0359  -0.9406   0.00    0.0
2019/01/19 01:33:30.000   47.480963390   19.056527736   184.3169   5   8   1.5055   0.7964   0.9283   0.0207  -0.0515  -0.9725   0.00    0.0
2019/01/19 01:34:00.000   47.480962510   19.056526198   183.9964   5   8   1.5060   0.7964   0.9314   0.0218  -0.0517  -0.9786   0.00    0.0
2019/01/19 01:34:30.000   47.480962447   19.056524122   183.7956   5   8   1.5065   0.7965   0.9344   0.0229  -0.0519  -0.9845   0.00    0.0
2019/01/19 01:35:00.000   47.480962259   19.056523745   183.6945   5   8   1.5069   0.7965   0.9374   0.0240  -0.0522  -0.9904   0.00    0.0
2019/01/19 01:35:30.000   47.480964141   19.056523215   183.3647   5   8   1.5073   0.7965   0.9404   0.0250  -0.0524  -0.9961   0.00    0.0
2019/01/19 01:36:00.000   47.480964406   19.056524497   183.2986   5   8   1.5075   0.7965   0.9433   0.0261  -0.0526  -1.0017   0.00    0.0
2019/01/19 01:36:30.000   47.480964267   19.056524671   183.4840   5   8   1.5077   0.7965   0.9462   0.0271  -0.0527  -1.0071   0.00    0.0
2019/01/19 01:37:00.000   47.480962585   19.056526837   183.7000   5   8   1.5078   0.7964   0.9491   0.0280  -0.0529  -1.0124   0.00    0.0
2019/01/19 01:37:30.000   47.480961149   19.056527890   183.7787   5   8   1.5078   0.7964   0.9520   0.0290  -0.0530  -1.0176   0.00    0.0
2019/01/19 01:38:00.000   47.480959613   19.056528486   183.7809   5   8   1.5077   0.7964   0.9549   0.0299  -0.0532  -1.0227   0.00    0.0
2019/01/19 01:38:30.000   47.480958615   19.056528658   183.7755   5   8   1.5075   0.7963   0.9577   0.0308  -0.0533  -1.0276   0.00    0.0
2019/01/19 01:39:00.000   47.480959223   19.056527305   183.6325   5   8   1.5072   0.7962   0.9605   0.0316  -0.0534  -1.0324   0.00    0.0
2019/01/19 01:39:30.000   47.480959346   19.056527104   183.6305   5   8   1.5068   0.7962   0.9632   0.0324  -0.0535  -1.0370   0.00    0.0
2019/01/19 01:40:00.000   47.480959989   19.056526916   183.6722   5   8   1.5064   0.7961   0.9660   0.0332  -0.0535  -1.0415   0.00    0.0
2019/01/19 01:40:30.000   47.480959094   19.056526598   183.6901   5   8   1.5058   0.7960   0.9686   0.0340  -0.0536  -1.0458   0.00    0.0
2019/01/19 01:41:00.000   47.480957227   19.056526904   183.7508   5   8   1.5052   0.7959   0.9713   0.0347  -0.0536  -1.0500   0.00    0.0
2019/01/19 01:41:30.000   47.480956774   19.056525490   183.6519   5   8   1.5045   0.7958   0.9739   0.0353  -0.0536  -1.0540   0.00    0.0
2019/01/19 01:42:00.000   47.480955845   19.056524115   183.6338   5   8   1.5037   0.7956   0.9765   0.0360  -0.0536  -1.0579   0.00    0.0
2019/01/19 01:42:30.000   47.480954608   19.056525309   183.8873   5   8   1.5028   0.7955   0.9791   0.0366  -0.0536  -1.0616   0.00    0.0
2019/01/19 01:43:00.000   47.480953910   19.056526153   184.0494   5   8   1.5018   0.7953   0.9816   0.0372  -0.0535  -1.0652   0.00    0.0
2019/01/19 01:43:30.000   47.480953237   19.056527118   184.1642   5   8   1.5007   0.7952   0.9841   0.0377  -0.0534  -1.0686   0.00    0.0
2019/01/19 01:44:00.000   47.480953499   19.056528698   184.1191   5   8   1.4995   0.7950   0.9865   0.0382  -0.0533  -1.0718   0.00    0.0
2019/01/19 01:44:30.000   47.480954547   19.056528747   183.8360   5   8   1.4982   0.7948   0.9889   0.0387  -0.0532  -1.0749   0.00    0.0
2019/01/19 01:45:00.000   47.480950189   19.056533072   184.7747   5   9   1.2236   0.7910   0.6710   0.1047  -0.1086  -0.4487   0.00    0.0
2019/01/19 01:45:30.000   47.480950925   19.056531883   184.7301   5   9   1.2233   0.7907   0.6730   0.1059  -0.1094  -0.4518   0.00    0.0
2019/01/19 01:46:00.000   47.480952990   19.056529292   184.4796   5   9   1.2229   0.7904   0.6749   0.1071  -0.1101  -0.4548   0.00    0.0
2019/01/19 01:46:30.000   47.480953496   19.056527203   184.2343   5   9   1.2225   0.7900   0.6768   0.1083  -0.1109  -0.4578   0.00    0.0
2019/01/19 01:47:00.000   47.480953478   19.056526646   184.3734   5   9   1.2221   0.7897   0.6788   0.1094  -0.1117  -0.4608   0.00    0.0
2019/01/19 01:47:30.000   47.480960179   19.056537022   182.6547   5   8   1.6377   0.7919   0.6819   0.1806  -0.1098  -0.4195   0.00    0.0
2019/01/19 01:48:00.000   47.480961017   19.056537309   182.5618   5   8   1.6373   0.7918   0.6837   0.1857  -0.1106  -0.4253   0.00    0.0
2019/01/19 01:48:30.000   47.480959888   19.056536248   182.6837   5   8   1.6370   0.7918   0.6855   0.1907  -0.1113  -0.4310   0.00    0.0
2019/01/19 01:49:00.000   47.480959918   19.056536631   182.4679   5   8   1.6365   0.7917   0.6873   0.1957  -0.1121  -0.4367   0.00    0.0
2019/01/19 01:49:30.000   47.480960603   19.056537591   182.0945   5   8   1.6359   0.7916   0.6891   0.2006  -0.1129  -0.4424   0.00    0.0
2019/01/19 01:50:00.000   47.480963133   19.056537378   181.6403   5   8   1.6353   0.7916   0.6910   0.2054  -0.1137  -0.4480   0.00    0.0
2019/01/19 01:50:30.000   47.480966017   19.056540373   181.1944   5   8   1.6346   0.7915   0.6928   0.2101  -0.1145  -0.4535   0.00    0.0
2019/01/19 01:51:00.000   47.480967286   19.056542205   180.8659   5   8   1.6338   0.7914   0.6947   0.2148  -0.1152  -0.4590   0.00    0.0
2019/01/19 01:51:30.000   47.480969182   19.056541894   180.4887   5   8   1.6329   0.7913   0.6965   0.2193  -0.1160  -0.4644   0.00    0.0
2019/01/19 01:52:00.000   47.480968820   19.056542314   180.4498   5   8   1.6319   0.7913   0.6984   0.2238  -0.1168  -0.4697   0.00    0.0
2019/01/19 01:52:30.000   47.480968708   19.056542351   180.5927   5   8   1.6309   0.7912   0.7002   0.2281  -0.1176  -0.4749   0.00    0.0
2019/01/19 01:53:00.000   47.480967477   19.056542015   180.8331   5   8   1.6297   0.7911   0.7021   0.2324  -0.1184  -0.4801   0.00    0.0
2019/01/19 01:53:30.000   47.480967812   19.056541682   180.8839   5   8   1.6285   0.7910   0.7040   0.2365  -0.1191  -0.4852   0.00    0.0
2019/01/19 01:54:00.000   47.480970065   19.056540295   180.9059   5   8   1.6272   0.7909   0.7059   0.2406  -0.1199  -0.4902   0.00    0.0
2019/01/19 01:54:30.000   47.480971237   19.056540215   180.8262   5   8   1.6258   0.7908   0.7078   0.2446  -0.1206  -0.4952   0.00    0.0
2019/01/19 01:55:00.000   47.480972976   19.056539590   180.5391   5   8   1.6243   0.7907   0.7097   0.2484  -0.1214  -0.5001   0.00    0.0
2019/01/19 01:55:30.000   47.480973349   19.056540256   180.2615   5   8   1.6227   0.7906   0.7116   0.2522  -0.1221  -0.5048   0.00    0.0
2019/01/19 01:56:00.000   47.480973341   19.056541180   180.0119   5   8   1.6211   0.7905   0.7135   0.2558  -0.1229  -0.5096   0.00    0.0
2019/01/19 01:56:30.000   47.480973359   19.056541679   179.9987   5   8   1.6193   0.7903   0.7154   0.2594  -0.1236  -0.5142   0.00    0.0
2019/01/19 01:57:00.000   47.480973006   19.056542609   180.1306   5   8   1.6175   0.7902   0.7174   0.2628  -0.1243  -0.5187   0.00    0.0
2019/01/19 01:57:30.000   47.480974177   19.056542083   180.2752   5   8   1.6156   0.7900   0.7193   0.2661  -0.1250  -0.5231   0.00    0.0
2019/01/19 01:58:00.000   47.480974078   19.056541835   180.7554   5   8   1.6136   0.7899   0.7212   0.2693  -0.1257  -0.5275   0.00    0.0
2019/01/19 01:58:30.000   47.480974289   19.056539954   181.0096   5   8   1.6115   0.7897   0.7231   0.2724  -0.1263  -0.5318   0.00    0.0
2019/01/19 01:59:00.000   47.480974158   19.056540041   181.0900   5   8   1.6093   0.7895   0.7250   0.2754  -0.1270  -0.5359   0.00    0.0
2019/01/19 01:59:30.000   47.480974369   19.056540796   180.9705   5   8   1.6071   0.7894   0.7269   0.2783  -0.1276  -0.5400   0.00    0.0
2019/01/19 02:00:00.000   47.480976853   19.056543611   180.4868   5   8   1.6047   0.7892   0.7289   0.2810  -0.1282  -0.5440   0.00    0.0
2019/01/19 02:00:30.000   47.480976629   19.056544984   180.4371   5   8   1.6023   0.7889   0.7308   0.2837  -0.1288  -0.5479   0.00    0.0
2019/01/19 02:01:00.000   47.480976375   19.056545085   180.6323   5   8   1.5997   0.7887   0.7327   0.2862  -0.1294  -0.5517   0.00    0.0
2019/01/19 02:01:30.000   47.480975750   19.056544967   180.6370   5   8   1.5971   0.7885   0.7346   0.2886  -0.1300  -0.5554   0.00    0.0
2019/01/19 02:02:00.000   47.480975019   19.056544910   180.3413   5   8   1.5944   0.7882   0.7365   0.2909  -0.1305  -0.5590   0.00    0.0
2019/01/19 02:02:30.000   47.480974549   19.056544416   180.1136   5   8   1.5917   0.7880   0.7384   0.2931  -0.1310  -0.5625   0.00    0.0
2019/01/19 02:03:00.000   47.480974710   19.056543334   180.0055   5   8   1.5888   0.7877   0.7403   0.2951  -0.1315  -0.5659   0.00    0.0
2019/01/19 02:03:30.000   47.480975688   19.056541393   180.0279   5   8   1.5859   0.7874   0.7422   0.2971  -0.1320  -0.5692   0.00    0.0
2019/01/19 02:04:00.000   47.480976708   19.056539939   180.2406   5   8   1.5829   0.7871   0.7441   0.2989  -0.1324  -0.5724   0.00    0.0
2019/01/19 02:04:30.000   47.480976079   19.056541290   180.6492   5   8   1.5798   0.7868   0.7460   0.3006  -0.1328  -0.5755   0.00    0.0
2019/01/19 02:05:00.000   47.480975707   19.056541499   181.0421   5   8   1.5766   0.7864   0.7479   0.3022  -0.1332  -0.5786   0.00    0.0
2019/01/19 02:05:30.000   47.480966199   19.056535891   179.7361   5   7   1.5991   1.2540   0.8429   0.5831  -0.5098  -0.6916   0.00    0.0
2019/01/19 02:06:00.000   47.480979575   19.056534018   181.5930   5   8   1.5164   0.8567   0.8168   0.1358  -0.3095  -0.5878   0.00    0.0
2019/01/19 02:06:30.000   47.480980888   19.056534565   181.4261   5   8   1.5146   0.8601   0.8213   0.1499  -0.3159  -0.5970   0.00    0.0
2019/01/19 02:07:00.000   47.480980117   19.056533560   181.1916   5   8   1.5130   0.8635   0.8258   0.1641  -0.3225  -0.6064   0.00    0.0
2019/01/19 02:07:30.000   47.480976441   19.056532739   181.0328   5   8   1.5116   0.8671   0.8305   0.1785  -0.3293  -0.6160   0.00    0.0
2019/01/19 02:08:00.000   47.480971990   19.056533221   181.0778   5   8   1.5103   0.8708   0.8352   0.1929  -0.3362  -0.6257   0.00    0.0
2019/01/19 02:08:30.000   47.480969207   19.056534843   181.2008   5   8   1.5091   0.8746   0.8400   0.2075  -0.3434  -0.6357   0.00    0.0
2019/01/19 02:09:00.000   47.480968643   19.056535759   181.4718   5   8   1.5080   0.8785   0.8449   0.2222  -0.3507  -0.6458   0.00    0.0
2019/01/19 02:09:30.000   47.480969342   19.056536064   181.6328   5   8   1.5071   0.8825   0.8499   0.2370  -0.3582  -0.6561   0.00    0.0
2019/01/19 02:10:00.000   47.480971143   19.056534181   181.3512   5   8   1.5063   0.8867   0.8550   0.2520  -0.3660  -0.6666   0.00    0.0
2019/01/19 02:10:30.000   47.480971084   19.056532805   181.2442   5   8   1.5057   0.8910   0.8602   0.2671  -0.3739  -0.6773   0.00    0.0
2019/01/19 02:11:00.000   47.480969486   19.056532675   181.2993   5   8   1.5052   0.8954   0.8654   0.2824  -0.3821  -0.6882   0.00    0.0
2019/01/19 02:11:30.000   47.480967150   19.056531819   181.1905   5   8   1.5049   0.8999   0.8708   0.2978  -0.3904  -0.6994   0.00    0.0
2019/01/19 02:12:00.000   47.480964984   19.056532046   181.4350   5   8   1.5047   0.9045   0.8763   0.3134  -0.3990  -0.7107   0.00    0.0
2019/01/19 02:12:30.000   47.480964434   19.056532574   181.5568   5   8   1.5047   0.9093   0.8818   0.3292  -0.4079  -0.7223   0.00    0.0
2019/01/19 02:13:00.000   47.480965252   19.056531708   181.4704   5   8   1.5048   0.9142   0.8875   0.3452  -0.4169  -0.7342   0.00    0.0
2019/01/19 02:13:30.000   47.480966479   19.056530918   181.1472   5   8   1.5051   0.9192   0.8933   0.3614  -0.4263  -0.7463   0.00    0.0
2019/01/19 02:14:00.000   47.480967557   19.056552655   185.0831   5   9   1.3851   0.8765   0.6653   0.2046  -0.2583  -0.4018   0.00    0.0
2019/01/19 02:14:30.000   47.480968137   19.056553534   184.9062   5   9   1.3837   0.8805   0.6686   0.2170  -0.2637  -0.4084   0.00    0.0
2019/01/19 02:15:00.000   47.480967111   19.056554780   184.9193   5   9   1.3823   0.8846   0.6720   0.2294  -0.2693  -0.4150   0.00    0.0
2019/01/19 02:15:30.000   47.480966381   19.056554930   184.8344   5   9   1.3811   0.8888   0.6755   0.2419  -0.2750  -0.4218   0.00    0.0
2019/01/19 02:16:00.000   47.480966215   19.056551954   184.4277   5   9   1.3799   0.8930   0.6790   0.2545  -0.2808  -0.4287   0.00    0.0
2019/01/19 02:16:30.000   47.480966296   19.056550353   184.2814   5   9   1.3789   0.8974   0.6826   0.2673  -0.2868  -0.4357   0.00    0.0
2019/01/19 02:17:00.000   47.480965946   19.056550436   184.1966   5   9   1.3780   0.9019   0.6862   0.2801  -0.2929  -0.4429   0.00    0.0
2019/01/19 02:17:30.000   47.480965360   19.056550818   184.3077   5   9   1.3773   0.9065   0.6899   0.2931  -0.2991  -0.4501   0.00    0.0
2019/01/19 02:18:00.000   47.480964964   19.056550717   184.0863   5   9   1.3766   0.9111   0.6937   0.3061  -0.3055  -0.4575   0.00    0.0
2019/01/19 02:18:30.000   47.480964945   19.056550971   183.7990   5   9   1.3761   0.9159   0.6976   0.3193  -0.3121  -0.4651   0.00    0.0
2019/01/19 02:19:00.000   47.480965312   19.056550335   183.2906   5   9   1.3756   0.9208   0.7016   0.3326  -0.3189  -0.4728   0.00    0.0
2019/01/19 02:19:30.000   47.480964887   19.056551959   183.1256   5   9   1.3753   0.9258   0.7056   0.3461  -0.3258  -0.4806   0.00    0.0
2019/01/19 02:20:00.000   47.480964330   19.056551968   183.0921   5   9   1.3751   0.9308   0.7097   0.3597  -0.3328  -0.4886   0.00    0.0
2019/01/19 02:20:30.000   47.480963989   19.056549495   183.1084   5   9   1.3751   0.9360   0.7138   0.3734  -0.3401  -0.4967   0.00    0.0
2019/01/19 02:21:00.000   47.480964216   19.056546409   183.2314   5   9   1.3751   0.9413   0.7181   0.3873  -0.3475  -0.5050   0.00    0.0
2019/01/19 02:21:30.000   47.480963895   19.056546595   183.3938   5   9   1.3753   0.9467   0.7224   0.4013  -0.3551  -0.5134   0.00    0.0
2019/01/19 02:22:00.000   47.480963679   19.056547352   183.6305   5   9   1.3756   0.9522   0.7268   0.4155  -0.3629  -0.5220   0.00    0.0
2019/01/19 02:22:30.000   47.480962779   19.056547651   184.0372   5   9   1.3760   0.9578   0.7312   0.4299  -0.3708  -0.5308   0.00    0.0
2019/01/19 02:23:00.000   47.480961192   19.056547892   184.3303   5   9   1.3765   0.9635   0.7358   0.4444  -0.3790  -0.5397   0.00    0.0
2019/01/19 02:23:30.000   47.480961103   19.056546947   184.4412   5   9   1.3771   0.9693   0.7404   0.4591  -0.3873  -0.5489   0.00    0.0
2019/01/19 02:24:00.000   47.480961610   19.056545691   184.2904   5   9   1.3779   0.9752   0.7452   0.4739  -0.3959  -0.5582   0.00    0.0
2019/01/19 02:24:30.000   47.480962327   19.056545610   184.1525   5   9   1.3788   0.9812   0.7500   0.4890  -0.4047  -0.5677   0.00    0.0
2019/01/19 02:25:00.000   47.480962617   19.056545605   183.8761   5   9   1.3798   0.9874   0.7549   0.5042  -0.4136  -0.5773   0.00    0.0
2019/01/19 02:25:30.000   47.480962510   19.056546313   183.7022   5   9   1.3809   0.9936   0.7599   0.5196  -0.4228  -0.5872   0.00    0.0
2019/01/19 02:26:00.000   47.480961713   19.056545549   183.1974   5   9   1.3822   0.9999   0.7649   0.5352  -0.4322  -0.5973   0.00    0.0
2019/01/19 02:26:30.000   47.480962445   19.056546500   183.2185   5  10   1.3514   0.7995   0.6438   0.3697  -0.1836  -0.4822   0.00    0.0
2019/01/19 02:27:00.000   47.480961939   19.056545505   183.0490   5  10   1.3512   0.8036   0.6468   0.3792  -0.1880  -0.4878   0.00    0.0
2019/01/19 02:27:30.000   47.480961363   19.056544969   183.3281   5  10   1.3510   0.8077   0.6498   0.3887  -0.1925  -0.4934   0.00    0.0
2019/01/19 02:28:00.000   47.480960861   19.056545477   183.6324   5  10   1.3509   0.8119   0.6528   0.3983  -0.1971  -0.4992   0.00    0.0
2019/01/19 02:28:30.000   47.480960714   19.056545192   183.7506   5  10   1.3509   0.8162   0.6558   0.4080  -0.2018  -0.5049   0.00    0.0
2019/01/19 02:29:00.000   47.480959342   19.056544365   183.5390   5  10   1.3509   0.8205   0.6590   0.4177  -0.2065  -0.5108   0.00    0.0
2019/01/19 02:29:30.000   47.480957871   19.056541808   183.1041   5  10   1.3510   0.8249   0.6621   0.4274  -0.2114  -0.5168   0.00    0.0
2019/01/19 02:30:00.000   47.480957455   19.056540768   182.7434   5  10   1.3511   0.8293   0.6653   0.4372  -0.2163  -0.5228   0.00    0.0
2019/01/19 02:30:30.000   47.480957159   19.056541335   182.5526   5  10   1.3513   0.8337   0.6685   0.4471  -0.2213  -0.5289   0.00    0.0
2019/01/19 02:31:00.000   47.480957176   19.056542456   182.7617   5  10   1.3516   0.8383   0.6718   0.4570  -0.2264  -0.5351   0.00    0.0
2019/01/19 02:31:30.000   47.480957473   19.056543688   183.1870   5  10   1.3519   0.8428   0.6752   0.4670  -0.2316  -0.5414   0.00    0.0
2019/01/19 02:32:00.000   47.480957623   19.056543323   183.6024   5  10   1.3523   0.8475   0.6785   0.4770  -0.2369  -0.5478   0.00    0.0
2019/01/19 02:32:30.000   47.480957874   19.056541426   183.5485   5  10   1.3528   0.8521   0.6820   0.4871  -0.2422  -0.5542   0.00    0.0
2019/01/19 02:33:00.000   47.480957137   19.056540463   183.3037   5  10   1.3533   0.8568   0.6854   0.4972  -0.2477  -0.5607   0.00    0.0
2019/01/19 02:33:30.000   47.480955798   19.056540515   183.0681   5  10   1.3538   0.8616   0.6889   0.5074  -0.2532  -0.5673   0.00    0.0
2019/01/19 02:34:00.000   47.480954539   19.056541063   182.9267   5  10   1.3544   0.8664   0.6925   0.5176  -0.2589  -0.5740   0.00    0.0
2019/01/19 02:34:30.000   47.480954825   19.056541012   182.9605   5  10   1.3551   0.8712   0.6961   0.5279  -0.2646  -0.5808   0.00    0.0
2019/01/19 02:35:00.000   47.480955185   19.056540163   182.9250   5  10   1.3558   0.8761   0.6998   0.5382  -0.2704  -0.5877   0.00    0.0
2019/01/19 02:35:30.000   47.480955782   19.056538855   182.9525   5  10   1.3565   0.8810   0.7035   0.5486  -0.2763  -0.5946   0.00    0.0
2019/01/19 02:36:00.000   47.480956081   19.056538155   183.1844   5  10   1.3573   0.8860   0.7072   0.5590  -0.2823  -0.6016   0.00    0.0
2019/01/19 02:36:30.000   47.480956253   19.056538004   183.4343   5  10   1.3582   0.8910   0.7110   0.5695  -0.2884  -0.6087   0.00    0.0
2019/01/19 02:37:00.000   47.480956521   19.056537974   183.3932   5  10   1.3590   0.8960   0.7148   0.5799  -0.2946  -0.6159   0.00    0.0
2019/01/19 02:37:30.000   47.480955470   19.056537911   183.3940   5  10   1.3600   0.9011   0.7187   0.5905  -0.3008  -0.6232   0.00    0.0
2019/01/19 02:38:00.000   47.480952842   19.056537980   183.2261   5  10   1.3609   0.9062   0.7226   0.6010  -0.3072  -0.6305   0.00    0.0
2019/01/19 02:38:30.000   47.480950640   19.056539004   182.9522   5  10   1.3619   0.9113   0.7266   0.6116  -0.3136  -0.6379   0.00    0.0
2019/01/19 02:39:00.000   47.480949250   19.056539499   182.8055   5  10   1.3630   0.9165   0.7306   0.6222  -0.3201  -0.6454   0.00    0.0
2019/01/19 02:39:30.000   47.480949246   19.056540095   182.8864   5  10   1.3640   0.9217   0.7346   0.6329  -0.3267  -0.6530   0.00    0.0
2019/01/19 02:40:00.000   47.480949878   19.056538792   182.9434   5  10   1.3651   0.9269   0.7387   0.6435  -0.3334  -0.6606   0.00    0.0
2019/01/19 02:40:30.000   47.480950553   19.056536977   183.0388   5  10   1.3662   0.9321   0.7428   0.6542  -0.3402  -0.6683   0.00    0.0
2019/01/19 02:41:00.000   47.480951328   19.056535101   183.0965   5  10   1.3674   0.9373   0.7470   0.6648  -0.3470  -0.6761   0.00    0.0
2019/01/19 02:41:30.000   47.480951059   19.056534935   183.2253   5  10   1.3685   0.9425   0.7512   0.6755  -0.3540  -0.6839   0.00    0.0
2019/01/19 02:42:00.000   47.480950040   19.056534969   183.3655   5  10   1.3697   0.9478   0.7554   0.6862  -0.3610  -0.6918   0.00    0.0
2019/01/19 02:42:30.000   47.480948142   19.056536033   183.3232   5  10   1.3709   0.9531   0.7597   0.6968  -0.3680  -0.6997   0.00    0.0
2019/01/19 02:43:00.000   47.480948022   19.056535913   183.1005   5  10   1.3721   0.9583   0.7640   0.7075  -0.3752  -0.7077   0.00    0.0
2019/01/19 02:43:30.000   47.480949251   19.056535705   182.8094   5  10   1.3733   0.9636   0.7684   0.7181  -0.3824  -0.7158   0.00    0.0
2019/01/19 02:44:00.000   47.480950103   19.056535203   182.7625   5  10   1.3746   0.9689   0.7728   0.7287  -0.3897  -0.7239   0.00    0.0
2019/01/19 02:44:30.000   47.480949010   19.056533860   182.8060   5  10   1.3758   0.9741   0.7772   0.7393  -0.3970  -0.7320   0.00    0.0
2019/01/19 02:45:00.000   47.480947307   19.056530711   182.5173   5  10   1.3770   0.9794   0.7816   0.7498  -0.4044  -0.7402   0.00    0.0
2019/01/19 02:45:30.000   47.480945778   19.056529017   182.3027   5  10   1.3782   0.9846   0.7861   0.7602  -0.4118  -0.7484   0.00    0.0
2019/01/19 02:46:00.000   47.480945339   19.056528810   182.2990   5  10   1.3795   0.9899   0.7906   0.7706  -0.4193  -0.7567   0.00    0.0
2019/01/19 02:46:30.000   47.480946011   19.056529719   182.6167   5  10   1.3807   0.9951   0.7952   0.7810  -0.4268  -0.7649   0.00    0.0
2019/01/19 02:47:00.000   47.480946729   19.056528945   182.7158   5  10   1.3819   1.0003   0.7997   0.7912  -0.4344  -0.7732   0.00    0.0
2019/01/19 02:47:30.000   47.480946557   19.056528800   182.9210   5  10   1.3830   1.0054   0.8043   0.8014  -0.4420  -0.7815   0.00    0.0
2019/01/19 02:48:00.000   47.480945425   19.056529349   182.8141   5  10   1.3842   1.0105   0.8089   0.8115  -0.4496  -0.7898   0.00    0.0
2019/01/19 02:48:30.000   47.480945250   19.056530307   182.9739   5  10   1.3853   1.0156   0.8135   0.8214  -0.4573  -0.7981   0.00    0.0
2019/01/19 02:49:00.000   47.480945987   19.056531818   183.1955   5  10   1.3864   1.0207   0.8181   0.8313  -0.4649  -0.8064   0.00    0.0
2019/01/19 02:49:30.000   47.480947295   19.056531791   183.2454   5  10   1.3874   1.0257   0.8228   0.8410  -0.4726  -0.8147   0.00    0.0
2019/01/19 02:50:00.000   47.480948683   19.056530941   183.3477   5  10   1.3885   1.0306   0.8275   0.8506  -0.4803  -0.8230   0.00    0.0
2019/01/19 02:50:30.000   47.480949463   19.056529365   183.3956   5  10   1.3894   1.0355   0.8321   0.8600  -0.4879  -0.8312   0.00    0.0
2019/01/19 02:51:00.000   47.480950003   19.056525996   183.3159   5  10   1.3904   1.0403   0.8368   0.8693  -0.4956  -0.8394   0.00    0.0
2019/01/19 02:51:30.000   47.480950370   19.056524482   183.6459   5  10   1.3912   1.0451   0.8415   0.8783  -0.5032  -0.8476   0.00    0.0
2019/01/19 02:52:00.000   47.480949682   19.056524517   184.0210   5  10   1.3920   1.0498   0.8461   0.8872  -0.5108  -0.8557   0.00    0.0
2019/01/19 02:52:30.000   47.480949085   19.056524852   184.0376   5  10   1.3928   1.0544   0.8508   0.8960  -0.5184  -0.8637   0.00    0.0
2019/01/19 02:53:00.000   47.480948581   19.056525075   183.9991   5  10   1.3935   1.0589   0.8555   0.9045  -0.5259  -0.8717   0.00    0.0
2019/01/19 02:53:30.000   47.480947789   19.056522712   183.7610   5  10   1.3941   1.0634   0.8601   0.9127  -0.5334  -0.8796   0.00    0.0
2019/01/19 02:54:00.000   47.480947053   19.056520802   183.6622   5  10   1.3947   1.0677   0.8648   0.9208  -0.5407  -0.8874   0.00    0.0
2019/01/19 02:54:30.000   47.480947299   19.056520233   183.6953   5  10   1.3951   1.0720   0.8694   0.9286  -0.5481  -0.8952   0.00    0.0
2019/01/19 02:55:00.000   47.480945686   19.056522345   184.6199   5  11   1.2239   1.0743   0.7523   0.8935  -0.5271  -0.6045   0.00    0.0
2019/01/19 02:55:30.000   47.480948840   19.056528751   183.9614   5  10   1.5441   1.0930   0.7555   1.0677  -0.5328  -0.6099   0.00    0.0
2019/01/19 02:56:00.000   47.480948126   19.056528048   184.5354   5  10   1.5486   1.0979   0.7586   1.0810  -0.5394  -0.6197   0.00    0.0
2019/01/19 02:56:30.000   47.480948026   19.056527716   184.4490   5  10   1.5530   1.1028   0.7617   1.0941  -0.5458  -0.6295   0.00    0.0
2019/01/19 02:57:00.000   47.480949222   19.056528268   183.9385   5  10   1.5573   1.1075   0.7648   1.1069  -0.5523  -0.6391   0.00    0.0
2019/01/19 02:57:30.000   47.480948932   19.056528851   183.9742   5  10   1.5615   1.1122   0.7679   1.1195  -0.5586  -0.6487   0.00    0.0
2019/01/19 02:58:00.000   47.480948869   19.056530485   183.7290   5  10   1.5655   1.1168   0.7709   1.1318  -0.5649  -0.6582   0.00    0.0
2019/01/19 02:58:30.000   47.480949111   19.056532301   183.6076   5  10   1.5695   1.1212   0.7740   1.1439  -0.5711  -0.6675   0.00    0.0
2019/01/19 02:59:00.000   47.480949985   19.056532146   183.4031   5  10   1.5733   1.1256   0.7770   1.1556  -0.5772  -0.6768   0.00    0.0
2019/01/19 02:59:30.000   47.480950979   19.056532830   183.6442   5  10   1.5769   1.1298   0.7799   1.1670  -0.5832  -0.6859   0.00    0.0
2019/01/19 03:00:00.000   47.480951786   19.056534754   183.6812   5  10   1.5804   1.1339   0.7829   1.1781  -0.5891  -0.6948   0.00    0.0
2019/01/19 03:00:30.000   47.480951678   19.056535953   183.5502   5  10   1.5837   1.1379   0.7858   1.1887  -0.5949  -0.7036   0.00    0.0
2019/01/19 03:01:00.000   47.480951042   19.056535417   183.9549   5  10   1.5868   1.1417   0.7886   1.1990  -0.6005  -0.7122   0.00    0.0
2019/01/19 03:01:30.000   47.480950332   19.056532694   184.6005   5  10   1.5898   1.1454   0.7914   1.2089  -0.6060  -0.7206   0.00    0.0
2019/01/19 03:02:00.000   47.480950125   19.056529475   185.1815   5  10   1.5926   1.1489   0.7942   1.2184  -0.6113  -0.7287   0.00    0.0
2019/01/19 03:02:30.000   47.480950069   19.056528029   185.3996   5  10   1.5951   1.1523   0.7969   1.2273  -0.6164  -0.7367   0.00    0.0
2019/01/19 03:03:00.000   47.480950027   19.056528294   185.2501   5  10   1.5975   1.1555   0.7996   1.2359  -0.6214  -0.7444   0.00    0.0
2019/01/19 03:03:30.000   47.480949213   19.056528473   184.9088   5  10   1.5997   1.1585   0.8022   1.2439  -0.6262  -0.7519   0.00    0.0
2019/01/19 03:04:00.000   47.480949969   19.056527818   184.5269   5  10   1.6017   1.1614   0.8047   1.2514  -0.6307  -0.7592   0.00    0.0
2019/01/19 03:04:30.000   47.480950451   19.056527694   184.4440   5  10   1.6035   1.1641   0.8072   1.2584  -0.6351  -0.7661   0.00    0.0
2019/01/19 03:05:00.000   47.480950094   19.056527616   184.5367   5  10   1.6050   1.1666   0.8096   1.2648  -0.6392  -0.7728   0.00    0.0
2019/01/19 03:05:30.000   47.480950107   19.056526820   184.6058   5  10   1.6064   1.1689   0.8119   1.2707  -0.6431  -0.7792   0.00    0.0
2019/01/19 03:06:00.000   47.480950745   19.056525338   185.2590   5  10   1.6075   1.1710   0.8141   1.2760  -0.6468  -0.7853   0.00    0.0
2019/01/19 03:06:30.000   47.480952715   19.056524220   185.8673   5  10   1.6084   1.1729   0.8163   1.2807  -0.6502  -0.7911   0.00    0.0
2019/01/19 03:07:00.000   47.480953519   19.056523769   185.7983   5  10   1.6090   1.1746   0.8184   1.2848  -0.6534  -0.7966   0.00    0.0
2019/01/19 03:07:30.000   47.480953779   19.056525643   185.9202   5  10   1.6094   1.1762   0.8204   1.2883  -0.6563  -0.8017   0.00    0.0
2019/01/19 03:08:00.000   47.480953286   19.056527279   186.2209   5  10   1.6095   1.1775   0.8223   1.2911  -0.6589  -0.8065   0.00    0.0
2019/01/19 03:08:30.000   47.480952669   19.056528496   186.6278   5  10   1.6095   1.1786   0.8241   1.2934  -0.6613  -0.8110   0.00    0.0
2019/01/19 03:09:00.000   47.480953582   19.056528656   186.7310   5  10   1.6091   1.1795   0.8259   1.2950  -0.6633  -0.8151   0.00    0.0
2019/01/19 03:09:30.000   47.480954280   19.056525587   186.0739   5  10   1.6086   1.1801   0.8275   1.2960  -0.6651  -0.8188   0.00    0.0
2019/01/19 03:10:00.000   47.480954176   19.056524116   185.9352   5  10   1.6077   1.1806   0.8291   1.2963  -0.6666  -0.8222   0.00    0.0
2019/01/19 03:10:30.000   47.480954526   19.056524960   185.8221   5  10   1.6067   1.1808   0.8305   1.2960  -0.6678  -0.8252   0.00    0.0
2019/01/19 03:11:00.000   47.480955181   19.056525176   185.9250   5  10   1.6054   1.1809   0.8319   1.2950  -0.6687  -0.8278   0.00    0.0
2019/01/19 03:11:30.000   47.480955379   19.056524392   185.8965   5  10   1.6038   1.1807   0.8331   1.2934  -0.6693  -0.8301   0.00    0.0
2019/01/19 03:12:00.000   47.480954460   19.056523639   185.3370   5  10   1.6020   1.1803   0.8343   1.2912  -0.6696  -0.8320   0.00    0.0
2019/01/19 03:12:30.000   47.480952667   19.056522809   184.6722   5  10   1.5999   1.1797   0.8353   1.2884  -0.6696  -0.8336   0.00    0.0
2019/01/19 03:13:00.000   47.480950768   19.056522372   184.5475   5  10   1.5977   1.1789   0.8363   1.2849  -0.6693  -0.8348   0.00    0.0
2019/01/19 03:13:30.000   47.480950563   19.056523905   185.0661   5  10   1.5951   1.1779   0.8372   1.2808  -0.6687  -0.8356   0.00    0.0
2019/01/19 03:14:00.000   47.480951541   19.056525863   185.3291   5  10   1.5924   1.1766   0.8379   1.2760  -0.6678  -0.8360   0.00    0.0
2019/01/19 03:14:30.000   47.480953029   19.056527194   185.6328   5  10   1.5894   1.1752   0.8386   1.2707  -0.6666  -0.8361   0.00    0.0
2019/01/19 03:15:00.000   47.480954052   19.056528555   186.1670   5  10   1.5862   1.1735   0.8391   1.2648  -0.6651  -0.8358   0.00    0.0
2019/01/19 03:15:30.000   47.480953990   19.056528687   186.4363   5  10   1.5828   1.1717   0.8396   1.2583  -0.6633  -0.8352   0.00    0.0
2019/01/19 03:16:00.000   47.480953398   19.056528388   186.3851   5  10   1.5791   1.1696   0.8400   1.2513  -0.6612  -0.8342   0.00    0.0
2019/01/19 03:16:30.000   47.480953555   19.056528694   185.6916   5  10   1.5752   1.1674   0.8402   1.2437  -0.6589  -0.8330   0.00    0.0
2019/01/19 03:17:00.000   47.480954887   19.056527456   184.7636   5  10   1.5712   1.1650   0.8404   1.2357  -0.6562  -0.8313   0.00    0.0
2019/01/19 03:17:30.000   47.480955567   19.056526690   184.1227   5  10   1.5669   1.1624   0.8405   1.2271  -0.6533  -0.8294   0.00    0.0
2019/01/19 03:18:00.000   47.480953656   19.056526461   183.9044   5  10   1.5625   1.1596   0.8405   1.2180  -0.6502  -0.8271   0.00    0.0
2019/01/19 03:18:30.000   47.480952049   19.056526650   184.1087   5  10   1.5578   1.1567   0.8404   1.2084  -0.6467  -0.8246   0.00    0.0
2019/01/19 03:19:00.000   47.480951252   19.056526681   184.4491   5  10   1.5530   1.1536   0.8402   1.1984  -0.6431  -0.8217   0.00    0.0
2019/01/19 03:19:30.000   47.480953273   19.056526968   184.5331   5  10   1.5480   1.1503   0.8400   1.1880  -0.6392  -0.8186   0.00    0.0
2019/01/19 03:20:00.000   47.480954704   19.056526872   184.8019   5  10   1.5428   1.1469   0.8396   1.1772  -0.6350  -0.8152   0.00    0.0
2019/01/19 03:20:30.000   47.480967598   19.056537653   189.9588   5  11   1.3797   0.8830   0.6416   0.6733  -0.2379  -0.4446   0.00    0.0
2019/01/19 03:21:00.000   47.480965982   19.056536620   190.1460   5  11   1.3777   0.8834   0.6428   0.6719  -0.2384  -0.4466   0.00    0.0
2019/01/19 03:21:30.000   47.480964137   19.056536086   190.2522   5  11   1.3755   0.8838   0.6440   0.6704  -0.2388  -0.4485   0.00    0.0
2019/01/19 03:22:00.000   47.480963210   19.056535949   190.2080   5  11   1.3732   0.8840   0.6452   0.6686  -0.2391  -0.4503   0.00    0.0
2019/01/19 03:22:30.000   47.480963464   19.056537023   190.1205   5  11   1.3708   0.8842   0.6463   0.6667  -0.2394  -0.4520   0.00    0.0
2019/01/19 03:23:00.000   47.480963750   19.056537960   189.6690   5  11   1.3683   0.8844   0.6474   0.6645  -0.2395  -0.4536   0.00    0.0
2019/01/19 03:23:30.000   47.480963499   19.056536906   189.0760   5  11   1.3657   0.8844   0.6485   0.6622  -0.2396  -0.4551   0.00    0.0
2019/01/19 03:24:00.000   47.480963609   19.056535978   188.9502   5  11   1.3630   0.8844   0.6496   0.6596  -0.2397  -0.4564   0.00    0.0
2019/01/19 03:24:30.000   47.480963962   19.056534983   189.1837   5  11   1.3603   0.8843   0.6506   0.6568  -0.2396  -0.4577   0.00    0.0
2019/01/19 03:25:00.000   47.480964572   19.056535064   189.2971   5  11   1.3574   0.8841   0.6517   0.6539  -0.2395  -0.4588   0.00    0.0
2019/01/19 03:25:30.000   47.480964197   19.056535280   189.6274   5  11   1.3544   0.8838   0.6527   0.6507  -0.2393  -0.4599   0.00    0.0
2019/01/19 03:26:00.000   47.480965465   19.056535883   189.6425   5  11   1.3514   0.8835   0.6536   0.6474  -0.2390  -0.4608   0.00    0.0
2019/01/19 03:26:30.000   47.480966957   19.056535522   189.2875   5  11   1.3483   0.8831   0.6546   0.6439  -0.2387  -0.4617   0.00    0.0
2019/01/19 03:27:00.000   47.480966167   19.056535952   189.3491   5  11   1.3450   0.8826   0.6555   0.6402  -0.2383  -0.4624   0.00    0.0
2019/01/19 03:27:30.000   47.480964954   19.056535490   189.6695   5  11   1.3417   0.8821   0.6564   0.6364  -0.2378  -0.4631   0.00    0.0
2019/01/19 03:28:00.000   47.480963835   19.056537177   190.0841   5  11   1.3384   0.8815   0.6573   0.6324  -0.2372  -0.4636   0.00    0.0
2019/01/19 03:28:30.000   47.480963586   19.056539834   190.2604   5  11   1.3349   0.8808   0.6581   0.6282  -0.2366  -0.4641   0.00    0.0
2019/01/19 03:29:00.000   47.480964035   19.056540108   190.3366   5  11   1.3314   0.8801   0.6590   0.6238  -0.2358  -0.4644   0.00    0.0
2019/01/19 03:29:30.000   47.480964911   19.056538261   190.2354   5  11   1.3278   0.8793   0.6598   0.6193  -0.2351  -0.4646   0.00    0.0
