% program   : GINA 1.0
% inp file  : C:\Users\lus2bp\Source\Repos\GINA\70_EGNOS_Project\files\PositionComparisonInputFiles\bute0190\bute0190.19o
% inp file  : C:\Users\lus2bp\Source\Repos\GINA\70_EGNOS_Project\files\PositionComparisonInputFiles\bute0190\brdc0190.19n
% obs start : 2019/01/19 00:00:00.0 GPST (week2036 518400.0s)
% obs end   : 2019/01/19 23:59:30.0 GPST (week2036 604770.0s)
% pos mode  : single
% elev mask : -5.0 deg
% ionos opt : ems
% tropo opt : Neill
% ephemeris : broadcasted
% (lat/lon/height=WGS84/ellipsoidal,Q=1:fix,2:float,3:sbas,4:dgps,5:single,6:ppp,ns=# of satellites)
%  GPST                  latitude(deg) longitude(deg)  height(m)   Q  ns   sdn(m)   sde(m)   sdu(m)  sdne(m)  sdeu(m)  sdun(m) age(s)  ratio
2019/01/19 00:00:00.000   47.480980318   19.056551328   202.6168   5  10   0.8761   1.0555   0.7563   0.4776  -0.5382  -0.3377   0.00    0.0
2019/01/19 00:00:30.000   47.480976460   19.056543211   203.2143   5  11   0.8314   1.0293   0.7474   0.5384  -0.5103  -0.3694   0.00    0.0
2019/01/19 00:01:00.000   47.480987550   19.056550059   203.5692   5  10   0.8756   1.0518   0.7560   0.4748  -0.5341  -0.3376   0.00    0.0
2019/01/19 00:01:30.000   47.480981661   19.056542154   204.2789   5  11   0.8307   1.0254   0.7473   0.5352  -0.5066  -0.3684   0.00    0.0
2019/01/19 00:02:00.000   47.480992879   19.056548498   204.5528   5  10   0.8750   1.0475   0.7554   0.4715  -0.5295  -0.3371   0.00    0.0
2019/01/19 00:02:30.000   47.480987534   19.056541258   205.8315   5  11   0.8298   1.0210   0.7470   0.5315  -0.5024  -0.3671   0.00    0.0
2019/01/19 00:03:00.000   47.480991602   19.056540756   206.6404   5  11   0.8293   1.0187   0.7468   0.5294  -0.5001  -0.3664   0.00    0.0
2019/01/19 00:03:30.000   47.480994041   19.056536124   206.9049   5  11   0.8287   1.0163   0.7465   0.5272  -0.4977  -0.3655   0.00    0.0
2019/01/19 00:04:00.000   47.480994955   19.056531588   207.5022   5  11   0.8280   1.0138   0.7462   0.5249  -0.4952  -0.3646   0.00    0.0
2019/01/19 00:04:30.000   47.480998200   19.056532106   208.2527   5  11   0.8274   1.0112   0.7458   0.5225  -0.4926  -0.3636   0.00    0.0
2019/01/19 00:05:00.000   47.481000351   19.056529246   208.7021   5  11   0.8266   1.0085   0.7454   0.5199  -0.4899  -0.3625   0.00    0.0
2019/01/19 00:05:30.000   47.481001765   19.056527967   209.4401   5  11   0.8258   1.0057   0.7450   0.5172  -0.4870  -0.3614   0.00    0.0
2019/01/19 00:06:00.000   47.481005029   19.056527731   210.1980   5  11   0.8250   1.0028   0.7445   0.5145  -0.4841  -0.3602   0.00    0.0
2019/01/19 00:06:30.000   47.481008799   19.056527474   210.7287   5  11   0.8241   0.9999   0.7440   0.5116  -0.4811  -0.3589   0.00    0.0
2019/01/19 00:07:00.000   47.481014691   19.056527391   211.7437   5  11   0.8232   0.9969   0.7434   0.5086  -0.4779  -0.3576   0.00    0.0
2019/01/19 00:07:30.000   47.481020749   19.056524703   213.0408   5  11   0.8222   0.9937   0.7428   0.5055  -0.4747  -0.3562   0.00    0.0
2019/01/19 00:08:00.000   47.481026415   19.056521886   214.2370   5  11   0.8212   0.9906   0.7421   0.5023  -0.4714  -0.3547   0.00    0.0
2019/01/19 00:08:30.000   47.481031038   19.056520270   215.4637   5  11   0.8202   0.9873   0.7415   0.4990  -0.4680  -0.3532   0.00    0.0
2019/01/19 00:09:00.000   47.481035267   19.056517520   216.4875   5  11   0.8191   0.9840   0.7407   0.4956  -0.4646  -0.3516   0.00    0.0
2019/01/19 00:09:30.000   47.481038665   19.056516399   217.5311   5  11   0.8180   0.9806   0.7400   0.4921  -0.4610  -0.3500   0.00    0.0
2019/01/19 00:10:00.000   47.481044064   19.056515112   218.7227   5  11   0.8168   0.9772   0.7392   0.4886  -0.4574  -0.3483   0.00    0.0
2019/01/19 00:10:30.000   47.481051491   19.056511976   220.0826   5  11   0.8156   0.9737   0.7384   0.4850  -0.4537  -0.3465   0.00    0.0
2019/01/19 00:11:00.000   47.481060080   19.056507731   221.4697   5  11   0.8144   0.9701   0.7376   0.4813  -0.4500  -0.3447   0.00    0.0
2019/01/19 00:11:30.000   47.481068693   19.056504970   223.0267   5  11   0.8131   0.9665   0.7367   0.4776  -0.4462  -0.3429   0.00    0.0
2019/01/19 00:12:00.000   47.481076965   19.056503650   224.7299   5  11   0.8118   0.9629   0.7358   0.4738  -0.4423  -0.3410   0.00    0.0
2019/01/19 00:12:30.000   47.481085342   19.056500676   226.3149   5  11   0.8105   0.9592   0.7349   0.4699  -0.4384  -0.3391   0.00    0.0
2019/01/19 00:13:00.000   47.481095405   19.056497812   228.1647   5  11   0.8092   0.9554   0.7339   0.4659  -0.4344  -0.3371   0.00    0.0
2019/01/19 00:13:30.000   47.481105541   19.056497026   230.6454   5  11   0.8078   0.9516   0.7329   0.4620  -0.4304  -0.3351   0.00    0.0
2019/01/19 00:14:00.000   47.481117573   19.056493803   233.6484   5  11   0.8064   0.9478   0.7319   0.4579  -0.4263  -0.3331   0.00    0.0
2019/01/19 00:14:30.000   47.481131498   19.056488820   236.9379   5  11   0.8049   0.9439   0.7309   0.4539  -0.4222  -0.3310   0.00    0.0
2019/01/19 00:15:00.000   47.481145695   19.056482773   240.2425   5  11   0.8035   0.9400   0.7299   0.4498  -0.4181  -0.3289   0.00    0.0
2019/01/19 00:15:30.000   47.481159711   19.056475523   243.4830   5  11   0.8020   0.9360   0.7288   0.4456  -0.4139  -0.3268   0.00    0.0
2019/01/19 00:16:00.000   47.480957561   19.056555541   199.6209   5  10   1.1220   1.3837   0.7603   1.2454  -0.6347  -0.4975   0.00    0.0
2019/01/19 00:16:30.000   47.480957350   19.056555405   199.3158   5  10   1.1225   1.3822   0.7592   1.2449  -0.6306  -0.4957   0.00    0.0
2019/01/19 00:17:00.000   47.480956105   19.056557797   198.7182   5  10   1.1229   1.3806   0.7580   1.2439  -0.6263  -0.4936   0.00    0.0
2019/01/19 00:17:30.000   47.480955606   19.056556653   198.2283   5  10   1.1231   1.3788   0.7568   1.2425  -0.6218  -0.4914   0.00    0.0
2019/01/19 00:18:00.000   47.480955509   19.056556062   197.9618   5  10   1.1231   1.3767   0.7556   1.2406  -0.6171  -0.4891   0.00    0.0
2019/01/19 00:18:30.000   47.480954980   19.056557067   197.9707   5  10   1.1230   1.3745   0.7542   1.2383  -0.6122  -0.4865   0.00    0.0
2019/01/19 00:19:00.000   47.480953627   19.056557322   198.0253   5  10   1.1228   1.3720   0.7529   1.2355  -0.6070  -0.4838   0.00    0.0
2019/01/19 00:19:30.000   47.480952850   19.056555754   198.1142   5  10   1.1224   1.3693   0.7515   1.2323  -0.6017  -0.4809   0.00    0.0
2019/01/19 00:20:00.000   47.480952550   19.056554328   198.0817   5  10   1.1219   1.3664   0.7500   1.2287  -0.5962  -0.4779   0.00    0.0
2019/01/19 00:20:30.000   47.481076564   19.056615530   226.5862   5  11   0.9201   1.0057   0.5363   0.6349  -0.1099  -0.1402   0.00    0.0
2019/01/19 00:21:00.000   47.481068588   19.056613247   224.8229   5  11   0.9220   1.0078   0.5367   0.6389  -0.1101  -0.1407   0.00    0.0
2019/01/19 00:21:30.000   47.481059393   19.056612854   223.1257   5  11   0.9240   1.0097   0.5370   0.6428  -0.1102  -0.1412   0.00    0.0
2019/01/19 00:22:00.000   47.481050954   19.056611480   221.5350   5  11   0.9258   1.0116   0.5373   0.6466  -0.1103  -0.1417   0.00    0.0
2019/01/19 00:22:30.000   47.481043752   19.056609778   219.8564   5  11   0.9276   1.0134   0.5377   0.6503  -0.1104  -0.1422   0.00    0.0
2019/01/19 00:23:00.000   47.481038455   19.056605281   218.2766   5  11   0.9294   1.0152   0.5380   0.6538  -0.1105  -0.1427   0.00    0.0
2019/01/19 00:23:30.000   47.481032044   19.056600550   216.7474   5  11   0.9311   1.0168   0.5383   0.6573  -0.1105  -0.1432   0.00    0.0
2019/01/19 00:24:00.000   47.481025333   19.056597096   215.2690   5  11   0.9327   1.0184   0.5386   0.6605  -0.1105  -0.1436   0.00    0.0
2019/01/19 00:24:30.000   47.481018495   19.056594192   213.5920   5  11   0.9343   1.0199   0.5389   0.6637  -0.1105  -0.1440   0.00    0.0
2019/01/19 00:25:00.000   47.481011049   19.056592539   211.8937   5  11   0.9358   1.0213   0.5392   0.6667  -0.1105  -0.1444   0.00    0.0
2019/01/19 00:25:30.000   47.481003990   19.056592371   210.5699   5  11   0.9373   1.0226   0.5395   0.6696  -0.1104  -0.1448   0.00    0.0
2019/01/19 00:26:00.000   47.480998686   19.056591158   209.8332   5  11   0.9387   1.0238   0.5399   0.6723  -0.1103  -0.1451   0.00    0.0
2019/01/19 00:26:30.000   47.480994577   19.056588589   209.3605   5  11   0.9400   1.0249   0.5402   0.6748  -0.1102  -0.1455   0.00    0.0
2019/01/19 00:27:00.000   47.480991670   19.056586065   209.0618   5  11   0.9413   1.0259   0.5404   0.6773  -0.1101  -0.1458   0.00    0.0
2019/01/19 00:27:30.000   47.480990257   19.056585363   208.5318   5  11   0.9425   1.0269   0.5407   0.6795  -0.1099  -0.1460   0.00    0.0
2019/01/19 00:28:00.000   47.480989338   19.056582971   207.9351   5  11   0.9436   1.0277   0.5410   0.6816  -0.1097  -0.1463   0.00    0.0
2019/01/19 00:28:30.000   47.480986543   19.056580676   207.0093   5  11   0.9447   1.0284   0.5413   0.6836  -0.1095  -0.1465   0.00    0.0
2019/01/19 00:29:00.000   47.480984126   19.056578424   206.2336   5  11   0.9456   1.0291   0.5416   0.6854  -0.1093  -0.1468   0.00    0.0
2019/01/19 00:29:30.000   47.480980531   19.056578051   205.1903   5  11   0.9466   1.0296   0.5419   0.6870  -0.1090  -0.1470   0.00    0.0
2019/01/19 00:30:00.000   47.480976665   19.056577029   204.2585   5  11   0.9474   1.0301   0.5421   0.6884  -0.1087  -0.1471   0.00    0.0
2019/01/19 00:30:30.000   47.480972701   19.056576485   203.5209   5  11   0.9482   1.0305   0.5424   0.6897  -0.1084  -0.1473   0.00    0.0
2019/01/19 00:31:00.000   47.480968641   19.056576691   202.9331   5  11   0.9489   1.0307   0.5427   0.6909  -0.1080  -0.1474   0.00    0.0
2019/01/19 00:31:30.000   47.480966514   19.056573657   203.1171   5  11   0.9495   1.0309   0.5429   0.6918  -0.1076  -0.1475   0.00    0.0
2019/01/19 00:32:00.000   47.480964004   19.056574706   203.1886   5  11   0.9500   1.0310   0.5432   0.6926  -0.1072  -0.1476   0.00    0.0
2019/01/19 00:32:30.000   47.480960744   19.056576772   202.8081   5  11   0.9505   1.0309   0.5434   0.6932  -0.1068  -0.1476   0.00    0.0
2019/01/19 00:33:00.000   47.480958236   19.056577991   202.3286   5  11   0.9509   1.0308   0.5437   0.6936  -0.1064  -0.1477   0.00    0.0
2019/01/19 00:33:30.000   47.480955473   19.056578468   201.9586   5  11   0.9512   1.0306   0.5439   0.6939  -0.1059  -0.1477   0.00    0.0
2019/01/19 00:34:00.000   47.480952901   19.056578346   201.4899   5  11   0.9515   1.0303   0.5442   0.6940  -0.1054  -0.1476   0.00    0.0
2019/01/19 00:34:30.000   47.480951388   19.056576319   201.2124   5  11   0.9517   1.0298   0.5444   0.6939  -0.1048  -0.1476   0.00    0.0
2019/01/19 00:35:00.000   47.480949815   19.056573899   200.9504   5  11   0.9518   1.0293   0.5446   0.6937  -0.1043  -0.1475   0.00    0.0
2019/01/19 00:35:30.000   47.480949167   19.056571059   200.6763   5  11   0.9518   1.0287   0.5448   0.6933  -0.1037  -0.1474   0.00    0.0
2019/01/19 00:36:00.000   47.480948236   19.056569046   200.5378   5  11   0.9517   1.0280   0.5451   0.6927  -0.1031  -0.1473   0.00    0.0
2019/01/19 00:36:30.000   47.480946584   19.056567693   200.4343   5  11   0.9516   1.0272   0.5453   0.6920  -0.1024  -0.1472   0.00    0.0
2019/01/19 00:37:00.000   47.480943562   19.056566815   200.1391   5  11   0.9514   1.0263   0.5455   0.6911  -0.1018  -0.1470   0.00    0.0
2019/01/19 00:37:30.000   47.480940836   19.056565359   199.7264   5  11   0.9511   1.0253   0.5457   0.6900  -0.1011  -0.1468   0.00    0.0
2019/01/19 00:38:00.000   47.480938335   19.056565068   199.1249   5  11   0.9508   1.0242   0.5459   0.6888  -0.1004  -0.1466   0.00    0.0
2019/01/19 00:38:30.000   47.480936967   19.056565537   198.8078   5  11   0.9504   1.0231   0.5461   0.6874  -0.0996  -0.1464   0.00    0.0
2019/01/19 00:39:00.000   47.480934944   19.056566049   198.8361   5  11   0.9499   1.0218   0.5463   0.6858  -0.0989  -0.1462   0.00    0.0
2019/01/19 00:39:30.000   47.480875096   19.056596996   206.6308   5  12   0.9207   1.0171   0.5235   0.7033  -0.1112  -0.1097   0.00    0.0
2019/01/19 00:40:00.000   47.480877824   19.056596453   206.8718   5  12   0.9203   1.0156   0.5235   0.7015  -0.1105  -0.1093   0.00    0.0
2019/01/19 00:40:30.000   47.480878697   19.056596776   206.8975   5  12   0.9198   1.0141   0.5235   0.6995  -0.1098  -0.1090   0.00    0.0
2019/01/19 00:41:00.000   47.480879737   19.056599087   206.6193   5  12   0.9192   1.0124   0.5234   0.6974  -0.1091  -0.1086   0.00    0.0
2019/01/19 00:41:30.000   47.480879813   19.056599144   206.1789   5  12   0.9185   1.0107   0.5234   0.6951  -0.1084  -0.1082   0.00    0.0
2019/01/19 00:42:00.000   47.480877853   19.056599280   205.5528   5  12   0.9178   1.0089   0.5233   0.6927  -0.1076  -0.1078   0.00    0.0
2019/01/19 00:42:30.000   47.480876338   19.056597824   205.0859   5  12   0.9170   1.0070   0.5233   0.6901  -0.1069  -0.1074   0.00    0.0
2019/01/19 00:43:00.000   47.480875716   19.056594886   204.9909   5  12   0.9162   1.0050   0.5232   0.6874  -0.1061  -0.1070   0.00    0.0
2019/01/19 00:43:30.000   47.480876761   19.056593262   205.0888   5  12   0.9153   1.0029   0.5232   0.6846  -0.1053  -0.1065   0.00    0.0
2019/01/19 00:44:00.000   47.480876906   19.056591136   205.2428   5  12   0.9143   1.0008   0.5231   0.6817  -0.1045  -0.1061   0.00    0.0
2019/01/19 00:44:30.000   47.480877067   19.056590654   205.2452   5  12   0.9133   0.9986   0.5230   0.6786  -0.1036  -0.1056   0.00    0.0
2019/01/19 00:45:00.000   47.480875768   19.056591932   205.0720   5  12   0.9122   0.9964   0.5229   0.6754  -0.1028  -0.1051   0.00    0.0
2019/01/19 00:45:30.000   47.480875132   19.056593802   204.9457   5  12   0.9110   0.9940   0.5228   0.6721  -0.1020  -0.1046   0.00    0.0
2019/01/19 00:46:00.000   47.480875394   19.056593635   204.9305   5  12   0.9098   0.9916   0.5228   0.6687  -0.1011  -0.1041   0.00    0.0
2019/01/19 00:46:30.000   47.480875076   19.056594460   204.8708   5  12   0.9085   0.9892   0.5227   0.6651  -0.1002  -0.1035   0.00    0.0
2019/01/19 00:47:00.000   47.480874655   19.056593745   205.0844   5  12   0.9072   0.9866   0.5226   0.6615  -0.0993  -0.1030   0.00    0.0
2019/01/19 00:47:30.000   47.480865279   19.056614821   206.4890   5  11   0.9128   0.9853   0.5831   0.6523  -0.0858  -0.1315   0.00    0.0
2019/01/19 00:48:00.000   47.480872111   19.056594057   205.2356   5  12   0.9044   0.9814   0.5224   0.6539  -0.0975  -0.1019   0.00    0.0
2019/01/19 00:48:30.000   47.480872465   19.056591378   205.3291   5  12   0.9029   0.9787   0.5223   0.6500  -0.0966  -0.1013   0.00    0.0
2019/01/19 00:49:00.000   47.480872047   19.056592571   205.3965   5  12   0.9014   0.9760   0.5222   0.6460  -0.0957  -0.1007   0.00    0.0
2019/01/19 00:49:30.000   47.480872607   19.056594875   205.3794   5  12   0.8998   0.9732   0.5221   0.6419  -0.0947  -0.1001   0.00    0.0
2019/01/19 00:50:00.000   47.480872472   19.056594892   205.1519   5  12   0.8982   0.9703   0.5219   0.6377  -0.0938  -0.0995   0.00    0.0
2019/01/19 00:50:30.000   47.480866473   19.056611916   206.3085   5  11   0.9044   0.9681   0.5851   0.6291  -0.0832  -0.1304   0.00    0.0
2019/01/19 00:51:00.000   47.480865740   19.056612011   206.4295   5  11   0.9029   0.9651   0.5854   0.6250  -0.0827  -0.1302   0.00    0.0
2019/01/19 00:51:30.000   47.480864466   19.056612554   206.6953   5  11   0.9013   0.9620   0.5857   0.6208  -0.0822  -0.1300   0.00    0.0
2019/01/19 00:52:00.000   47.481045449   19.056456329   237.4676   5  13   0.7270   0.6310   0.5214   0.2483  -0.0874  -0.0951   0.00    0.0
2019/01/19 00:52:30.000   47.481029316   19.056465998   234.7954   5  13   0.7273   0.6311   0.5213   0.2485  -0.0874  -0.0952   0.00    0.0
2019/01/19 00:53:00.000   47.481015204   19.056475942   232.6168   5  13   0.7276   0.6312   0.5211   0.2488  -0.0875  -0.0953   0.00    0.0
2019/01/19 00:53:30.000   47.480999282   19.056498471   231.6568   5  12   0.7403   0.6314   0.5868   0.2474  -0.0843  -0.1318   0.00    0.0
2019/01/19 00:54:00.000   47.480989172   19.056506679   229.8999   5  12   0.7407   0.6315   0.5871   0.2477  -0.0847  -0.1321   0.00    0.0
2019/01/19 00:54:30.000   47.480980247   19.056513205   228.0179   5  12   0.7411   0.6315   0.5873   0.2480  -0.0850  -0.1325   0.00    0.0
2019/01/19 00:55:00.000   47.480976965   19.056501470   225.5763   5  13   0.7286   0.6315   0.5205   0.2495  -0.0875  -0.0954   0.00    0.0
2019/01/19 00:55:30.000   47.480968000   19.056507567   225.0552   5  13   0.7288   0.6315   0.5204   0.2496  -0.0875  -0.0954   0.00    0.0
2019/01/19 00:56:00.000   47.480957218   19.056523133   225.4640   5  12   0.7420   0.6316   0.5880   0.2489  -0.0860  -0.1333   0.00    0.0
2019/01/19 00:56:30.000   47.480949875   19.056526091   224.8185   5  12   0.7423   0.6316   0.5882   0.2492  -0.0863  -0.1335   0.00    0.0
2019/01/19 00:57:00.000   47.480942353   19.056529423   223.7555   5  12   0.7425   0.6316   0.5884   0.2494  -0.0866  -0.1338   0.00    0.0
2019/01/19 00:57:30.000   47.480936130   19.056533145   222.6440   5  12   0.7428   0.6315   0.5886   0.2496  -0.0869  -0.1340   0.00    0.0
2019/01/19 00:58:00.000   47.480966508   19.056489608   215.1546   5  11   0.8006   0.6356   0.6679   0.2282  -0.0644  -0.2281   0.00    0.0
2019/01/19 00:58:30.000   47.480959779   19.056491898   214.4611   5  11   0.8007   0.6355   0.6686   0.2286  -0.0648  -0.2286   0.00    0.0
2019/01/19 00:59:00.000   47.480953507   19.056493897   213.9299   5  11   0.8007   0.6354   0.6693   0.2290  -0.0652  -0.2291   0.00    0.0
2019/01/19 00:59:30.000   47.480948200   19.056497493   213.5321   5  11   0.8008   0.6352   0.6701   0.2293  -0.0656  -0.2295   0.00    0.0
2019/01/19 01:00:00.000   47.480942891   19.056501070   213.4498   5  11   0.8008   0.6351   0.6708   0.2296  -0.0660  -0.2299   0.00    0.0
2019/01/19 01:00:30.000   47.480937103   19.056504155   213.4715   5  11   0.8008   0.6349   0.6715   0.2299  -0.0664  -0.2303   0.00    0.0
2019/01/19 01:01:00.000   47.480930532   19.056508224   213.0155   5  11   0.8007   0.6347   0.6721   0.2301  -0.0667  -0.2306   0.00    0.0
2019/01/19 01:01:30.000   47.480924265   19.056511162   212.7511   5  11   0.8007   0.6345   0.6728   0.2304  -0.0671  -0.2310   0.00    0.0
2019/01/19 01:02:00.000   47.480918620   19.056513893   212.9341   5  11   0.8006   0.6343   0.6735   0.2306  -0.0674  -0.2313   0.00    0.0
2019/01/19 01:02:30.000   47.480913353   19.056515574   213.3120   5  11   0.8005   0.6341   0.6741   0.2308  -0.0677  -0.2315   0.00    0.0
2019/01/19 01:03:00.000   47.480908170   19.056518246   213.8199   5  11   0.8003   0.6339   0.6747   0.2310  -0.0680  -0.2318   0.00    0.0
2019/01/19 01:03:30.000   47.480901822   19.056523518   214.3355   5  11   0.8001   0.6337   0.6754   0.2311  -0.0684  -0.2320   0.00    0.0
2019/01/19 01:04:00.000   47.480896003   19.056526842   214.9182   5  11   0.7999   0.6335   0.6760   0.2312  -0.0686  -0.2322   0.00    0.0
2019/01/19 01:04:30.000   47.480888673   19.056530214   215.5917   5  11   0.7997   0.6332   0.6766   0.2313  -0.0689  -0.2324   0.00    0.0
2019/01/19 01:05:00.000   47.480881889   19.056532112   216.0712   5  11   0.7995   0.6330   0.6771   0.2314  -0.0692  -0.2325   0.00    0.0
2019/01/19 01:05:30.000   47.480876131   19.056532322   216.5422   5  11   0.7992   0.6327   0.6777   0.2314  -0.0695  -0.2326   0.00    0.0
2019/01/19 01:06:00.000   47.480871383   19.056531394   217.1050   5  11   0.7989   0.6325   0.6783   0.2315  -0.0697  -0.2327   0.00    0.0
2019/01/19 01:06:30.000   47.480865501   19.056532169   217.7317   5  11   0.7986   0.6322   0.6788   0.2315  -0.0699  -0.2327   0.00    0.0
2019/01/19 01:07:00.000   47.480860074   19.056535248   218.4431   5  11   0.7982   0.6319   0.6793   0.2315  -0.0702  -0.2328   0.00    0.0
2019/01/19 01:07:30.000   47.480853962   19.056538419   219.1522   5  11   0.7978   0.6316   0.6798   0.2314  -0.0704  -0.2328   0.00    0.0
2019/01/19 01:08:00.000   47.480985595   19.056515612   194.2297   5  10   1.0149   0.6371   0.7433   0.1771  -0.0447  -0.4207   0.00    0.0
2019/01/19 01:08:30.000   47.480984856   19.056516575   193.4652   5  10   1.0154   0.6367   0.7448   0.1773  -0.0448  -0.4227   0.00    0.0
2019/01/19 01:09:00.000   47.480985609   19.056516682   193.0032   5  10   1.0158   0.6363   0.7463   0.1775  -0.0450  -0.4247   0.00    0.0
2019/01/19 01:09:30.000   47.480985898   19.056517291   192.5951   5  10   1.0161   0.6359   0.7478   0.1777  -0.0451  -0.4266   0.00    0.0
2019/01/19 01:10:00.000   47.480985438   19.056518537   192.2990   5  10   1.0165   0.6355   0.7493   0.1778  -0.0453  -0.4285   0.00    0.0
2019/01/19 01:10:30.000   47.480984442   19.056520969   192.0477   5  10   1.0167   0.6351   0.7508   0.1780  -0.0454  -0.4303   0.00    0.0
2019/01/19 01:11:00.000   47.480981395   19.056525594   191.9404   5  10   1.0170   0.6346   0.7522   0.1781  -0.0455  -0.4321   0.00    0.0
2019/01/19 01:11:30.000   47.480953269   19.056579570   199.4958   5  11   0.9148   0.6340   0.5606   0.1719  -0.0386  -0.2098   0.00    0.0
2019/01/19 01:12:00.000   47.480952231   19.056578889   199.2995   5  11   0.9153   0.6336   0.5616   0.1724  -0.0391  -0.2114   0.00    0.0
2019/01/19 01:12:30.000   47.480950598   19.056578564   198.7830   5  11   0.9157   0.6332   0.5627   0.1728  -0.0397  -0.2129   0.00    0.0
2019/01/19 01:13:00.000   47.480949681   19.056576776   198.5346   5  11   0.9162   0.6327   0.5637   0.1733  -0.0402  -0.2145   0.00    0.0
2019/01/19 01:13:30.000   47.480951144   19.056575103   198.2482   5  11   0.9166   0.6323   0.5648   0.1737  -0.0407  -0.2161   0.00    0.0
2019/01/19 01:14:00.000   47.480952738   19.056571814   197.9253   5  11   0.9170   0.6318   0.5658   0.1740  -0.0412  -0.2176   0.00    0.0
2019/01/19 01:14:30.000   47.480955462   19.056567919   197.4154   5  11   0.9174   0.6314   0.5669   0.1744  -0.0417  -0.2192   0.00    0.0
2019/01/19 01:15:00.000   47.480957923   19.056564796   196.8660   5  11   0.9177   0.6309   0.5679   0.1747  -0.0423  -0.2207   0.00    0.0
2019/01/19 01:15:30.000   47.480958714   19.056564525   196.5205   5  11   0.9180   0.6304   0.5690   0.1750  -0.0428  -0.2222   0.00    0.0
2019/01/19 01:16:00.000   47.480958966   19.056565215   196.2161   5  11   0.9183   0.6299   0.5700   0.1753  -0.0433  -0.2237   0.00    0.0
2019/01/19 01:16:30.000   47.480959815   19.056565818   195.8822   5  11   0.9186   0.6295   0.5711   0.1756  -0.0438  -0.2251   0.00    0.0
2019/01/19 01:17:00.000   47.480959795   19.056565409   195.6736   5  11   0.9188   0.6290   0.5721   0.1758  -0.0442  -0.2266   0.00    0.0
2019/01/19 01:17:30.000   47.480961074   19.056565503   195.3531   5  11   0.9190   0.6285   0.5732   0.1760  -0.0447  -0.2280   0.00    0.0
2019/01/19 01:18:00.000   47.480961336   19.056563977   195.0891   5  11   0.9192   0.6280   0.5742   0.1762  -0.0452  -0.2294   0.00    0.0
2019/01/19 01:18:30.000   47.480962094   19.056562310   194.7141   5  11   0.9194   0.6274   0.5753   0.1764  -0.0457  -0.2308   0.00    0.0
2019/01/19 01:19:00.000   47.480962045   19.056561779   194.1641   5  11   0.9195   0.6269   0.5763   0.1765  -0.0461  -0.2322   0.00    0.0
2019/01/19 01:19:30.000   47.480961507   19.056560192   193.8935   5  11   0.9196   0.6264   0.5774   0.1767  -0.0466  -0.2336   0.00    0.0
2019/01/19 01:20:00.000   47.480960700   19.056558882   193.9575   5  11   0.9196   0.6259   0.5784   0.1768  -0.0471  -0.2349   0.00    0.0
2019/01/19 01:20:30.000   47.480959174   19.056557453   193.9975   5  11   0.9196   0.6253   0.5795   0.1769  -0.0475  -0.2362   0.00    0.0
2019/01/19 01:21:00.000   47.480958681   19.056555655   194.0465   5  11   0.9196   0.6248   0.5805   0.1769  -0.0479  -0.2375   0.00    0.0
2019/01/19 01:21:30.000   47.480958274   19.056553253   194.1082   5  11   0.9196   0.6242   0.5816   0.1769  -0.0484  -0.2388   0.00    0.0
2019/01/19 01:22:00.000   47.480958356   19.056549792   193.8004   5  11   0.9195   0.6237   0.5826   0.1770  -0.0488  -0.2401   0.00    0.0
2019/01/19 01:22:30.000   47.480959141   19.056545495   193.4692   5  11   0.9194   0.6231   0.5836   0.1769  -0.0492  -0.2413   0.00    0.0
2019/01/19 01:23:00.000   47.480959217   19.056543868   193.3267   5  11   0.9193   0.6226   0.5847   0.1769  -0.0496  -0.2425   0.00    0.0
2019/01/19 01:23:30.000   47.480959251   19.056542430   193.3018   5  11   0.9191   0.6220   0.5857   0.1768  -0.0500  -0.2437   0.00    0.0
2019/01/19 01:24:00.000   47.480959732   19.056543231   193.2187   5  11   0.9189   0.6214   0.5867   0.1768  -0.0504  -0.2449   0.00    0.0
2019/01/19 01:24:30.000   47.480961205   19.056544584   193.0494   5  11   0.9187   0.6208   0.5878   0.1767  -0.0508  -0.2460   0.00    0.0
2019/01/19 01:25:00.000   47.480962301   19.056546363   192.8049   5  11   0.9184   0.6202   0.5888   0.1765  -0.0512  -0.2472   0.00    0.0
2019/01/19 01:25:30.000   47.480964312   19.056547072   192.2387   5  11   0.9182   0.6196   0.5898   0.1764  -0.0516  -0.2483   0.00    0.0
2019/01/19 01:26:00.000   47.481057140   19.056480109   209.1313   5  12   0.8862   0.5246   0.5906   0.0977  -0.0476  -0.2462   0.00    0.0
2019/01/19 01:26:30.000   47.481052352   19.056481706   207.3922   5  12   0.8865   0.5246   0.5917   0.0985  -0.0482  -0.2474   0.00    0.0
2019/01/19 01:27:00.000   47.481044690   19.056485676   206.1420   5  12   0.8867   0.5246   0.5927   0.0993  -0.0488  -0.2486   0.00    0.0
2019/01/19 01:27:30.000   47.481038549   19.056489708   205.1124   5  12   0.8869   0.5247   0.5937   0.1002  -0.0494  -0.2498   0.00    0.0
2019/01/19 01:28:00.000   47.481033283   19.056493775   204.2502   5  12   0.8870   0.5247   0.5947   0.1010  -0.0500  -0.2510   0.00    0.0
2019/01/19 01:28:30.000   47.481027932   19.056497942   203.6649   5  12   0.8871   0.5247   0.5958   0.1018  -0.0506  -0.2522   0.00    0.0
2019/01/19 01:29:00.000   47.481023976   19.056501329   203.0154   5  12   0.8872   0.5248   0.5968   0.1025  -0.0512  -0.2533   0.00    0.0
2019/01/19 01:29:30.000   47.481021205   19.056502766   202.2309   5  12   0.8873   0.5248   0.5978   0.1033  -0.0518  -0.2544   0.00    0.0
2019/01/19 01:30:00.000   47.481018182   19.056505009   201.5790   5  12   0.8873   0.5248   0.5988   0.1040  -0.0524  -0.2555   0.00    0.0
2019/01/19 01:30:30.000   47.481015643   19.056508406   200.8312   5  12   0.8873   0.5249   0.5997   0.1048  -0.0530  -0.2566   0.00    0.0
2019/01/19 01:31:00.000   47.481013328   19.056509413   199.9804   5  12   0.8872   0.5249   0.6007   0.1055  -0.0536  -0.2576   0.00    0.0
2019/01/19 01:31:30.000   47.481009946   19.056509884   199.3530   5  12   0.8872   0.5250   0.6017   0.1062  -0.0542  -0.2586   0.00    0.0
2019/01/19 01:32:00.000   47.481007783   19.056510529   198.8392   5  12   0.8870   0.5250   0.6027   0.1069  -0.0547  -0.2595   0.00    0.0
2019/01/19 01:32:30.000   47.481006885   19.056511383   198.4484   5  12   0.8869   0.5250   0.6036   0.1075  -0.0553  -0.2605   0.00    0.0
2019/01/19 01:33:00.000   47.481004391   19.056513160   198.2492   5  12   0.8867   0.5251   0.6046   0.1082  -0.0559  -0.2614   0.00    0.0
2019/01/19 01:33:30.000   47.481001380   19.056514058   197.8387   5  12   0.8865   0.5251   0.6055   0.1088  -0.0564  -0.2623   0.00    0.0
2019/01/19 01:34:00.000   47.480999203   19.056513762   197.4730   5  12   0.8862   0.5251   0.6065   0.1094  -0.0570  -0.2631   0.00    0.0
2019/01/19 01:34:30.000   47.480997115   19.056513048   197.1575   5  12   0.8860   0.5251   0.6074   0.1100  -0.0575  -0.2639   0.00    0.0
2019/01/19 01:35:00.000   47.480994949   19.056512580   197.0964   5  12   0.8856   0.5252   0.6083   0.1106  -0.0581  -0.2647   0.00    0.0
2019/01/19 01:35:30.000   47.480993851   19.056512612   196.8047   5  12   0.8853   0.5252   0.6092   0.1112  -0.0586  -0.2655   0.00    0.0
2019/01/19 01:36:00.000   47.480992713   19.056514972   196.5606   5  12   0.8849   0.5252   0.6101   0.1117  -0.0591  -0.2662   0.00    0.0
2019/01/19 01:36:30.000   47.480990470   19.056517362   196.5777   5  12   0.8844   0.5253   0.6110   0.1122  -0.0596  -0.2669   0.00    0.0
2019/01/19 01:37:00.000   47.480988419   19.056520303   196.6721   5  12   0.8840   0.5253   0.6119   0.1127  -0.0601  -0.2675   0.00    0.0
2019/01/19 01:37:30.000   47.480987381   19.056522145   196.6740   5  12   0.8835   0.5253   0.6128   0.1132  -0.0606  -0.2681   0.00    0.0
2019/01/19 01:38:00.000   47.480986137   19.056522444   196.5987   5  12   0.8829   0.5253   0.6137   0.1137  -0.0611  -0.2687   0.00    0.0
2019/01/19 01:38:30.000   47.480984991   19.056522054   196.3815   5  12   0.8824   0.5254   0.6145   0.1142  -0.0616  -0.2693   0.00    0.0
2019/01/19 01:39:00.000   47.480984848   19.056522264   196.2991   5  12   0.8817   0.5254   0.6154   0.1146  -0.0621  -0.2698   0.00    0.0
2019/01/19 01:39:30.000   47.480970852   19.056581765   203.1567   5  13   0.8483   0.5224   0.5140   0.1016  -0.0435  -0.1894   0.00    0.0
2019/01/19 01:40:00.000   47.480972147   19.056574718   202.2871   5  13   0.8479   0.5224   0.5147   0.1022  -0.0441  -0.1901   0.00    0.0
2019/01/19 01:40:30.000   47.480971517   19.056571162   201.9121   5  13   0.8475   0.5225   0.5155   0.1027  -0.0446  -0.1908   0.00    0.0
2019/01/19 01:41:00.000   47.480970219   19.056568139   201.5711   5  13   0.8470   0.5226   0.5163   0.1033  -0.0452  -0.1915   0.00    0.0
2019/01/19 01:41:30.000   47.480969852   19.056565516   201.4640   5  13   0.8465   0.5226   0.5170   0.1038  -0.0458  -0.1922   0.00    0.0
2019/01/19 01:42:00.000   47.480969343   19.056562847   201.3588   5  13   0.8460   0.5227   0.5177   0.1043  -0.0464  -0.1929   0.00    0.0
2019/01/19 01:42:30.000   47.480970340   19.056560465   201.3244   5  13   0.8454   0.5227   0.5185   0.1048  -0.0470  -0.1935   0.00    0.0
2019/01/19 01:43:00.000   47.480971377   19.056559316   201.3803   5  13   0.8449   0.5228   0.5192   0.1052  -0.0476  -0.1941   0.00    0.0
2019/01/19 01:43:30.000   47.480972804   19.056557977   201.3370   5  13   0.8442   0.5229   0.5200   0.1057  -0.0481  -0.1947   0.00    0.0
2019/01/19 01:44:00.000   47.480972934   19.056559567   201.3462   5  13   0.8436   0.5229   0.5207   0.1061  -0.0487  -0.1953   0.00    0.0
2019/01/19 01:44:30.000   47.480974303   19.056559533   201.3053   5  13   0.8429   0.5230   0.5215   0.1065  -0.0493  -0.1959   0.00    0.0
2019/01/19 01:45:00.000   47.480975437   19.056558375   201.3244   5  13   0.8422   0.5230   0.5222   0.1069  -0.0498  -0.1964   0.00    0.0
2019/01/19 01:45:30.000   47.480975999   19.056557597   201.3091   5  13   0.8415   0.5231   0.5229   0.1073  -0.0504  -0.1969   0.00    0.0
2019/01/19 01:46:00.000   47.480978062   19.056555955   201.6845   5  13   0.8407   0.5231   0.5236   0.1076  -0.0509  -0.1974   0.00    0.0
2019/01/19 01:46:30.000   47.480979762   19.056553960   202.0705   5  13   0.8399   0.5231   0.5244   0.1080  -0.0515  -0.1979   0.00    0.0
2019/01/19 01:47:00.000   47.480980284   19.056553794   202.6043   5  13   0.8391   0.5232   0.5251   0.1083  -0.0520  -0.1984   0.00    0.0
2019/01/19 01:47:30.000   47.480981146   19.056552508   203.1140   5  13   0.8382   0.5232   0.5258   0.1086  -0.0525  -0.1988   0.00    0.0
2019/01/19 01:48:00.000   47.480982779   19.056550821   203.6057   5  13   0.8373   0.5232   0.5265   0.1089  -0.0530  -0.1992   0.00    0.0
2019/01/19 01:48:30.000   47.480984901   19.056549908   204.0872   5  13   0.8364   0.5233   0.5272   0.1091  -0.0535  -0.1996   0.00    0.0
2019/01/19 01:49:00.000   47.481021530   19.056608455   213.2617   5  14   0.8289   0.4915   0.4962   0.0906  -0.0216  -0.1811   0.00    0.0
2019/01/19 01:49:30.000   47.481018890   19.056601230   212.8512   5  14   0.8281   0.4917   0.4969   0.0911  -0.0222  -0.1817   0.00    0.0
2019/01/19 01:50:00.000   47.481018176   19.056593479   212.5940   5  14   0.8273   0.4918   0.4975   0.0916  -0.0227  -0.1822   0.00    0.0
2019/01/19 01:50:30.000   47.481018110   19.056586871   212.4508   5  14   0.8264   0.4920   0.4982   0.0921  -0.0232  -0.1828   0.00    0.0
2019/01/19 01:51:00.000   47.481018367   19.056580440   212.5022   5  14   0.8255   0.4921   0.4988   0.0926  -0.0237  -0.1833   0.00    0.0
2019/01/19 01:51:30.000   47.481019273   19.056574703   212.8057   5  14   0.8246   0.4923   0.4995   0.0930  -0.0242  -0.1838   0.00    0.0
2019/01/19 01:52:00.000   47.481019386   19.056570148   213.1055   5  14   0.8236   0.4925   0.5002   0.0935  -0.0247  -0.1843   0.00    0.0
2019/01/19 01:52:30.000   47.481020171   19.056566464   213.5388   5  14   0.8226   0.4926   0.5008   0.0939  -0.0252  -0.1848   0.00    0.0
2019/01/19 01:53:00.000   47.481021381   19.056563229   214.1715   5  14   0.8216   0.4928   0.5015   0.0943  -0.0257  -0.1852   0.00    0.0
2019/01/19 01:53:30.000   47.481023764   19.056558753   215.1624   5  14   0.8206   0.4929   0.5021   0.0947  -0.0262  -0.1857   0.00    0.0
2019/01/19 01:54:00.000   47.481028265   19.056552745   216.1955   5  14   0.8195   0.4931   0.5028   0.0951  -0.0267  -0.1861   0.00    0.0
2019/01/19 01:54:30.000   47.481034307   19.056547339   217.1966   5  14   0.8184   0.4933   0.5034   0.0954  -0.0272  -0.1865   0.00    0.0
2019/01/19 01:55:00.000   47.480866759   19.056560904   211.2321   5  14   0.7467   0.5509   0.4736   0.1675  -0.0652  -0.1295   0.00    0.0
2019/01/19 01:55:30.000   47.480866183   19.056555842   210.3443   5  14   0.7470   0.5518   0.4744   0.1685  -0.0662  -0.1306   0.00    0.0
2019/01/19 01:56:00.000   47.480866464   19.056551848   209.5301   5  14   0.7473   0.5527   0.4753   0.1696  -0.0672  -0.1317   0.00    0.0
2019/01/19 01:56:30.000   47.480865428   19.056549007   208.9179   5  14   0.7475   0.5535   0.4762   0.1706  -0.0682  -0.1328   0.00    0.0
2019/01/19 01:57:00.000   47.480865741   19.056546292   208.5384   5  14   0.7477   0.5544   0.4770   0.1716  -0.0692  -0.1339   0.00    0.0
2019/01/19 01:57:30.000   47.480866388   19.056542572   208.3459   5  14   0.7479   0.5553   0.4779   0.1726  -0.0703  -0.1350   0.00    0.0
2019/01/19 01:58:00.000   47.480867152   19.056538880   208.3548   5  14   0.7481   0.5561   0.4788   0.1736  -0.0713  -0.1361   0.00    0.0
2019/01/19 01:58:30.000   47.480868354   19.056534279   208.4936   5  14   0.7482   0.5570   0.4797   0.1746  -0.0723  -0.1371   0.00    0.0
2019/01/19 01:59:00.000   47.480869545   19.056531535   208.3739   5  14   0.7484   0.5578   0.4806   0.1755  -0.0733  -0.1382   0.00    0.0
2019/01/19 01:59:30.000   47.480868917   19.056529234   208.3311   5  14   0.7485   0.5587   0.4815   0.1765  -0.0743  -0.1393   0.00    0.0
2019/01/19 02:00:00.000   47.480868229   19.056526887   208.3237   5  14   0.7485   0.5595   0.4824   0.1774  -0.0753  -0.1403   0.00    0.0
2019/01/19 02:00:30.000   47.480865606   19.056523483   208.2968   5  14   0.7486   0.5604   0.4833   0.1783  -0.0763  -0.1414   0.00    0.0
2019/01/19 02:01:00.000   47.480863353   19.056519230   208.2664   5  14   0.7486   0.5612   0.4842   0.1792  -0.0773  -0.1424   0.00    0.0
2019/01/19 02:01:30.000   47.480860142   19.056514099   208.2708   5  14   0.7486   0.5621   0.4851   0.1800  -0.0783  -0.1434   0.00    0.0
2019/01/19 02:02:00.000   47.480857719   19.056509151   208.1687   5  14   0.7486   0.5629   0.4861   0.1809  -0.0793  -0.1444   0.00    0.0
2019/01/19 02:02:30.000   47.480854229   19.056504049   208.4030   5  14   0.7485   0.5637   0.4870   0.1817  -0.0803  -0.1454   0.00    0.0
2019/01/19 02:03:00.000   47.480850387   19.056497155   208.7863   5  14   0.7485   0.5646   0.4879   0.1825  -0.0813  -0.1464   0.00    0.0
2019/01/19 02:03:30.000   47.480846280   19.056489606   209.3183   5  14   0.7484   0.5654   0.4888   0.1833  -0.0823  -0.1474   0.00    0.0
2019/01/19 02:04:00.000   47.480841994   19.056482365   210.1185   5  14   0.7482   0.5662   0.4898   0.1841  -0.0833  -0.1484   0.00    0.0
2019/01/19 02:04:30.000   47.480835324   19.056478000   211.1018   5  14   0.7481   0.5670   0.4907   0.1848  -0.0843  -0.1493   0.00    0.0
2019/01/19 02:05:00.000   47.480829588   19.056473899   212.2764   5  14   0.7479   0.5678   0.4916   0.1856  -0.0853  -0.1502   0.00    0.0
2019/01/19 02:05:30.000   47.480921117   19.056542334   197.7503   5  13   0.8823   0.5730   0.4943   0.1530  -0.0833  -0.1707   0.00    0.0
2019/01/19 02:06:00.000   47.480923286   19.056542282   197.6531   5  13   0.8828   0.5737   0.4954   0.1540  -0.0842  -0.1724   0.00    0.0
2019/01/19 02:06:30.000   47.480925644   19.056540644   197.2759   5  13   0.8833   0.5743   0.4965   0.1549  -0.0851  -0.1741   0.00    0.0
2019/01/19 02:07:00.000   47.480927577   19.056537249   196.7289   5  13   0.8837   0.5750   0.4976   0.1559  -0.0860  -0.1758   0.00    0.0
2019/01/19 02:07:30.000   47.480928400   19.056536138   196.0994   5  13   0.8842   0.5757   0.4987   0.1568  -0.0870  -0.1775   0.00    0.0
2019/01/19 02:08:00.000   47.480928235   19.056538066   195.7742   5  13   0.8845   0.5763   0.4998   0.1577  -0.0879  -0.1792   0.00    0.0
2019/01/19 02:08:30.000   47.480927261   19.056539921   195.6881   5  13   0.8849   0.5769   0.5009   0.1586  -0.0888  -0.1809   0.00    0.0
2019/01/19 02:09:00.000   47.480926998   19.056539330   195.7949   5  13   0.8853   0.5776   0.5020   0.1595  -0.0896  -0.1825   0.00    0.0
2019/01/19 02:09:30.000   47.480926548   19.056536649   195.8412   5  13   0.8856   0.5782   0.5031   0.1603  -0.0905  -0.1842   0.00    0.0
2019/01/19 02:10:00.000   47.480926944   19.056531033   195.6656   5  13   0.8858   0.5788   0.5042   0.1612  -0.0914  -0.1858   0.00    0.0
2019/01/19 02:10:30.000   47.480927220   19.056526026   195.5488   5  13   0.8861   0.5795   0.5053   0.1619  -0.0923  -0.1875   0.00    0.0
2019/01/19 02:11:00.000   47.480927992   19.056524904   195.3824   5  13   0.8863   0.5801   0.5064   0.1627  -0.0932  -0.1891   0.00    0.0
2019/01/19 02:11:30.000   47.480928319   19.056524851   195.3193   5  13   0.8865   0.5807   0.5076   0.1634  -0.0941  -0.1907   0.00    0.0
2019/01/19 02:12:00.000   47.480928945   19.056525117   195.4281   5  13   0.8866   0.5813   0.5087   0.1642  -0.0949  -0.1922   0.00    0.0
2019/01/19 02:12:30.000   47.480929560   19.056523933   195.6470   5  13   0.8867   0.5819   0.5098   0.1648  -0.0958  -0.1938   0.00    0.0
2019/01/19 02:13:00.000   47.480931200   19.056520713   195.6815   5  13   0.8868   0.5824   0.5110   0.1655  -0.0967  -0.1954   0.00    0.0
2019/01/19 02:13:30.000   47.480933208   19.056517800   195.4922   5  13   0.8868   0.5830   0.5121   0.1661  -0.0975  -0.1969   0.00    0.0
2019/01/19 02:14:00.000   47.480934383   19.056515516   195.3618   5  13   0.8868   0.5836   0.5133   0.1667  -0.0984  -0.1984   0.00    0.0
2019/01/19 02:14:30.000   47.480934965   19.056514389   195.2474   5  13   0.8868   0.5841   0.5144   0.1673  -0.0992  -0.1999   0.00    0.0
2019/01/19 02:15:00.000   47.480934621   19.056513482   195.3197   5  13   0.8867   0.5846   0.5155   0.1678  -0.1000  -0.2014   0.00    0.0
2019/01/19 02:15:30.000   47.480935395   19.056512493   195.2974   5  13   0.8867   0.5852   0.5167   0.1683  -0.1009  -0.2029   0.00    0.0
2019/01/19 02:16:00.000   47.480936662   19.056508967   195.2558   5  13   0.8865   0.5857   0.5178   0.1688  -0.1017  -0.2043   0.00    0.0
2019/01/19 02:16:30.000   47.480938905   19.056506513   195.1420   5  13   0.8864   0.5862   0.5190   0.1692  -0.1025  -0.2057   0.00    0.0
2019/01/19 02:17:00.000   47.480938894   19.056505160   195.4061   5  13   0.8862   0.5867   0.5201   0.1697  -0.1033  -0.2071   0.00    0.0
2019/01/19 02:17:30.000   47.480938447   19.056503588   195.8167   5  13   0.8859   0.5872   0.5213   0.1700  -0.1041  -0.2085   0.00    0.0
2019/01/19 02:18:00.000   47.480938268   19.056501415   195.9726   5  13   0.8857   0.5876   0.5224   0.1704  -0.1049  -0.2099   0.00    0.0
2019/01/19 02:18:30.000   47.480938238   19.056499813   196.1152   5  13   0.8854   0.5881   0.5236   0.1707  -0.1056  -0.2112   0.00    0.0
2019/01/19 02:19:00.000   47.480939182   19.056497375   196.2572   5  13   0.8850   0.5886   0.5247   0.1710  -0.1064  -0.2125   0.00    0.0
2019/01/19 02:19:30.000   47.480939898   19.056497039   196.6439   5  13   0.8847   0.5890   0.5259   0.1713  -0.1071  -0.2138   0.00    0.0
2019/01/19 02:20:00.000   47.480941279   19.056495778   197.0456   5  13   0.8843   0.5894   0.5270   0.1715  -0.1079  -0.2151   0.00    0.0
2019/01/19 02:20:30.000   47.480944460   19.056492874   197.3393   5  13   0.8838   0.5898   0.5282   0.1717  -0.1086  -0.2163   0.00    0.0
2019/01/19 02:21:00.000   47.480947212   19.056489283   197.9803   5  13   0.8833   0.5902   0.5293   0.1718  -0.1093  -0.2176   0.00    0.0
2019/01/19 02:21:30.000   47.480950857   19.056487298   198.1933   5  13   0.8828   0.5906   0.5305   0.1719  -0.1100  -0.2188   0.00    0.0
2019/01/19 02:22:00.000   47.480953041   19.056486180   198.7439   5  13   0.8823   0.5910   0.5316   0.1720  -0.1107  -0.2199   0.00    0.0
2019/01/19 02:22:30.000   47.480952136   19.056484640   199.8114   5  13   0.8817   0.5914   0.5327   0.1721  -0.1114  -0.2211   0.00    0.0
2019/01/19 02:23:00.000   47.480950004   19.056483804   201.0319   5  13   0.8811   0.5917   0.5339   0.1721  -0.1121  -0.2222   0.00    0.0
2019/01/19 02:23:30.000   47.480950320   19.056481806   202.0085   5  13   0.8804   0.5921   0.5350   0.1721  -0.1127  -0.2233   0.00    0.0
2019/01/19 02:24:00.000   47.480951676   19.056477262   202.4778   5  13   0.8798   0.5924   0.5361   0.1720  -0.1134  -0.2244   0.00    0.0
2019/01/19 02:24:30.000   47.480955214   19.056472650   202.5003   5  13   0.8791   0.5927   0.5372   0.1719  -0.1140  -0.2255   0.00    0.0
2019/01/19 02:25:00.000   47.480957093   19.056467558   202.6593   5  13   0.8783   0.5930   0.5384   0.1718  -0.1146  -0.2265   0.00    0.0
2019/01/19 02:25:30.000   47.480959432   19.056463395   202.8023   5  13   0.8775   0.5933   0.5395   0.1716  -0.1152  -0.2275   0.00    0.0
2019/01/19 02:26:00.000   47.480960346   19.056458523   203.2762   5  13   0.8767   0.5935   0.5406   0.1714  -0.1158  -0.2285   0.00    0.0
2019/01/19 02:26:30.000   47.480958045   19.056454265   204.4403   5  13   0.8759   0.5938   0.5417   0.1712  -0.1164  -0.2294   0.00    0.0
2019/01/19 02:27:00.000   47.480955910   19.056449387   205.7636   5  13   0.8750   0.5940   0.5428   0.1709  -0.1169  -0.2304   0.00    0.0
2019/01/19 02:27:30.000   47.480954077   19.056445381   207.2969   5  13   0.8741   0.5942   0.5439   0.1707  -0.1174  -0.2312   0.00    0.0
2019/01/19 02:28:00.000   47.480953735   19.056441744   208.8337   5  13   0.8731   0.5945   0.5450   0.1703  -0.1180  -0.2321   0.00    0.0
2019/01/19 02:28:30.000   47.480955554   19.056436491   210.0484   5  13   0.8722   0.5946   0.5461   0.1700  -0.1185  -0.2330   0.00    0.0
2019/01/19 02:29:00.000   47.480958870   19.056429995   210.9390   5  13   0.8712   0.5948   0.5472   0.1696  -0.1190  -0.2338   0.00    0.0
2019/01/19 02:29:30.000   47.480961882   19.056421878   211.9932   5  13   0.8701   0.5950   0.5482   0.1691  -0.1194  -0.2346   0.00    0.0
2019/01/19 02:30:00.000   47.480961881   19.056414727   213.6318   5  13   0.8691   0.5951   0.5493   0.1686  -0.1199  -0.2353   0.00    0.0
2019/01/19 02:30:30.000   47.480960232   19.056408499   215.6378   5  13   0.8680   0.5953   0.5504   0.1681  -0.1203  -0.2361   0.00    0.0
2019/01/19 02:31:00.000   47.480959638   19.056402425   217.9326   5  13   0.8668   0.5954   0.5514   0.1676  -0.1208  -0.2368   0.00    0.0
2019/01/19 02:31:30.000   47.480959801   19.056395868   220.3377   5  13   0.8657   0.5955   0.5525   0.1670  -0.1212  -0.2374   0.00    0.0
2019/01/19 02:32:00.000   47.480960638   19.056386583   222.7482   5  13   0.8645   0.5956   0.5535   0.1664  -0.1215  -0.2381   0.00    0.0
2019/01/19 02:32:30.000   47.480991184   19.056548785   195.7555   5  12   1.0580   0.6281   0.5551   0.2877  -0.1172  -0.2244   0.00    0.0
2019/01/19 02:33:00.000   47.480993530   19.056548139   195.8183   5  12   1.0568   0.6286   0.5561   0.2878  -0.1178  -0.2259   0.00    0.0
2019/01/19 02:33:30.000   47.480995255   19.056548622   196.1412   5  12   1.0557   0.6290   0.5571   0.2878  -0.1184  -0.2273   0.00    0.0
2019/01/19 02:34:00.000   47.480996176   19.056549609   196.6227   5  12   1.0545   0.6294   0.5580   0.2877  -0.1190  -0.2288   0.00    0.0
2019/01/19 02:34:30.000   47.480997803   19.056550114   197.4844   5  12   1.0532   0.6298   0.5590   0.2876  -0.1196  -0.2302   0.00    0.0
2019/01/19 02:35:00.000   47.481000630   19.056549746   198.0989   5  12   1.0518   0.6302   0.5600   0.2874  -0.1201  -0.2315   0.00    0.0
2019/01/19 02:35:30.000   47.481004706   19.056548944   198.8135   5  12   1.0504   0.6306   0.5609   0.2871  -0.1207  -0.2329   0.00    0.0
2019/01/19 02:36:00.000   47.481009216   19.056548659   199.6123   5  12   1.0490   0.6309   0.5619   0.2868  -0.1212  -0.2342   0.00    0.0
2019/01/19 02:36:30.000   47.481012843   19.056549074   200.6661   5  12   1.0475   0.6312   0.5628   0.2864  -0.1217  -0.2354   0.00    0.0
2019/01/19 02:37:00.000   47.481016693   19.056549716   201.5752   5  12   1.0459   0.6315   0.5638   0.2860  -0.1221  -0.2366   0.00    0.0
2019/01/19 02:37:30.000   47.481018656   19.056550547   202.7910   5  12   1.0443   0.6317   0.5647   0.2855  -0.1226  -0.2378   0.00    0.0
2019/01/19 02:38:00.000   47.481019844   19.056551664   204.0326   5  12   1.0427   0.6320   0.5656   0.2849  -0.1230  -0.2389   0.00    0.0
2019/01/19 02:38:30.000   47.481021235   19.056553751   205.1342   5  12   1.0410   0.6322   0.5666   0.2843  -0.1234  -0.2400   0.00    0.0
2019/01/19 02:39:00.000   47.481023630   19.056554910   205.8516   5  12   1.0392   0.6324   0.5675   0.2836  -0.1238  -0.2410   0.00    0.0
2019/01/19 02:39:30.000   47.481030072   19.056556242   207.0550   5  12   1.0374   0.6326   0.5684   0.2828  -0.1242  -0.2421   0.00    0.0
2019/01/19 02:40:00.000   47.481038263   19.056556042   208.7442   5  12   1.0355   0.6327   0.5693   0.2820  -0.1245  -0.2430   0.00    0.0
2019/01/19 02:40:30.000   47.481046466   19.056555855   211.0407   5  12   1.0336   0.6328   0.5703   0.2812  -0.1248  -0.2440   0.00    0.0
2019/01/19 02:41:00.000   47.480980571   19.056462281   233.0450   5  13   0.8180   0.6322   0.5697   0.2600  -0.1238  -0.2193   0.00    0.0
2019/01/19 02:41:30.000   47.480991635   19.056469650   234.7427   5  13   0.8175   0.6323   0.5705   0.2599  -0.1241  -0.2198   0.00    0.0
2019/01/19 02:42:00.000   47.481001260   19.056475538   236.1394   5  13   0.8170   0.6324   0.5714   0.2598  -0.1244  -0.2203   0.00    0.0
2019/01/19 02:42:30.000   47.481013391   19.056482193   237.9498   5  13   0.8164   0.6325   0.5722   0.2596  -0.1247  -0.2208   0.00    0.0
2019/01/19 02:43:00.000   47.481028914   19.056488733   240.0727   5  13   0.8158   0.6326   0.5731   0.2594  -0.1249  -0.2212   0.00    0.0
2019/01/19 02:43:30.000   47.481103526   19.056566754   226.8040   5  12   1.0213   0.6331   0.5756   0.2747  -0.1263  -0.2488   0.00    0.0
2019/01/19 02:44:00.000   47.481060826   19.056501220   245.1183   5  13   0.8145   0.6326   0.5747   0.2588  -0.1254  -0.2220   0.00    0.0
2019/01/19 02:44:30.000   47.480945805   19.056535231   183.6266   5  11   1.1943   0.9741   0.6819   0.7361  -0.3953  -0.4774   0.00    0.0
2019/01/19 02:45:00.000   47.481037383   19.056588927   212.5562   5  12   1.0470   0.7201   0.5358   0.3604  -0.1180  -0.2365   0.00    0.0
2019/01/19 02:45:30.000   47.481031264   19.056584853   210.9268   5  12   1.0473   0.7229   0.5372   0.3639  -0.1200  -0.2394   0.00    0.0
2019/01/19 02:46:00.000   47.481026460   19.056582318   209.5449   5  12   1.0476   0.7256   0.5386   0.3674  -0.1219  -0.2422   0.00    0.0
2019/01/19 02:46:30.000   47.481023361   19.056580736   208.4092   5  12   1.0479   0.7283   0.5401   0.3709  -0.1238  -0.2450   0.00    0.0
2019/01/19 02:47:00.000   47.480966329   19.056504055   224.4208   5  13   0.8397   0.7288   0.5389   0.3377  -0.1227  -0.2144   0.00    0.0
2019/01/19 02:47:30.000   47.480964709   19.056505155   223.4453   5  13   0.8409   0.7315   0.5402   0.3410  -0.1245  -0.2163   0.00    0.0
2019/01/19 02:48:00.000   47.480961119   19.056505371   222.8485   5  13   0.8421   0.7342   0.5416   0.3443  -0.1264  -0.2183   0.00    0.0
2019/01/19 02:48:30.000   47.480959069   19.056505624   222.3622   5  13   0.8433   0.7370   0.5429   0.3477  -0.1283  -0.2202   0.00    0.0
2019/01/19 02:49:00.000   47.480960043   19.056507973   221.2495   5  13   0.8444   0.7397   0.5443   0.3510  -0.1302  -0.2221   0.00    0.0
2019/01/19 02:49:30.000   47.481013121   19.056575651   204.4741   5  12   1.0491   0.7447   0.5490   0.3908  -0.1357  -0.2620   0.00    0.0
2019/01/19 02:50:00.000   47.481013754   19.056573522   203.8206   5  12   1.0493   0.7474   0.5506   0.3940  -0.1377  -0.2648   0.00    0.0
2019/01/19 02:50:30.000   47.480961327   19.056506880   219.0349   5  13   0.8477   0.7478   0.5484   0.3608  -0.1359  -0.2280   0.00    0.0
2019/01/19 02:51:00.000   47.480960582   19.056505079   218.3993   5  13   0.8487   0.7505   0.5497   0.3640  -0.1379  -0.2299   0.00    0.0
2019/01/19 02:51:30.000   47.480959538   19.056503832   217.7672   5  13   0.8497   0.7532   0.5511   0.3672  -0.1398  -0.2318   0.00    0.0
2019/01/19 02:52:00.000   47.480957581   19.056503282   217.0603   5  13   0.8507   0.7558   0.5525   0.3703  -0.1417  -0.2337   0.00    0.0
2019/01/19 02:52:30.000   47.480954575   19.056503199   216.3804   5  13   0.8517   0.7585   0.5539   0.3735  -0.1437  -0.2356   0.00    0.0
2019/01/19 02:53:00.000   47.480951152   19.056503858   215.6293   5  13   0.8526   0.7611   0.5553   0.3766  -0.1456  -0.2375   0.00    0.0
2019/01/19 02:53:30.000   47.480949483   19.056501646   214.7920   5  13   0.8535   0.7637   0.5567   0.3796  -0.1475  -0.2394   0.00    0.0
2019/01/19 02:54:00.000   47.480947311   19.056500011   214.0776   5  13   0.8544   0.7663   0.5581   0.3826  -0.1495  -0.2413   0.00    0.0
2019/01/19 02:54:30.000   47.480945655   19.056498518   213.4000   5  13   0.8553   0.7689   0.5595   0.3856  -0.1514  -0.2432   0.00    0.0
2019/01/19 02:55:00.000   47.480943766   19.056497855   212.6970   5  13   0.8561   0.7715   0.5609   0.3886  -0.1533  -0.2451   0.00    0.0
2019/01/19 02:55:30.000   47.480942618   19.056498018   212.2684   5  13   0.8569   0.7740   0.5623   0.3915  -0.1553  -0.2469   0.00    0.0
2019/01/19 02:56:00.000   47.480940370   19.056498102   211.5943   5  13   0.8576   0.7766   0.5637   0.3943  -0.1572  -0.2488   0.00    0.0
2019/01/19 02:56:30.000   47.480938232   19.056497270   210.7377   5  13   0.8584   0.7791   0.5651   0.3972  -0.1591  -0.2506   0.00    0.0
2019/01/19 02:57:00.000   47.480936143   19.056495456   209.6238   5  13   0.8590   0.7815   0.5665   0.3999  -0.1610  -0.2524   0.00    0.0
2019/01/19 02:57:30.000   47.480933723   19.056494938   209.1220   5  13   0.8597   0.7840   0.5679   0.4026  -0.1629  -0.2542   0.00    0.0
2019/01/19 02:58:00.000   47.480932216   19.056495463   208.8332   5  13   0.8603   0.7864   0.5693   0.4053  -0.1648  -0.2560   0.00    0.0
2019/01/19 02:58:30.000   47.480930753   19.056496055   208.5164   5  13   0.8609   0.7888   0.5707   0.4079  -0.1667  -0.2578   0.00    0.0
2019/01/19 02:59:00.000   47.480930716   19.056495372   208.1926   5  13   0.8614   0.7912   0.5721   0.4104  -0.1686  -0.2595   0.00    0.0
2019/01/19 02:59:30.000   47.480930695   19.056496017   207.9327   5  13   0.8619   0.7935   0.5735   0.4129  -0.1704  -0.2612   0.00    0.0
2019/01/19 03:00:00.000   47.480930092   19.056497312   207.5354   5  13   0.8624   0.7958   0.5749   0.4153  -0.1723  -0.2629   0.00    0.0
2019/01/19 03:00:30.000   47.480929559   19.056498543   207.2166   5  13   0.8628   0.7981   0.5762   0.4177  -0.1741  -0.2646   0.00    0.0
2019/01/19 03:01:00.000   47.480929692   19.056500093   207.0817   5  13   0.8631   0.8003   0.5776   0.4200  -0.1759  -0.2662   0.00    0.0
2019/01/19 03:01:30.000   47.480929983   19.056499902   207.1814   5  13   0.8635   0.8025   0.5790   0.4222  -0.1777  -0.2678   0.00    0.0
2019/01/19 03:02:00.000   47.480930618   19.056498695   207.3604   5  13   0.8637   0.8047   0.5804   0.4243  -0.1795  -0.2694   0.00    0.0
2019/01/19 03:02:30.000   47.480930857   19.056498088   207.5347   5  13   0.8640   0.8068   0.5817   0.4264  -0.1813  -0.2710   0.00    0.0
2019/01/19 03:03:00.000   47.480930553   19.056497777   207.6518   5  13   0.8642   0.8088   0.5831   0.4284  -0.1830  -0.2725   0.00    0.0
2019/01/19 03:03:30.000   47.480929737   19.056497848   207.6580   5  13   0.8643   0.8109   0.5844   0.4303  -0.1847  -0.2740   0.00    0.0
2019/01/19 03:04:00.000   47.480929482   19.056496087   207.5202   5  13   0.8644   0.8129   0.5858   0.4322  -0.1864  -0.2755   0.00    0.0
2019/01/19 03:04:30.000   47.480928599   19.056494996   207.2005   5  13   0.8644   0.8148   0.5871   0.4339  -0.1881  -0.2770   0.00    0.0
2019/01/19 03:05:00.000   47.480927345   19.056494355   206.9375   5  13   0.8644   0.8167   0.5885   0.4356  -0.1897  -0.2784   0.00    0.0
2019/01/19 03:05:30.000   47.480925938   19.056492912   206.7567   5  13   0.8644   0.8186   0.5898   0.4372  -0.1913  -0.2797   0.00    0.0
2019/01/19 03:06:00.000   47.480926133   19.056491697   207.0238   5  13   0.8643   0.8204   0.5911   0.4387  -0.1929  -0.2811   0.00    0.0
2019/01/19 03:06:30.000   47.480927506   19.056490578   207.3447   5  13   0.8641   0.8221   0.5924   0.4401  -0.1944  -0.2824   0.00    0.0
2019/01/19 03:07:00.000   47.480928697   19.056490408   207.4806   5  13   0.8639   0.8238   0.5937   0.4415  -0.1959  -0.2836   0.00    0.0
2019/01/19 03:07:30.000   47.480928470   19.056492804   207.3454   5  13   0.8637   0.8255   0.5949   0.4427  -0.1974  -0.2848   0.00    0.0
2019/01/19 03:08:00.000   47.480926939   19.056493918   207.2714   5  13   0.8634   0.8271   0.5962   0.4438  -0.1988  -0.2860   0.00    0.0
2019/01/19 03:08:30.000   47.480920920   19.056465990   211.0234   5  12   0.9614   0.8390   0.5997   0.5006  -0.1934  -0.2651   0.00    0.0
2019/01/19 03:09:00.000   47.480920717   19.056465858   210.8978   5  12   0.9623   0.8410   0.6008   0.5034  -0.1948  -0.2667   0.00    0.0
2019/01/19 03:09:30.000   47.480921524   19.056462941   210.7941   5  12   0.9632   0.8430   0.6019   0.5061  -0.1962  -0.2683   0.00    0.0
2019/01/19 03:10:00.000   47.480920948   19.056461583   210.7091   5  12   0.9641   0.8449   0.6029   0.5087  -0.1975  -0.2698   0.00    0.0
2019/01/19 03:10:30.000   47.480920531   19.056462411   210.4896   5  12   0.9649   0.8468   0.6040   0.5113  -0.1988  -0.2713   0.00    0.0
2019/01/19 03:11:00.000   47.480920838   19.056463215   210.3423   5  12   0.9656   0.8486   0.6051   0.5137  -0.2001  -0.2728   0.00    0.0
2019/01/19 03:11:30.000   47.480921403   19.056463387   210.4498   5  12   0.9663   0.8504   0.6061   0.5160  -0.2013  -0.2742   0.00    0.0
2019/01/19 03:12:00.000   47.480921190   19.056463732   210.2636   5  12   0.9669   0.8521   0.6071   0.5183  -0.2025  -0.2756   0.00    0.0
2019/01/19 03:12:30.000   47.480920478   19.056464355   210.0454   5  12   0.9674   0.8538   0.6082   0.5204  -0.2037  -0.2769   0.00    0.0
2019/01/19 03:13:00.000   47.480919083   19.056465182   209.9513   5  12   0.9679   0.8554   0.6092   0.5224  -0.2048  -0.2782   0.00    0.0
2019/01/19 03:13:30.000   47.480918271   19.056467372   209.8899   5  12   0.9683   0.8570   0.6102   0.5243  -0.2059  -0.2795   0.00    0.0
2019/01/19 03:14:00.000   47.480917663   19.056468475   210.0999   5  12   0.9687   0.8585   0.6112   0.5261  -0.2070  -0.2807   0.00    0.0
2019/01/19 03:14:30.000   47.480917098   19.056468724   210.0616   5  12   0.9690   0.8599   0.6121   0.5278  -0.2080  -0.2818   0.00    0.0
2019/01/19 03:15:00.000   47.480916113   19.056469316   209.9255   5  12   0.9692   0.8613   0.6131   0.5293  -0.2090  -0.2829   0.00    0.0
2019/01/19 03:15:30.000   47.480914785   19.056469281   209.7211   5  12   0.9694   0.8626   0.6140   0.5308  -0.2099  -0.2840   0.00    0.0
2019/01/19 03:16:00.000   47.480913949   19.056469578   209.5825   5  12   0.9695   0.8639   0.6149   0.5321  -0.2108  -0.2850   0.00    0.0
2019/01/19 03:16:30.000   47.480913671   19.056470039   209.1473   5  12   0.9695   0.8651   0.6159   0.5333  -0.2116  -0.2860   0.00    0.0
2019/01/19 03:17:00.000   47.480914303   19.056468493   208.7873   5  12   0.9694   0.8662   0.6167   0.5344  -0.2124  -0.2869   0.00    0.0
2019/01/19 03:17:30.000   47.480914709   19.056468021   208.5562   5  12   0.9693   0.8673   0.6176   0.5354  -0.2131  -0.2877   0.00    0.0
2019/01/19 03:18:00.000   47.480914142   19.056470041   208.3735   5  12   0.9691   0.8683   0.6185   0.5362  -0.2138  -0.2885   0.00    0.0
2019/01/19 03:18:30.000   47.480913320   19.056472011   208.4479   5  12   0.9689   0.8692   0.6193   0.5369  -0.2145  -0.2893   0.00    0.0
2019/01/19 03:19:00.000   47.480912598   19.056473089   208.6573   5  12   0.9685   0.8701   0.6201   0.5375  -0.2151  -0.2899   0.00    0.0
2019/01/19 03:19:30.000   47.480913708   19.056473247   208.9212   5  12   0.9682   0.8709   0.6210   0.5379  -0.2156  -0.2906   0.00    0.0
2019/01/19 03:20:00.000   47.480913721   19.056472578   209.2656   5  12   0.9677   0.8717   0.6217   0.5383  -0.2161  -0.2912   0.00    0.0
2019/01/19 03:20:30.000   47.480913052   19.056472482   209.6301   5  12   0.9671   0.8723   0.6225   0.5385  -0.2166  -0.2917   0.00    0.0
2019/01/19 03:21:00.000   47.480911935   19.056472859   209.5856   5  12   0.9665   0.8729   0.6233   0.5385  -0.2170  -0.2921   0.00    0.0
2019/01/19 03:21:30.000   47.480910392   19.056473500   209.5268   5  12   0.9659   0.8735   0.6240   0.5385  -0.2173  -0.2925   0.00    0.0
2019/01/19 03:22:00.000   47.480907710   19.056472172   210.0496   5  12   0.9651   0.8739   0.6247   0.5383  -0.2176  -0.2929   0.00    0.0
2019/01/19 03:22:30.000   47.480908183   19.056474356   209.8168   5  12   0.9643   0.8743   0.6254   0.5380  -0.2178  -0.2932   0.00    0.0
2019/01/19 03:23:00.000   47.480907224   19.056474766   209.7355   5  12   0.9634   0.8747   0.6261   0.5375  -0.2180  -0.2934   0.00    0.0
2019/01/19 03:23:30.000   47.480906102   19.056473644   209.3727   5  12   0.9625   0.8750   0.6267   0.5370  -0.2181  -0.2936   0.00    0.0
2019/01/19 03:24:00.000   47.480905504   19.056472859   209.4128   5  12   0.9615   0.8751   0.6274   0.5363  -0.2182  -0.2937   0.00    0.0
2019/01/19 03:24:30.000   47.480905225   19.056472116   209.7792   5  12   0.9604   0.8753   0.6280   0.5354  -0.2182  -0.2938   0.00    0.0
2019/01/19 03:25:00.000   47.480904605   19.056471844   210.2278   5  12   0.9592   0.8753   0.6286   0.5345  -0.2181  -0.2938   0.00    0.0
2019/01/19 03:25:30.000   47.480903713   19.056472492   210.6373   5  12   0.9580   0.8753   0.6291   0.5334  -0.2180  -0.2937   0.00    0.0
2019/01/19 03:26:00.000   47.480903910   19.056472980   210.9173   5  12   0.9567   0.8753   0.6297   0.5322  -0.2179  -0.2936   0.00    0.0
2019/01/19 03:26:30.000   47.480904281   19.056472493   210.8366   5  12   0.9554   0.8751   0.6302   0.5309  -0.2177  -0.2934   0.00    0.0
2019/01/19 03:27:00.000   47.480902780   19.056473240   211.0243   5  12   0.9539   0.8749   0.6307   0.5295  -0.2174  -0.2932   0.00    0.0
2019/01/19 03:27:30.000   47.480901556   19.056473805   211.2258   5  12   0.9525   0.8746   0.6312   0.5279  -0.2171  -0.2929   0.00    0.0
2019/01/19 03:28:00.000   47.480899964   19.056476077   211.6741   5  12   0.9509   0.8743   0.6317   0.5262  -0.2167  -0.2926   0.00    0.0
2019/01/19 03:28:30.000   47.480898583   19.056478716   212.1003   5  12   0.9493   0.8739   0.6321   0.5245  -0.2163  -0.2922   0.00    0.0
2019/01/19 03:29:00.000   47.480898023   19.056479122   212.3773   5  12   0.9477   0.8734   0.6326   0.5226  -0.2158  -0.2918   0.00    0.0
2019/01/19 03:29:30.000   47.480897588   19.056477169   212.5691   5  12   0.9459   0.8729   0.6330   0.5206  -0.2153  -0.2913   0.00    0.0
