% program   : GINA 1.0
% inp file  : C:\Users\lus2bp\Source\Repos\GINA\70_EGNOS_Project\files\PositionComparisonInputFiles\bute0190\bute0190.19o
% inp file  : C:\Users\lus2bp\Source\Repos\GINA\70_EGNOS_Project\files\PositionComparisonInputFiles\bute0190\brdc0190.19n
% obs start : 2019/01/19 00:00:00.0 GPST (week2036 518400.0s)
% obs end   : 2019/01/19 23:59:30.0 GPST (week2036 604770.0s)
% pos mode  : single
% elev mask : 25.0 deg
% ionos opt : ems
% tropo opt : Neill
% ephemeris : broadcasted
% (lat/lon/height=WGS84/ellipsoidal,Q=1:fix,2:float,3:sbas,4:dgps,5:single,6:ppp,ns=# of satellites)
%  GPST                  latitude(deg) longitude(deg)  height(m)   Q  ns   sdn(m)   sde(m)   sdu(m)  sdne(m)  sdeu(m)  sdun(m) age(s)  ratio
2019/01/19 00:00:00.000   47.480955280   19.056545195   198.9670   5   6   4.4268   2.0334   1.9175   7.6338  -3.0369  -7.0509   0.00    0.0
2019/01/19 00:00:30.000   47.480955937   19.056546024   200.5771   5   6   4.4688   2.0554   1.9386   7.8207  -3.1162  -7.2328   0.00    0.0
2019/01/19 00:01:00.000   47.480958085   19.056548332   200.5931   5   6   4.5099   2.0768   1.9595   8.0053  -3.1950  -7.4139   0.00    0.0
2019/01/19 00:01:30.000   47.480959007   19.056551179   199.9450   5   6   4.5500   2.0976   1.9802   8.1868  -3.2729  -7.5932   0.00    0.0
2019/01/19 00:02:00.000   47.480960524   19.056550196   199.0373   5   6   4.5888   2.1179   2.0005   8.3641  -3.3496  -7.7700   0.00    0.0
2019/01/19 00:02:30.000   47.480961733   19.056548060   199.5865   5   6   4.6263   2.1373   2.0203   8.5364  -3.4247  -7.9435   0.00    0.0
2019/01/19 00:03:00.000   47.480960675   19.056545481   201.4549   5   6   4.6621   2.1560   2.0397   8.7025  -3.4976  -8.1127   0.00    0.0
2019/01/19 00:03:30.000   47.480959616   19.056544644   203.3876   5   6   4.6961   2.1736   2.0585   8.8614  -3.5680  -8.2767   0.00    0.0
2019/01/19 00:04:00.000   47.480958573   19.056545166   204.4374   5   6   4.7281   2.1903   2.0767   9.0120  -3.6354  -8.4346   0.00    0.0
2019/01/19 00:04:30.000   47.480958341   19.056546282   204.0816   5   6   4.7580   2.2058   2.0941   9.1533  -3.6994  -8.5854   0.00    0.0
2019/01/19 00:05:00.000   47.480957661   19.056546657   202.9472   5   6   4.7854   2.2201   2.1107   9.2840  -3.7594  -8.7281   0.00    0.0
2019/01/19 00:05:30.000   47.480956345   19.056548774   202.3001   5   6   4.8102   2.2331   2.1264   9.4033  -3.8149  -8.8618   0.00    0.0
2019/01/19 00:06:00.000   47.480956506   19.056550638   201.2058   5   6   4.8323   2.2447   2.1411   9.5101  -3.8656  -8.9856   0.00    0.0
2019/01/19 00:06:30.000   47.480957064   19.056551718   200.0694   5   6   4.8514   2.2548   2.1548   9.6035  -3.9111  -9.0985   0.00    0.0
2019/01/19 00:07:00.000   47.480957984   19.056551729   199.6248   5   6   4.8675   2.2633   2.1673   9.6826  -3.9508  -9.1997   0.00    0.0
2019/01/19 00:07:30.000   47.480959302   19.056549181   199.6570   5   6   4.8804   2.2703   2.1787   9.7467  -3.9845  -9.2886   0.00    0.0
2019/01/19 00:08:00.000   47.480959610   19.056546675   200.0983   5   6   4.8901   2.2756   2.1888   9.7953  -4.0118  -9.3644   0.00    0.0
2019/01/19 00:08:30.000   47.480958656   19.056545002   200.9932   5   6   4.8963   2.2792   2.1977   9.8278  -4.0326  -9.4267   0.00    0.0
2019/01/19 00:09:00.000   47.480957888   19.056543189   201.5656   5   6   4.8991   2.2811   2.2053   9.8438  -4.0466  -9.4750   0.00    0.0
2019/01/19 00:09:30.000   47.480957593   19.056543953   201.7219   5   6   4.8984   2.2813   2.2116   9.8432  -4.0537  -9.5092   0.00    0.0
2019/01/19 00:10:00.000   47.480957591   19.056546112   201.4935   5   6   4.8942   2.2797   2.2165   9.8260  -4.0538  -9.5291   0.00    0.0
2019/01/19 00:10:30.000   47.480959577   19.056545813   200.4832   5   6   4.8866   2.2764   2.2202   9.7922  -4.0468  -9.5346   0.00    0.0
2019/01/19 00:11:00.000   47.480960997   19.056545847   199.4057   5   6   4.8756   2.2714   2.2224   9.7422  -4.0330  -9.5259   0.00    0.0
2019/01/19 00:11:30.000   47.480960963   19.056547349   199.0104   5   6   4.8612   2.2647   2.2234   9.6764  -4.0123  -9.5032   0.00    0.0
2019/01/19 00:12:00.000   47.480960462   19.056550808   199.3593   5   6   4.8435   2.2564   2.2231   9.5954  -3.9851  -9.4671   0.00    0.0
2019/01/19 00:12:30.000   47.480959861   19.056552860   199.4681   5   6   4.8227   2.2466   2.2216   9.4999  -3.9514  -9.4179   0.00    0.0
2019/01/19 00:13:00.000   47.480960683   19.056553173   198.5131   5   6   4.7989   2.2352   2.2189   9.3906  -3.9117  -9.3563   0.00    0.0
2019/01/19 00:13:30.000   47.480961048   19.056555038   197.5656   5   6   4.7723   2.2225   2.2150   9.2686  -3.8663  -9.2830   0.00    0.0
2019/01/19 00:14:00.000   47.480961284   19.056557654   197.3900   5   6   4.7429   2.2083   2.2101   9.1347  -3.8155  -9.1988   0.00    0.0
2019/01/19 00:14:30.000   47.480962192   19.056559207   197.2195   5   6   4.7110   2.1930   2.2041   8.9901  -3.7598  -9.1046   0.00    0.0
2019/01/19 00:15:00.000   47.480962783   19.056559925   196.5745   5   6   4.6769   2.1764   2.1973   8.8358  -3.6995  -9.0011   0.00    0.0
2019/01/19 00:15:30.000   47.480961842   19.056559911   196.2877   5   6   4.6406   2.1589   2.1895   8.6729  -3.6352  -8.8895   0.00    0.0
2019/01/19 00:16:00.000   47.480961857   19.056560174   195.8962   5   6   4.6023   2.1403   2.1810   8.5025  -3.5672  -8.7705   0.00    0.0
2019/01/19 00:16:30.000   47.480961478   19.056559890   195.4742   5   6   4.5623   2.1209   2.1718   8.3257  -3.4960  -8.6451   0.00    0.0
2019/01/19 00:17:00.000   47.480960241   19.056560232   194.6923   5   6   4.5208   2.1008   2.1620   8.1435  -3.4220  -8.5143   0.00    0.0
2019/01/19 00:17:30.000   47.480959405   19.056559960   194.1184   5   6   4.4780   2.0799   2.1516   7.9570  -3.3458  -8.3789   0.00    0.0
2019/01/19 00:18:00.000   47.480958846   19.056561136   193.8357   5   6   4.4340   2.0585   2.1407   7.7672  -3.2676  -8.2398   0.00    0.0
2019/01/19 00:18:30.000   47.480957965   19.056563765   193.7366   5   6   4.3890   2.0366   2.1295   7.5749  -3.1879  -8.0979   0.00    0.0
2019/01/19 00:19:00.000   47.480956797   19.056563517   193.4111   5   6   4.3432   2.0143   2.1179   7.3810  -3.1070  -7.9538   0.00    0.0
2019/01/19 00:19:30.000   47.480955889   19.056562196   193.3562   5   6   4.2969   1.9917   2.1061   7.1863  -3.0253  -7.8083   0.00    0.0
2019/01/19 00:20:00.000   47.480955792   19.056560227   193.2130   5   6   4.2500   1.9688   2.0941   6.9916  -2.9431  -7.6621   0.00    0.0
2019/01/19 00:20:30.000   47.480956695   19.056558875   192.4159   5   6   4.2029   1.9458   2.0819   6.7975  -2.8607  -7.5158   0.00    0.0
2019/01/19 00:21:00.000   47.480957265   19.056558297   191.4695   5   6   4.1555   1.9227   2.0698   6.6046  -2.7783  -7.3699   0.00    0.0
2019/01/19 00:21:30.000   47.480957097   19.056558165   190.8238   5   6   4.1081   1.8996   2.0575   6.4134  -2.6962  -7.2251   0.00    0.0
2019/01/19 00:22:00.000   47.480957063   19.056556832   190.6112   5   6   4.0608   1.8765   2.0454   6.2243  -2.6146  -7.0815   0.00    0.0
2019/01/19 00:22:30.000   47.480956528   19.056556918   190.9360   5   6   4.0136   1.8535   2.0333   6.0379  -2.5337  -6.9398   0.00    0.0
2019/01/19 00:23:00.000   47.480955817   19.056555787   191.8504   5   6   3.9667   1.8306   2.0213   5.8544  -2.4536  -6.8003   0.00    0.0
2019/01/19 00:23:30.000   47.480955182   19.056554745   192.2018   5   6   3.9202   1.8079   2.0095   5.6741  -2.3745  -6.6631   0.00    0.0
2019/01/19 00:24:00.000   47.480955269   19.056555399   191.8105   5   6   3.8741   1.7853   1.9979   5.4972  -2.2965  -6.5287   0.00    0.0
2019/01/19 00:24:30.000   47.480955531   19.056556865   190.7375   5   6   3.8284   1.7631   1.9866   5.3239  -2.2197  -6.3972   0.00    0.0
2019/01/19 00:25:00.000   47.480955409   19.056558923   190.1752   5   6   3.7834   1.7411   1.9755   5.1545  -2.1442  -6.2688   0.00    0.0
2019/01/19 00:25:30.000   47.480955274   19.056560840   190.1527   5   6   3.7390   1.7195   1.9647   4.9890  -2.0700  -6.1436   0.00    0.0
2019/01/19 00:26:00.000   47.480957423   19.056558023   188.4453   5   7   2.4529   1.5591   0.9835   2.9679  -0.8610  -1.3550   0.00    0.0
2019/01/19 00:26:30.000   47.480957344   19.056557140   187.6173   5   7   2.4449   1.5505   0.9847   2.9358  -0.8543  -1.3560   0.00    0.0
2019/01/19 00:27:00.000   47.480956977   19.056555381   187.1576   5   7   2.4366   1.5417   0.9858   2.9025  -0.8473  -1.3565   0.00    0.0
2019/01/19 00:27:30.000   47.480956664   19.056553860   187.4558   5   7   2.4279   1.5326   0.9869   2.8682  -0.8399  -1.3564   0.00    0.0
2019/01/19 00:28:00.000   47.480957674   19.056552435   187.2986   5   7   2.4190   1.5233   0.9879   2.8329  -0.8322  -1.3559   0.00    0.0
2019/01/19 00:28:30.000   47.480958082   19.056551438   187.2243   5   7   2.4097   1.5137   0.9889   2.7967  -0.8241  -1.3550   0.00    0.0
2019/01/19 00:29:00.000   47.480958931   19.056550256   186.8131   5   7   2.4002   1.5039   0.9898   2.7597  -0.8157  -1.3536   0.00    0.0
2019/01/19 00:29:30.000   47.480960210   19.056551689   186.4938   5   7   2.3904   1.4940   0.9907   2.7219  -0.8071  -1.3518   0.00    0.0
2019/01/19 00:30:00.000   47.480961017   19.056553045   186.2788   5   7   2.3804   1.4839   0.9916   2.6836  -0.7982  -1.3497   0.00    0.0
2019/01/19 00:30:30.000   47.480959642   19.056553886   186.6208   5   7   2.3702   1.4736   0.9924   2.6447  -0.7890  -1.3473   0.00    0.0
2019/01/19 00:31:00.000   47.480957359   19.056555587   187.0537   5   7   2.3599   1.4632   0.9932   2.6054  -0.7796  -1.3445   0.00    0.0
2019/01/19 00:31:30.000   47.480958354   19.056553342   186.4034   5   7   2.3493   1.4527   0.9940   2.5657  -0.7700  -1.3414   0.00    0.0
2019/01/19 00:32:00.000   47.480956614   19.056553937   186.1014   5   7   2.3386   1.4420   0.9948   2.5256  -0.7602  -1.3381   0.00    0.0
2019/01/19 00:32:30.000   47.480953454   19.056555764   185.9279   5   7   2.3278   1.4313   0.9956   2.4853  -0.7502  -1.3346   0.00    0.0
2019/01/19 00:33:00.000   47.480950844   19.056557102   186.0186   5   7   2.3169   1.4205   0.9963   2.4449  -0.7401  -1.3309   0.00    0.0
2019/01/19 00:33:30.000   47.480949664   19.056557837   186.4919   5   7   2.3059   1.4097   0.9971   2.4043  -0.7298  -1.3270   0.00    0.0
2019/01/19 00:34:00.000   47.480949493   19.056557788   186.9218   5   7   2.2948   1.3988   0.9978   2.3636  -0.7194  -1.3230   0.00    0.0
2019/01/19 00:34:30.000   47.480950884   19.056555760   186.6899   5   7   2.2836   1.3879   0.9985   2.3230  -0.7090  -1.3189   0.00    0.0
2019/01/19 00:35:00.000   47.480950799   19.056554038   187.1680   5   7   2.2724   1.3769   0.9993   2.2824  -0.6984  -1.3146   0.00    0.0
2019/01/19 00:35:30.000   47.480950219   19.056552854   187.1974   5   7   2.2612   1.3659   1.0000   2.2419  -0.6877  -1.3103   0.00    0.0
2019/01/19 00:36:00.000   47.480949582   19.056551367   186.9467   5   7   2.2500   1.3550   1.0007   2.2015  -0.6770  -1.3059   0.00    0.0
2019/01/19 00:36:30.000   47.480949183   19.056549716   186.7495   5   7   2.2388   1.3440   1.0015   2.1613  -0.6663  -1.3015   0.00    0.0
2019/01/19 00:37:00.000   47.480948465   19.056548401   186.8208   5   7   2.2276   1.3331   1.0023   2.1213  -0.6555  -1.2970   0.00    0.0
2019/01/19 00:37:30.000   47.480948009   19.056547779   186.9039   5   7   2.2164   1.3222   1.0031   2.0816  -0.6446  -1.2926   0.00    0.0
2019/01/19 00:38:00.000   47.480947455   19.056550078   187.2102   5   7   2.2052   1.3113   1.0039   2.0422  -0.6338  -1.2882   0.00    0.0
2019/01/19 00:38:30.000   47.480948522   19.056551919   187.2835   5   7   2.1941   1.3005   1.0047   2.0031  -0.6229  -1.2838   0.00    0.0
2019/01/19 00:39:00.000   47.480948629   19.056552452   187.2249   5   7   2.1831   1.2897   1.0056   1.9643  -0.6121  -1.2795   0.00    0.0
2019/01/19 00:39:30.000   47.480947623   19.056552035   187.0346   5   7   2.1721   1.2790   1.0065   1.9259  -0.6013  -1.2752   0.00    0.0
2019/01/19 00:40:00.000   47.480948538   19.056550640   186.4835   5   7   2.1613   1.2684   1.0074   1.8879  -0.5904  -1.2710   0.00    0.0
2019/01/19 00:40:30.000   47.480948526   19.056551637   186.4440   5   7   2.1504   1.2578   1.0083   1.8503  -0.5796  -1.2669   0.00    0.0
2019/01/19 00:41:00.000   47.480948200   19.056555529   186.4326   5   7   2.1397   1.2473   1.0093   1.8131  -0.5689  -1.2629   0.00    0.0
2019/01/19 00:41:30.000   47.480949153   19.056557321   185.5743   5   7   2.1291   1.2369   1.0104   1.7764  -0.5581  -1.2590   0.00    0.0
2019/01/19 00:42:00.000   47.480947094   19.056558942   185.3705   5   7   2.1186   1.2266   1.0114   1.7401  -0.5474  -1.2553   0.00    0.0
2019/01/19 00:42:30.000   47.480945112   19.056558856   185.6227   5   7   2.1082   1.2164   1.0125   1.7043  -0.5368  -1.2516   0.00    0.0
2019/01/19 00:43:00.000   47.480945660   19.056557249   185.9406   5   7   2.0980   1.2063   1.0137   1.6689  -0.5262  -1.2481   0.00    0.0
2019/01/19 00:43:30.000   47.480948610   19.056556466   186.6178   5   7   2.0878   1.1963   1.0149   1.6340  -0.5156  -1.2448   0.00    0.0
2019/01/19 00:44:00.000   47.480951599   19.056554868   186.4187   5   7   2.0778   1.1864   1.0161   1.5996  -0.5051  -1.2416   0.00    0.0
2019/01/19 00:44:30.000   47.480953154   19.056552807   185.8739   5   7   2.0680   1.1766   1.0174   1.5657  -0.4947  -1.2386   0.00    0.0
2019/01/19 00:45:00.000   47.480951633   19.056553962   185.8626   5   7   2.0582   1.1669   1.0187   1.5323  -0.4843  -1.2357   0.00    0.0
2019/01/19 00:45:30.000   47.480950725   19.056556054   185.8432   5   7   2.0486   1.1574   1.0201   1.4993  -0.4740  -1.2330   0.00    0.0
2019/01/19 00:46:00.000   47.480951080   19.056557017   185.9267   5   7   2.0392   1.1479   1.0216   1.4669  -0.4637  -1.2305   0.00    0.0
2019/01/19 00:46:30.000   47.480950934   19.056558238   185.8621   5   7   2.0299   1.1386   1.0230   1.4349  -0.4535  -1.2282   0.00    0.0
2019/01/19 00:47:00.000   47.480951144   19.056556499   185.7616   5   7   2.0207   1.1294   1.0246   1.4034  -0.4434  -1.2261   0.00    0.0
2019/01/19 00:47:30.000   47.480949966   19.056556467   186.1479   5   7   2.0117   1.1204   1.0262   1.3724  -0.4333  -1.2241   0.00    0.0
2019/01/19 00:48:00.000   47.480949938   19.056556941   186.1444   5   7   2.0029   1.1114   1.0278   1.3419  -0.4233  -1.2224   0.00    0.0
2019/01/19 00:48:30.000   47.480951371   19.056555722   185.9071   5   7   1.9942   1.1026   1.0296   1.3119  -0.4133  -1.2209   0.00    0.0
2019/01/19 00:49:00.000   47.480951593   19.056554700   185.7279   5   7   1.9857   1.0939   1.0313   1.2823  -0.4034  -1.2195   0.00    0.0
2019/01/19 00:49:30.000   47.480951537   19.056555021   185.6258   5   7   1.9773   1.0854   1.0332   1.2532  -0.3936  -1.2184   0.00    0.0
2019/01/19 00:50:00.000   47.480950231   19.056555776   185.4218   5   7   1.9691   1.0769   1.0351   1.2245  -0.3838  -1.2175   0.00    0.0
2019/01/19 00:50:30.000   47.480949402   19.056557218   185.4414   5   7   1.9610   1.0686   1.0370   1.1963  -0.3741  -1.2168   0.00    0.0
2019/01/19 00:51:00.000   47.480949649   19.056557716   185.2504   5   7   1.9531   1.0605   1.0390   1.1686  -0.3645  -1.2163   0.00    0.0
2019/01/19 00:51:30.000   47.480949177   19.056557956   185.1806   5   7   1.9454   1.0524   1.0411   1.1413  -0.3549  -1.2160   0.00    0.0
2019/01/19 00:52:00.000   47.480946789   19.056559877   185.3320   5   7   1.9378   1.0446   1.0432   1.1144  -0.3453  -1.2160   0.00    0.0
2019/01/19 00:52:30.000   47.480945747   19.056560705   185.2132   5   7   1.9304   1.0368   1.0455   1.0880  -0.3359  -1.2162   0.00    0.0
2019/01/19 00:53:00.000   47.480918327   19.056558832   177.9946   5   6   2.3045   1.8784   1.2575   3.0571  -1.4190  -2.0994   0.00    0.0
2019/01/19 00:53:30.000   47.480920478   19.056560154   178.0404   5   6   2.2900   1.8610   1.2564   2.9870  -1.3902  -2.0824   0.00    0.0
2019/01/19 00:54:00.000   47.480923446   19.056561556   178.3134   5   6   2.2758   1.8437   1.2555   2.9180  -1.3617  -2.0659   0.00    0.0
2019/01/19 00:54:30.000   47.480926355   19.056563514   178.7137   5   6   2.2617   1.8266   1.2547   2.8502  -1.3334  -2.0498   0.00    0.0
2019/01/19 00:55:00.000   47.480927673   19.056565280   178.9499   5   6   2.2479   1.8097   1.2539   2.7836  -1.3055  -2.0341   0.00    0.0
2019/01/19 00:55:30.000   47.480925922   19.056564113   178.5448   5   6   2.2343   1.7929   1.2532   2.7180  -1.2778  -2.0190   0.00    0.0
2019/01/19 00:56:00.000   47.480922254   19.056562461   178.0418   5   6   2.2210   1.7763   1.2527   2.6537  -1.2504  -2.0043   0.00    0.0
2019/01/19 00:56:30.000   47.480917858   19.056560550   177.5709   5   6   2.2079   1.7600   1.2522   2.5906  -1.2234  -1.9901   0.00    0.0
2019/01/19 00:57:00.000   47.480916946   19.056559810   177.2463   5   6   2.1951   1.7437   1.2518   2.5286  -1.1966  -1.9765   0.00    0.0
2019/01/19 00:57:30.000   47.480918895   19.056559419   176.7951   5   6   2.1825   1.7277   1.2515   2.4677  -1.1702  -1.9633   0.00    0.0
2019/01/19 00:58:00.000   47.480920557   19.056559279   176.4251   5   6   2.1701   1.7119   1.2513   2.4081  -1.1441  -1.9507   0.00    0.0
2019/01/19 00:58:30.000   47.480920979   19.056560408   176.3221   5   6   2.1581   1.6963   1.2513   2.3495  -1.1183  -1.9386   0.00    0.0
2019/01/19 00:59:00.000   47.480922303   19.056560948   176.5817   5   6   2.1463   1.6810   1.2513   2.2922  -1.0929  -1.9270   0.00    0.0
2019/01/19 00:59:30.000   47.480925571   19.056560445   176.9356   5   6   2.1347   1.6658   1.2515   2.2359  -1.0678  -1.9160   0.00    0.0
2019/01/19 01:00:00.000   47.480929883   19.056562026   177.6925   5   6   2.1235   1.6508   1.2518   2.1808  -1.0430  -1.9055   0.00    0.0
2019/01/19 01:00:30.000   47.480933465   19.056562729   178.2876   5   6   2.1125   1.6361   1.2522   2.1267  -1.0185  -1.8955   0.00    0.0
2019/01/19 01:01:00.000   47.480935966   19.056562994   178.5573   5   6   2.1017   1.6216   1.2527   2.0738  -0.9943  -1.8861   0.00    0.0
2019/01/19 01:01:30.000   47.480936725   19.056563245   178.5306   5   6   2.0912   1.6073   1.2533   2.0219  -0.9705  -1.8771   0.00    0.0
2019/01/19 01:02:00.000   47.480935747   19.056562942   178.2849   5   6   2.0810   1.5932   1.2540   1.9711  -0.9470  -1.8688   0.00    0.0
2019/01/19 01:02:30.000   47.480932159   19.056562389   178.0060   5   6   2.0710   1.5794   1.2549   1.9213  -0.9238  -1.8609   0.00    0.0
2019/01/19 01:03:00.000   47.480928820   19.056559177   177.6113   5   6   2.0613   1.5658   1.2559   1.8725  -0.9009  -1.8536   0.00    0.0
2019/01/19 01:03:30.000   47.480926763   19.056559714   177.6661   5   6   2.0519   1.5524   1.2570   1.8247  -0.8783  -1.8468   0.00    0.0
2019/01/19 01:04:00.000   47.480927062   19.056558769   177.9109   5   6   2.0427   1.5393   1.2583   1.7779  -0.8560  -1.8405   0.00    0.0
2019/01/19 01:04:30.000   47.480925717   19.056557195   178.1371   5   6   2.0338   1.5263   1.2596   1.7320  -0.8340  -1.8347   0.00    0.0
2019/01/19 01:05:00.000   47.480923297   19.056557453   178.5240   5   6   2.0251   1.5136   1.2611   1.6870  -0.8122  -1.8295   0.00    0.0
2019/01/19 01:05:30.000   47.480923246   19.056556841   178.6945   5   6   2.0167   1.5011   1.2627   1.6430  -0.7907  -1.8247   0.00    0.0
2019/01/19 01:06:00.000   47.480925404   19.056555822   178.8143   5   6   2.0085   1.4889   1.2645   1.5998  -0.7695  -1.8205   0.00    0.0
2019/01/19 01:06:30.000   47.480926513   19.056555828   178.9375   5   6   2.0005   1.4768   1.2664   1.5574  -0.7485  -1.8168   0.00    0.0
2019/01/19 01:07:00.000   47.480927658   19.056556362   179.2222   5   6   1.9928   1.4650   1.2684   1.5159  -0.7278  -1.8135   0.00    0.0
2019/01/19 01:07:30.000   47.480928328   19.056557248   179.4924   5   6   1.9854   1.4534   1.2705   1.4752  -0.7073  -1.8108   0.00    0.0
2019/01/19 01:08:00.000   47.480927987   19.056558338   179.4615   5   6   1.9782   1.4420   1.2727   1.4353  -0.6871  -1.8086   0.00    0.0
2019/01/19 01:08:30.000   47.480927342   19.056558452   179.1018   5   6   1.9712   1.4309   1.2751   1.3962  -0.6671  -1.8068   0.00    0.0
2019/01/19 01:09:00.000   47.480928614   19.056558047   178.9718   5   6   1.9645   1.4199   1.2776   1.3578  -0.6473  -1.8055   0.00    0.0
2019/01/19 01:09:30.000   47.480929538   19.056557863   178.8467   5   6   1.9579   1.4092   1.2802   1.3201  -0.6277  -1.8047   0.00    0.0
2019/01/19 01:10:00.000   47.480929020   19.056557097   178.6875   5   6   1.9516   1.3986   1.2830   1.2832  -0.6083  -1.8044   0.00    0.0
2019/01/19 01:10:30.000   47.480928411   19.056557148   178.5553   5   6   1.9456   1.3883   1.2859   1.2469  -0.5891  -1.8045   0.00    0.0
2019/01/19 01:11:00.000   47.480926578   19.056558497   178.5327   5   6   1.9397   1.3782   1.2889   1.2113  -0.5701  -1.8051   0.00    0.0
2019/01/19 01:11:30.000   47.480923416   19.056559066   178.4130   5   6   1.9341   1.3683   1.2921   1.1763  -0.5512  -1.8062   0.00    0.0
2019/01/19 01:12:00.000   47.480922312   19.056557524   177.8825   5   6   1.9286   1.3586   1.2953   1.1419  -0.5325  -1.8077   0.00    0.0
2019/01/19 01:12:30.000   47.480920622   19.056556874   177.4716   5   6   1.9234   1.3491   1.2987   1.1082  -0.5140  -1.8096   0.00    0.0
2019/01/19 01:13:00.000   47.480920548   19.056556220   177.3119   5   6   1.9184   1.3398   1.3022   1.0750  -0.4957  -1.8120   0.00    0.0
2019/01/19 01:13:30.000   47.480922483   19.056555673   177.4511   5   6   1.9136   1.3307   1.3059   1.0424  -0.4774  -1.8149   0.00    0.0
2019/01/19 01:14:00.000   47.480924181   19.056556872   178.0205   5   6   1.9090   1.3218   1.3097   1.0103  -0.4594  -1.8182   0.00    0.0
2019/01/19 01:14:30.000   47.480926722   19.056556724   178.1869   5   6   1.9046   1.3131   1.3136   0.9788  -0.4414  -1.8219   0.00    0.0
2019/01/19 01:15:00.000   47.480928864   19.056555394   178.0000   5   6   1.9003   1.3046   1.3176   0.9477  -0.4236  -1.8260   0.00    0.0
2019/01/19 01:15:30.000   47.480928696   19.056555235   177.8600   5   6   1.8963   1.2963   1.3217   0.9172  -0.4058  -1.8306   0.00    0.0
2019/01/19 01:16:00.000   47.480927022   19.056555548   177.6558   5   6   1.8924   1.2882   1.3260   0.8872  -0.3882  -1.8356   0.00    0.0
2019/01/19 01:16:30.000   47.480925488   19.056554701   177.4781   5   6   1.8888   1.2802   1.3304   0.8576  -0.3707  -1.8410   0.00    0.0
2019/01/19 01:17:00.000   47.480925624   19.056554579   177.4892   5   6   1.8853   1.2725   1.3349   0.8285  -0.3533  -1.8468   0.00    0.0
2019/01/19 01:17:30.000   47.480925761   19.056554645   177.4492   5   6   1.8820   1.2649   1.3396   0.7998  -0.3360  -1.8530   0.00    0.0
2019/01/19 01:18:00.000   47.480933754   19.056579055   171.2444   5   5   3.5823   1.5308   1.3796   3.4341  -0.5893  -2.8051   0.00    0.0
2019/01/19 01:18:30.000   47.480935175   19.056577590   171.1506   5   5   3.5584   1.5172   1.3842   3.3424  -0.5674  -2.8021   0.00    0.0
2019/01/19 01:19:00.000   47.480936702   19.056577130   171.0375   5   5   3.5347   1.5039   1.3890   3.2524  -0.5455  -2.7993   0.00    0.0
2019/01/19 01:19:30.000   47.480939289   19.056575842   170.9747   5   5   3.5113   1.4908   1.3938   3.1641  -0.5237  -2.7968   0.00    0.0
2019/01/19 01:20:00.000   47.480939594   19.056576530   171.5111   5   5   3.4880   1.4781   1.3987   3.0776  -0.5021  -2.7946   0.00    0.0
2019/01/19 01:20:30.000   47.480938765   19.056576703   172.2692   5   5   3.4649   1.4656   1.4038   2.9928  -0.4804  -2.7925   0.00    0.0
2019/01/19 01:21:00.000   47.480939042   19.056579105   172.6297   5   5   3.4420   1.4535   1.4089   2.9097  -0.4589  -2.7908   0.00    0.0
2019/01/19 01:21:30.000   47.480939137   19.056580824   172.9689   5   5   3.4193   1.4416   1.4141   2.8282  -0.4374  -2.7892   0.00    0.0
2019/01/19 01:22:00.000   47.480936868   19.056582456   173.6188   5   5   3.3969   1.4300   1.4195   2.7483  -0.4160  -2.7879   0.00    0.0
2019/01/19 01:22:30.000   47.480935949   19.056581014   173.8673   5   5   3.3746   1.4187   1.4249   2.6701  -0.3946  -2.7868   0.00    0.0
2019/01/19 01:23:00.000   47.480935949   19.056578294   173.8364   5   5   3.3526   1.4077   1.4305   2.5934  -0.3733  -2.7859   0.00    0.0
2019/01/19 01:23:30.000   47.480936074   19.056576283   173.7263   5   5   3.3307   1.3970   1.4361   2.5182  -0.3520  -2.7853   0.00    0.0
2019/01/19 01:24:00.000   47.480937180   19.056576255   173.7972   5   5   3.3091   1.3866   1.4418   2.4446  -0.3307  -2.7848   0.00    0.0
2019/01/19 01:24:30.000   47.480939370   19.056576576   173.7068   5   5   3.2876   1.3764   1.4477   2.3724  -0.3095  -2.7845   0.00    0.0
2019/01/19 01:25:00.000   47.480942669   19.056576393   173.4874   5   5   3.2664   1.3665   1.4536   2.3017  -0.2883  -2.7845   0.00    0.0
2019/01/19 01:25:30.000   47.480944830   19.056577138   173.0920   5   5   3.2454   1.3569   1.4596   2.2324  -0.2671  -2.7846   0.00    0.0
2019/01/19 01:26:00.000   47.480943727   19.056579794   172.5243   5   5   3.2246   1.3476   1.4657   2.1646  -0.2459  -2.7849   0.00    0.0
2019/01/19 01:26:30.000   47.480942845   19.056581737   172.0864   5   5   3.2040   1.3386   1.4719   2.0981  -0.2247  -2.7854   0.00    0.0
2019/01/19 01:27:00.000   47.480940239   19.056582237   171.7487   5   5   3.1835   1.3298   1.4782   2.0331  -0.2036  -2.7860   0.00    0.0
2019/01/19 01:27:30.000   47.480940247   19.056581368   171.2484   5   5   3.1633   1.3213   1.4846   1.9693  -0.1824  -2.7868   0.00    0.0
2019/01/19 01:28:00.000   47.480942568   19.056580039   171.0259   5   5   3.1433   1.3131   1.4910   1.9068  -0.1613  -2.7877   0.00    0.0
2019/01/19 01:28:30.000   47.480944236   19.056579466   171.0137   5   6   2.6967   1.2995   0.8999   1.6536   0.0057  -0.9022   0.00    0.0
2019/01/19 01:29:00.000   47.480944294   19.056579264   171.2364   5   6   2.6841   1.2933   0.9035   1.6229   0.0066  -0.9152   0.00    0.0
2019/01/19 01:29:30.000   47.480945886   19.056576688   171.5362   5   6   2.6714   1.2871   0.9071   1.5925   0.0076  -0.9280   0.00    0.0
2019/01/19 01:30:00.000   47.480947574   19.056573746   171.8764   5   6   2.6586   1.2809   0.9107   1.5623   0.0086  -0.9405   0.00    0.0
2019/01/19 01:30:30.000   47.480947696   19.056573845   172.1014   5   6   2.6459   1.2748   0.9144   1.5324   0.0098  -0.9527   0.00    0.0
2019/01/19 01:31:00.000   47.480947447   19.056572963   172.2190   5   6   2.6331   1.2688   0.9180   1.5028   0.0111  -0.9646   0.00    0.0
2019/01/19 01:31:30.000   47.480947062   19.056570602   172.1885   5   6   2.6203   1.2627   0.9217   1.4735   0.0124  -0.9762   0.00    0.0
2019/01/19 01:32:00.000   47.480947388   19.056570301   172.2799   5   6   2.6075   1.2567   0.9254   1.4445   0.0139  -0.9875   0.00    0.0
2019/01/19 01:32:30.000   47.480948689   19.056570833   172.1296   5   6   2.5947   1.2508   0.9291   1.4158   0.0154  -0.9985   0.00    0.0
2019/01/19 01:33:00.000   47.480949498   19.056569909   171.9263   5   6   2.5818   1.2448   0.9328   1.3874   0.0170  -1.0093   0.00    0.0
2019/01/19 01:33:30.000   47.480949432   19.056568545   171.8216   5   6   2.5690   1.2390   0.9365   1.3593   0.0187  -1.0198   0.00    0.0
2019/01/19 01:34:00.000   47.480949971   19.056567053   171.5051   5   6   2.5562   1.2332   0.9402   1.3316   0.0205  -1.0299   0.00    0.0
2019/01/19 01:34:30.000   47.480951229   19.056565151   171.2804   5   6   2.5434   1.2274   0.9440   1.3042   0.0224  -1.0399   0.00    0.0
2019/01/19 01:35:00.000   47.480952147   19.056564196   171.2931   5   6   2.5306   1.2216   0.9477   1.2772   0.0243  -1.0495   0.00    0.0
2019/01/19 01:35:30.000   47.480954759   19.056562748   171.1462   5   6   2.5179   1.2160   0.9515   1.2505   0.0263  -1.0589   0.00    0.0
2019/01/19 01:36:00.000   47.480955720   19.056563397   171.2075   5   6   2.5051   1.2103   0.9552   1.2242   0.0284  -1.0680   0.00    0.0
2019/01/19 01:36:30.000   47.480955834   19.056564228   171.2978   5   6   2.4924   1.2047   0.9590   1.1982   0.0305  -1.0769   0.00    0.0
2019/01/19 01:37:00.000   47.480954248   19.056565742   171.6622   5   6   2.4796   1.1992   0.9628   1.1727   0.0327  -1.0855   0.00    0.0
2019/01/19 01:37:30.000   47.480953276   19.056566493   171.8070   5   6   2.4670   1.1938   0.9665   1.1475   0.0349  -1.0938   0.00    0.0
2019/01/19 01:38:00.000   47.480951464   19.056567515   171.7740   5   6   2.4543   1.1883   0.9703   1.1226   0.0372  -1.1019   0.00    0.0
2019/01/19 01:38:30.000   47.480949800   19.056566888   171.9757   5   6   2.4417   1.1830   0.9741   1.0982   0.0396  -1.1097   0.00    0.0
2019/01/19 01:39:00.000   47.480949918   19.056564478   172.0789   5   6   2.4291   1.1777   0.9778   1.0741   0.0420  -1.1173   0.00    0.0
2019/01/19 01:39:30.000   47.480949822   19.056563530   172.2525   5   6   2.4165   1.1724   0.9816   1.0504   0.0445  -1.1246   0.00    0.0
2019/01/19 01:40:00.000   47.480950220   19.056563727   172.2662   5   6   2.4040   1.1672   0.9854   1.0271   0.0470  -1.1317   0.00    0.0
2019/01/19 01:40:30.000   47.480949696   19.056562286   172.4911   5   6   2.3915   1.1621   0.9891   1.0041   0.0495  -1.1386   0.00    0.0
2019/01/19 01:41:00.000   47.480947288   19.056561323   172.8371   5   6   2.3791   1.1570   0.9929   0.9816   0.0521  -1.1452   0.00    0.0
2019/01/19 01:41:30.000   47.480906130   19.056569827   169.0700   5   5   2.6286   3.9428   1.0072   5.2729  -0.4944  -1.3182   0.00    0.0
2019/01/19 01:42:00.000   47.480908453   19.056567800   169.3946   5   5   2.6312   3.9752   1.0124   5.4093  -0.5358  -1.3409   0.00    0.0
2019/01/19 01:42:30.000   47.480913028   19.056567181   170.2614   5   5   2.6342   4.0068   1.0178   5.5471  -0.5792  -1.3644   0.00    0.0
2019/01/19 01:43:00.000   47.480915337   19.056566571   170.7761   5   5   2.6376   4.0378   1.0233   5.6860  -0.6243  -1.3888   0.00    0.0
2019/01/19 01:43:30.000   47.480911544   19.056567686   170.6158   5   5   2.6414   4.0680   1.0290   5.8258  -0.6714  -1.4140   0.00    0.0
2019/01/19 01:44:00.000   47.480905874   19.056570762   169.8306   5   5   2.6456   4.0973   1.0348   5.9662  -0.7203  -1.4401   0.00    0.0
2019/01/19 01:44:30.000   47.480896546   19.056575072   168.1825   5   5   2.6501   4.1257   1.0408   6.1070  -0.7710  -1.4671   0.00    0.0
2019/01/19 01:45:00.000   47.480890504   19.056576445   167.2269   5   5   2.6550   4.1532   1.0470   6.2479  -0.8234  -1.4950   0.00    0.0
2019/01/19 01:45:30.000   47.480890698   19.056575083   167.2051   5   5   2.6603   4.1796   1.0534   6.3886  -0.8775  -1.5239   0.00    0.0
2019/01/19 01:46:00.000   47.480893497   19.056571187   167.3250   5   5   2.6658   4.2049   1.0599   6.5289  -0.9333  -1.5536   0.00    0.0
2019/01/19 01:46:30.000   47.480895451   19.056568351   167.2790   5   5   2.6717   4.2291   1.0667   6.6683  -0.9906  -1.5843   0.00    0.0
2019/01/19 01:47:00.000   47.480898677   19.056564744   166.7703   5   5   2.6778   4.2520   1.0736   6.8065  -1.0495  -1.6160   0.00    0.0
2019/01/19 01:47:30.000   47.480901335   19.056563328   166.3149   5   5   2.6841   4.2737   1.0807   6.9433  -1.1100  -1.6487   0.00    0.0
2019/01/19 01:48:00.000   47.480909109   19.056561318   167.1196   5   5   2.6906   4.2941   1.0881   7.0782  -1.1718  -1.6822   0.00    0.0
2019/01/19 01:48:30.000   47.480912393   19.056557139   167.1621   5   5   2.6973   4.3132   1.0957   7.2110  -1.2349  -1.7168   0.00    0.0
2019/01/19 01:49:00.000   47.480911322   19.056557606   167.3725   5   5   2.7042   4.3309   1.1034   7.3412  -1.2993  -1.7522   0.00    0.0
2019/01/19 01:49:30.000   47.480908755   19.056559794   167.5394   5   5   2.7111   4.3472   1.1115   7.4686  -1.3649  -1.7886   0.00    0.0
2019/01/19 01:50:00.000   47.480906007   19.056561357   167.0823   5   5   2.7182   4.3620   1.1197   7.5928  -1.4314  -1.8259   0.00    0.0
2019/01/19 01:50:30.000   47.480910592   19.056564445   167.2218   5   5   2.7253   4.3753   1.1281   7.7137  -1.4989  -1.8640   0.00    0.0
2019/01/19 01:51:00.000   47.480914860   19.056564820   167.1067   5   5   2.7324   4.3871   1.1368   7.8309  -1.5670  -1.9030   0.00    0.0
2019/01/19 01:51:30.000   47.480916515   19.056562522   166.8705   5   5   2.7395   4.3974   1.1457   7.9441  -1.6358  -1.9427   0.00    0.0
2019/01/19 01:52:00.000   47.480920238   19.056559581   167.5129   5   5   2.7466   4.4062   1.1548   8.0531  -1.7051  -1.9832   0.00    0.0
2019/01/19 01:52:30.000   47.480926063   19.056555686   168.2527   5   5   2.7536   4.4134   1.1641   8.1576  -1.7747  -2.0244   0.00    0.0
2019/01/19 01:53:00.000   47.480930258   19.056552426   168.8035   5   5   2.7605   4.4191   1.1736   8.2574  -1.8446  -2.0662   0.00    0.0
2019/01/19 01:53:30.000   47.480935409   19.056551368   169.9635   5   5   2.7674   4.4232   1.1834   8.3523  -1.9147  -2.1088   0.00    0.0
2019/01/19 01:54:00.000   47.480935832   19.056550713   170.4008   5   5   2.7740   4.4258   1.1933   8.4420  -1.9849  -2.1519   0.00    0.0
2019/01/19 01:54:30.000   47.480936178   19.056551190   170.9463   5   5   2.7805   4.4269   1.2035   8.5266  -2.0549  -2.1956   0.00    0.0
2019/01/19 01:55:00.000   47.480936684   19.056550640   170.8683   5   5   2.7868   4.4265   1.2138   8.6058  -2.1246  -2.2397   0.00    0.0
2019/01/19 01:55:30.000   47.480934539   19.056551428   169.9604   5   5   2.7929   4.4246   1.2244   8.6795  -2.1941  -2.2843   0.00    0.0
2019/01/19 01:56:00.000   47.480931661   19.056552388   169.1209   5   5   2.7988   4.4212   1.2351   8.7477  -2.2630  -2.3292   0.00    0.0
2019/01/19 01:56:30.000   47.480929829   19.056551694   168.4026   5   5   2.8045   4.4164   1.2460   8.8104  -2.3313  -2.3745   0.00    0.0
2019/01/19 01:57:00.000   47.480929578   19.056551767   168.2122   5   5   2.8099   4.4102   1.2571   8.8674  -2.3989  -2.4201   0.00    0.0
2019/01/19 01:57:30.000   47.480931495   19.056550614   168.4604   5   5   2.8150   4.4026   1.2684   8.9190  -2.4657  -2.4659   0.00    0.0
2019/01/19 01:58:00.000   47.480937504   19.056548745   169.8547   5   5   2.8199   4.3937   1.2798   8.9650  -2.5316  -2.5119   0.00    0.0
2019/01/19 01:58:30.000   47.480942180   19.056543516   170.3337   5   5   2.8245   4.3835   1.2913   9.0055  -2.5964  -2.5580   0.00    0.0
2019/01/19 01:59:00.000   47.480946736   19.056540086   170.5706   5   5   2.8288   4.3721   1.3030   9.0405  -2.6602  -2.6043   0.00    0.0
2019/01/19 01:59:30.000   47.480972231   19.056531783   173.4734   5   6   1.9755   1.1998   1.2115   0.5610  -0.5817  -1.6133   0.00    0.0
2019/01/19 02:00:00.000   47.480973374   19.056533866   172.8572   5   6   1.9740   1.2064   1.2191   0.5905  -0.5989  -1.6306   0.00    0.0
2019/01/19 02:00:30.000   47.480974009   19.056535627   172.9122   5   6   1.9727   1.2132   1.2269   0.6204  -0.6166  -1.6484   0.00    0.0
2019/01/19 02:01:00.000   47.480974117   19.056535715   173.1235   5   6   1.9716   1.2201   1.2348   0.6506  -0.6348  -1.6667   0.00    0.0
2019/01/19 02:01:30.000   47.480972741   19.056535178   173.0496   5   6   1.9708   1.2273   1.2429   0.6812  -0.6535  -1.6854   0.00    0.0
2019/01/19 02:02:00.000   47.480970214   19.056535431   172.8440   5   6   1.9703   1.2347   1.2511   0.7122  -0.6726  -1.7048   0.00    0.0
2019/01/19 02:02:30.000   47.480967529   19.056536575   173.0121   5   6   1.9700   1.2422   1.2595   0.7435  -0.6923  -1.7246   0.00    0.0
2019/01/19 02:03:00.000   47.480966118   19.056536497   173.1321   5   6   1.9700   1.2500   1.2680   0.7754  -0.7124  -1.7451   0.00    0.0
2019/01/19 02:03:30.000   47.480965658   19.056535317   173.3110   5   6   1.9702   1.2579   1.2767   0.8076  -0.7332  -1.7661   0.00    0.0
2019/01/19 02:04:00.000   47.480965936   19.056532905   173.2608   5   6   1.9707   1.2660   1.2856   0.8404  -0.7545  -1.7878   0.00    0.0
2019/01/19 02:04:30.000   47.480965455   19.056533351   173.4311   5   6   1.9714   1.2744   1.2946   0.8736  -0.7763  -1.8101   0.00    0.0
2019/01/19 02:05:00.000   47.480965240   19.056530887   173.1573   5   6   1.9725   1.2829   1.3038   0.9073  -0.7988  -1.8331   0.00    0.0
2019/01/19 02:05:30.000   47.480965726   19.056529532   173.1509   5   6   1.9738   1.2917   1.3132   0.9416  -0.8218  -1.8567   0.00    0.0
2019/01/19 02:06:00.000   47.480966037   19.056531123   173.5714   5   6   1.9754   1.3007   1.3228   0.9764  -0.8455  -1.8810   0.00    0.0
2019/01/19 02:06:30.000   47.480966217   19.056535538   174.3404   5   6   1.9772   1.3099   1.3326   1.0117  -0.8699  -1.9061   0.00    0.0
2019/01/19 02:07:00.000   47.480964424   19.056537589   174.7908   5   6   1.9794   1.3193   1.3426   1.0477  -0.8949  -1.9319   0.00    0.0
2019/01/19 02:07:30.000   47.480960780   19.056537030   174.6804   5   6   1.9818   1.3289   1.3527   1.0843  -0.9207  -1.9585   0.00    0.0
2019/01/19 02:08:00.000   47.480956532   19.056537521   174.7314   5   6   1.9846   1.3387   1.3631   1.1216  -0.9471  -1.9859   0.00    0.0
2019/01/19 02:08:30.000   47.480954878   19.056539126   175.0280   5   6   1.9876   1.3488   1.3737   1.1595  -0.9743  -2.0141   0.00    0.0
2019/01/19 02:09:00.000   47.480956138   19.056538076   175.0581   5   6   1.9909   1.3591   1.3845   1.1981  -1.0023  -2.0432   0.00    0.0
2019/01/19 02:09:30.000   47.480958088   19.056536345   174.8632   5   6   1.9946   1.3696   1.3955   1.2374  -1.0310  -2.0731   0.00    0.0
2019/01/19 02:10:00.000   47.480959939   19.056533823   174.3941   5   6   1.9985   1.3804   1.4067   1.2775  -1.0606  -2.1040   0.00    0.0
2019/01/19 02:10:30.000   47.480960524   19.056531229   174.0592   5   6   2.0028   1.3914   1.4182   1.3183  -1.0910  -2.1358   0.00    0.0
2019/01/19 02:11:00.000   47.480959268   19.056531897   174.3736   5   6   2.0073   1.4026   1.4299   1.3599  -1.1223  -2.1685   0.00    0.0
2019/01/19 02:11:30.000   47.480958033   19.056530642   174.3454   5   7   1.6172   1.3485   0.9176   0.8926  -0.6809  -0.8706   0.00    0.0
2019/01/19 02:12:00.000   47.480956237   19.056530912   174.6506   5   7   1.6201   1.3574   0.9247   0.9211  -0.6979  -0.8880   0.00    0.0
2019/01/19 02:12:30.000   47.480954989   19.056531529   174.6439   5   7   1.6231   1.3665   0.9319   0.9501  -0.7153  -0.9058   0.00    0.0
2019/01/19 02:13:00.000   47.480954263   19.056530775   174.2755   5   7   1.6264   1.3757   0.9393   0.9795  -0.7333  -0.9240   0.00    0.0
2019/01/19 02:13:30.000   47.480954654   19.056530058   173.7925   5   7   1.6298   1.3852   0.9469   1.0095  -0.7517  -0.9427   0.00    0.0
2019/01/19 02:14:00.000   47.480956172   19.056528842   172.9913   5   7   1.6335   1.3948   0.9546   1.0399  -0.7707  -0.9618   0.00    0.0
2019/01/19 02:14:30.000   47.480956885   19.056528849   172.6493   5   7   1.6374   1.4045   0.9625   1.0709  -0.7901  -0.9815   0.00    0.0
2019/01/19 02:15:00.000   47.480956698   19.056529291   172.6436   5   7   1.6416   1.4145   0.9705   1.1025  -0.8101  -1.0016   0.00    0.0
2019/01/19 02:15:30.000   47.480956109   19.056529767   172.6441   5   7   1.6459   1.4246   0.9787   1.1345  -0.8307  -1.0223   0.00    0.0
2019/01/19 02:16:00.000   47.480956300   19.056528785   172.7069   5   7   1.6505   1.4349   0.9871   1.1672  -0.8518  -1.0434   0.00    0.0
2019/01/19 02:16:30.000   47.480957374   19.056526964   172.6893   5   7   1.6553   1.4453   0.9956   1.2004  -0.8735  -1.0651   0.00    0.0
2019/01/19 02:17:00.000   47.480958556   19.056526428   172.7515   5   7   1.6603   1.4559   1.0043   1.2342  -0.8957  -1.0874   0.00    0.0
2019/01/19 02:17:30.000   47.480960148   19.056524727   172.8303   5   7   1.6655   1.4667   1.0132   1.2687  -0.9186  -1.1102   0.00    0.0
2019/01/19 02:18:00.000   47.480961433   19.056523712   172.7247   5   7   1.6710   1.4777   1.0223   1.3037  -0.9421  -1.1336   0.00    0.0
2019/01/19 02:18:30.000   47.480961843   19.056524582   172.6316   5   7   1.6767   1.4888   1.0316   1.3393  -0.9662  -1.1576   0.00    0.0
2019/01/19 02:19:00.000   47.480961772   19.056524261   172.0930   5   7   1.6826   1.5001   1.0410   1.3756  -0.9910  -1.1822   0.00    0.0
2019/01/19 02:19:30.000   47.480960376   19.056526273   171.8118   5   7   1.6888   1.5116   1.0506   1.4126  -1.0164  -1.2075   0.00    0.0
2019/01/19 02:20:00.000   47.480958585   19.056525675   171.4111   5   7   1.6951   1.5232   1.0604   1.4501  -1.0425  -1.2334   0.00    0.0
2019/01/19 02:20:30.000   47.480957865   19.056523279   171.3572   5   7   1.7017   1.5350   1.0704   1.4884  -1.0692  -1.2599   0.00    0.0
2019/01/19 02:21:00.000   47.480959145   19.056520037   171.6304   5   7   1.7086   1.5470   1.0806   1.5273  -1.0966  -1.2870   0.00    0.0
2019/01/19 02:21:30.000   47.480960076   19.056519903   171.9468   5   7   1.7156   1.5591   1.0910   1.5669  -1.1248  -1.3149   0.00    0.0
2019/01/19 02:22:00.000   47.480960578   19.056520287   172.2269   5   7   1.7229   1.5713   1.1016   1.6071  -1.1536  -1.3435   0.00    0.0
2019/01/19 02:22:30.000   47.480960107   19.056520030   172.5860   5   7   1.7304   1.5837   1.1123   1.6480  -1.1832  -1.3727   0.00    0.0
2019/01/19 02:23:00.000   47.480959471   19.056519870   172.9600   5   7   1.7381   1.5963   1.1233   1.6896  -1.2135  -1.4026   0.00    0.0
2019/01/19 02:23:30.000   47.480959290   19.056518883   173.0274   5   7   1.7460   1.6090   1.1344   1.7319  -1.2445  -1.4333   0.00    0.0
2019/01/19 02:24:00.000   47.480960132   19.056517011   172.7984   5   7   1.7541   1.6218   1.1458   1.7749  -1.2762  -1.4647   0.00    0.0
2019/01/19 02:24:30.000   47.480960560   19.056516702   172.5423   5   7   1.7624   1.6347   1.1573   1.8185  -1.3087  -1.4968   0.00    0.0
2019/01/19 02:25:00.000   47.480959820   19.056515870   171.8915   5   7   1.7710   1.6478   1.1691   1.8628  -1.3419  -1.5297   0.00    0.0
2019/01/19 02:25:30.000   47.480957690   19.056515762   171.1603   5   7   1.7797   1.6610   1.1810   1.9078  -1.3759  -1.5633   0.00    0.0
2019/01/19 02:26:00.000   47.480956374   19.056516690   170.8679   5   7   1.7886   1.6743   1.1932   1.9534  -1.4107  -1.5976   0.00    0.0
2019/01/19 02:26:30.000   47.480956495   19.056517942   171.0617   5   7   1.7977   1.6877   1.2055   1.9996  -1.4461  -1.6327   0.00    0.0
2019/01/19 02:27:00.000   47.480957683   19.056518434   171.5174   5   7   1.8070   1.7011   1.2180   2.0464  -1.4824  -1.6686   0.00    0.0
2019/01/19 02:27:30.000   47.480958562   19.056518369   172.0514   5   7   1.8164   1.7147   1.2307   2.0938  -1.5193  -1.7052   0.00    0.0
2019/01/19 02:28:00.000   47.480958777   19.056518596   172.2959   5   7   1.8260   1.7283   1.2436   2.1418  -1.5570  -1.7425   0.00    0.0
2019/01/19 02:28:30.000   47.480959369   19.056518074   172.3623   5   7   1.8358   1.7420   1.2566   2.1903  -1.5953  -1.7806   0.00    0.0
2019/01/19 02:29:00.000   47.480959708   19.056517549   172.3302   5   7   1.8457   1.7557   1.2699   2.2393  -1.6344  -1.8194   0.00    0.0
2019/01/19 02:29:30.000   47.480959244   19.056516009   172.2109   5   7   1.8557   1.7694   1.2833   2.2888  -1.6741  -1.8588   0.00    0.0
2019/01/19 02:30:00.000   47.480959533   19.056515979   171.4022   5   6   2.4445   1.7852   1.2973   2.2056  -1.7114  -1.9565   0.00    0.0
2019/01/19 02:30:30.000   47.480959073   19.056518228   171.0875   5   6   2.4620   1.7979   1.3116   2.2950  -1.7523  -2.0251   0.00    0.0
2019/01/19 02:31:00.000   47.480959522   19.056520362   170.9405   5   7   2.1232   1.2294   1.1818   0.6822  -0.9944  -1.3245   0.00    0.0
2019/01/19 02:31:30.000   47.480961694   19.056521673   171.0530   5   7   2.1310   1.2361   1.1924   0.7288  -1.0146  -1.3674   0.00    0.0
2019/01/19 02:32:00.000   47.480962621   19.056521979   171.3995   5   7   2.1393   1.2431   1.2034   0.7762  -1.0356  -1.4115   0.00    0.0
2019/01/19 02:32:30.000   47.480963027   19.056519715   170.8952   5   7   2.1482   1.2504   1.2146   0.8247  -1.0574  -1.4568   0.00    0.0
2019/01/19 02:33:00.000   47.480962578   19.056518081   170.1131   5   7   2.1576   1.2579   1.2261   0.8741  -1.0800  -1.5035   0.00    0.0
2019/01/19 02:33:30.000   47.480961362   19.056517049   169.6333   5   7   2.1675   1.2658   1.2379   0.9245  -1.1036  -1.5515   0.00    0.0
2019/01/19 02:34:00.000   47.480960510   19.056517567   169.4777   5   7   2.1780   1.2739   1.2500   0.9760  -1.1280  -1.6009   0.00    0.0
2019/01/19 02:34:30.000   47.480961477   19.056517709   169.3674   5   7   2.1891   1.2823   1.2624   1.0286  -1.1534  -1.6518   0.00    0.0
2019/01/19 02:35:00.000   47.480961395   19.056518458   169.8040   5   7   2.2008   1.2911   1.2751   1.0824  -1.1798  -1.7043   0.00    0.0
2019/01/19 02:35:30.000   47.480961013   19.056516572   169.7033   5   7   2.2130   1.3001   1.2882   1.1374  -1.2072  -1.7583   0.00    0.0
2019/01/19 02:36:00.000   47.480960817   19.056513074   169.1658   5   7   2.2258   1.3094   1.3016   1.1937  -1.2356  -1.8140   0.00    0.0
2019/01/19 02:36:30.000   47.480960437   19.056510314   168.7406   5   7   2.2393   1.3191   1.3154   1.2514  -1.2651  -1.8715   0.00    0.0
2019/01/19 02:37:00.000   47.480960373   19.056509727   168.4942   5   7   2.2533   1.3290   1.3295   1.3104  -1.2957  -1.9308   0.00    0.0
2019/01/19 02:37:30.000   47.480959886   19.056510954   168.7602   5   7   2.2680   1.3393   1.3440   1.3710  -1.3275  -1.9919   0.00    0.0
2019/01/19 02:38:00.000   47.480957219   19.056513586   169.2943   5   7   2.2833   1.3499   1.3589   1.4330  -1.3605  -2.0551   0.00    0.0
2019/01/19 02:38:30.000   47.480954165   19.056516013   169.6032   5   7   2.2992   1.3608   1.3741   1.4966  -1.3947  -2.1202   0.00    0.0
2019/01/19 02:39:00.000   47.480952912   19.056516872   169.5267   5   7   2.3157   1.3721   1.3897   1.5618  -1.4302  -2.1875   0.00    0.0
2019/01/19 02:39:30.000   47.480953801   19.056517476   169.4354   5   7   2.3329   1.3836   1.4058   1.6288  -1.4671  -2.2569   0.00    0.0
2019/01/19 02:40:00.000   47.480955429   19.056516189   169.1767   5   7   2.3508   1.3955   1.4222   1.6975  -1.5052  -2.3287   0.00    0.0
2019/01/19 02:40:30.000   47.480955716   19.056514373   169.5006   5   7   2.3693   1.4078   1.4390   1.7680  -1.5448  -2.4027   0.00    0.0
2019/01/19 02:41:00.000   47.480954418   19.056536969   177.1346   5   8   1.9611   1.2427   0.9608   0.9027  -0.8333  -0.9872   0.00    0.0
2019/01/19 02:41:30.000   47.480953511   19.056536128   177.3689   5   8   1.9682   1.2498   0.9686   0.9411  -0.8491  -1.0163   0.00    0.0
2019/01/19 02:42:00.000   47.480951832   19.056535530   177.3030   5   8   1.9756   1.2571   0.9765   0.9800  -0.8653  -1.0460   0.00    0.0
2019/01/19 02:42:30.000   47.480950392   19.056537139   177.0238   5   8   1.9833   1.2645   0.9846   1.0194  -0.8820  -1.0764   0.00    0.0
2019/01/19 02:43:00.000   47.480951771   19.056538674   176.5029   5   8   1.9913   1.2720   0.9929   1.0593  -0.8992  -1.1073   0.00    0.0
2019/01/19 02:43:30.000   47.480954544   19.056540187   175.8434   5   8   1.9996   1.2797   1.0013   1.0998  -0.9167  -1.1389   0.00    0.0
2019/01/19 02:44:00.000   47.480956845   19.056541237   175.8000   5   8   2.0082   1.2875   1.0099   1.1407  -0.9347  -1.1712   0.00    0.0
2019/01/19 02:44:30.000   47.480957025   19.056541191   176.2883   5   8   2.0172   1.2955   1.0187   1.1822  -0.9532  -1.2040   0.00    0.0
2019/01/19 02:45:00.000   47.480955616   19.056538324   176.3499   5   8   2.0264   1.3036   1.0276   1.2241  -0.9721  -1.2376   0.00    0.0
2019/01/19 02:45:30.000   47.480954671   19.056537224   176.5300   5   8   2.0359   1.3117   1.0366   1.2666  -0.9915  -1.2718   0.00    0.0
2019/01/19 02:46:00.000   47.480954814   19.056537656   176.6764   5   8   2.0456   1.3201   1.0458   1.3096  -1.0113  -1.3067   0.00    0.0
2019/01/19 02:46:30.000   47.480956245   19.056539416   177.0539   5   8   2.0557   1.3285   1.0551   1.3531  -1.0316  -1.3422   0.00    0.0
2019/01/19 02:47:00.000   47.480957516   19.056539295   177.0752   5   8   2.0660   1.3370   1.0646   1.3971  -1.0522  -1.3784   0.00    0.0
2019/01/19 02:47:30.000   47.480956880   19.056538717   177.0569   5   8   2.0765   1.3456   1.0743   1.4416  -1.0734  -1.4153   0.00    0.0
2019/01/19 02:48:00.000   47.480954816   19.056538323   176.6532   5   8   2.0873   1.3543   1.0840   1.4865  -1.0949  -1.4529   0.00    0.0
2019/01/19 02:48:30.000   47.480953995   19.056538657   176.3361   5   8   2.0983   1.3630   1.0940   1.5319  -1.1169  -1.4911   0.00    0.0
2019/01/19 02:49:00.000   47.480956116   19.056541721   176.5270   5   8   2.1096   1.3719   1.1040   1.5777  -1.1393  -1.5299   0.00    0.0
2019/01/19 02:49:30.000   47.480958908   19.056543380   176.3688   5   8   2.1211   1.3807   1.1142   1.6238  -1.1620  -1.5694   0.00    0.0
2019/01/19 02:50:00.000   47.480960929   19.056543297   176.0652   5   8   2.1327   1.3897   1.1245   1.6703  -1.1852  -1.6095   0.00    0.0
2019/01/19 02:50:30.000   47.480962339   19.056542459   176.0832   5   8   2.1446   1.3986   1.1349   1.7172  -1.2087  -1.6502   0.00    0.0
2019/01/19 02:51:00.000   47.480963244   19.056539536   175.9911   5   8   2.1566   1.4076   1.1454   1.7643  -1.2325  -1.6915   0.00    0.0
2019/01/19 02:51:30.000   47.480958044   19.056531875   174.9092   5   9   2.0482   1.0596   0.8722   1.1414  -0.5434  -1.1924   0.00    0.0
2019/01/19 02:52:00.000   47.480956603   19.056531054   175.5268   5   9   2.0549   1.0660   0.8789   1.1675  -0.5549  -1.2149   0.00    0.0
2019/01/19 02:52:30.000   47.480955953   19.056531326   175.5511   5   9   2.0616   1.0724   0.8857   1.1936  -0.5665  -1.2376   0.00    0.0
2019/01/19 02:53:00.000   47.480955202   19.056531265   175.5889   5   9   2.0684   1.0788   0.8925   1.2198  -0.5784  -1.2605   0.00    0.0
2019/01/19 02:53:30.000   47.480954788   19.056529327   175.2025   5   9   2.0753   1.0852   0.8994   1.2460  -0.5903  -1.2837   0.00    0.0
2019/01/19 02:54:00.000   47.480954039   19.056527396   175.0939   5   9   2.0822   1.0916   0.9064   1.2722  -0.6025  -1.3072   0.00    0.0
2019/01/19 02:54:30.000   47.480953925   19.056526411   175.2479   5   9   2.0891   1.0981   0.9135   1.2984  -0.6147  -1.3308   0.00    0.0
2019/01/19 02:55:00.000   47.480953345   19.056526532   175.8555   5   9   2.0960   1.1045   0.9206   1.3246  -0.6271  -1.3546   0.00    0.0
2019/01/19 02:55:30.000   47.480954101   19.056526591   176.2471   5   9   2.1029   1.1108   0.9277   1.3507  -0.6396  -1.3786   0.00    0.0
2019/01/19 02:56:00.000   47.480954205   19.056525971   176.5282   5   9   2.1098   1.1172   0.9350   1.3767  -0.6522  -1.4028   0.00    0.0
2019/01/19 02:56:30.000   47.480953420   19.056525499   176.7039   5   9   2.1166   1.1235   0.9422   1.4026  -0.6648  -1.4271   0.00    0.0
2019/01/19 02:57:00.000   47.480953325   19.056525861   176.6970   5   9   2.1235   1.1297   0.9496   1.4284  -0.6776  -1.4516   0.00    0.0
2019/01/19 02:57:30.000   47.480953318   19.056526450   176.6380   5   9   2.1303   1.1359   0.9569   1.4540  -0.6904  -1.4761   0.00    0.0
2019/01/19 02:58:00.000   47.480952962   19.056528034   176.5230   5   9   2.1370   1.1421   0.9643   1.4793  -0.7033  -1.5008   0.00    0.0
2019/01/19 02:58:30.000   47.480953026   19.056529817   176.4895   5   9   2.1436   1.1481   0.9717   1.5044  -0.7162  -1.5254   0.00    0.0
2019/01/19 02:59:00.000   47.480953878   19.056529642   176.3102   5   9   2.1502   1.1541   0.9792   1.5292  -0.7291  -1.5501   0.00    0.0
2019/01/19 02:59:30.000   47.480954960   19.056530310   176.5310   5   9   2.1566   1.1600   0.9866   1.5537  -0.7420  -1.5749   0.00    0.0
2019/01/19 03:00:00.000   47.480955753   19.056532213   176.5897   5   9   2.1630   1.1658   0.9941   1.5778  -0.7549  -1.5995   0.00    0.0
2019/01/19 03:00:30.000   47.480956087   19.056533390   176.2827   5   9   2.1692   1.1714   1.0016   1.6015  -0.7678  -1.6241   0.00    0.0
2019/01/19 03:01:00.000   47.480955852   19.056532815   176.5231   5   9   2.1752   1.1770   1.0090   1.6247  -0.7806  -1.6487   0.00    0.0
2019/01/19 03:01:30.000   47.480956109   19.056530013   176.7453   5   9   2.1811   1.1824   1.0165   1.6475  -0.7933  -1.6730   0.00    0.0
2019/01/19 03:02:00.000   47.480957175   19.056526655   176.7492   5   9   2.1868   1.1877   1.0239   1.6697  -0.8059  -1.6973   0.00    0.0
2019/01/19 03:02:30.000   47.480957723   19.056525073   176.6803   5   9   2.1923   1.1929   1.0313   1.6913  -0.8184  -1.7213   0.00    0.0
2019/01/19 03:03:00.000   47.480957355   19.056525275   176.6707   5   9   2.1976   1.1978   1.0387   1.7123  -0.8307  -1.7451   0.00    0.0
2019/01/19 03:03:30.000   47.480955561   19.056525486   176.7864   5   9   2.2027   1.2026   1.0461   1.7326  -0.8429  -1.7686   0.00    0.0
2019/01/19 03:04:00.000   47.480955186   19.056524928   176.9484   5   9   2.2076   1.2073   1.0534   1.7522  -0.8548  -1.7919   0.00    0.0
2019/01/19 03:04:30.000   47.480954397   19.056524975   177.4947   5   9   2.2121   1.2117   1.0606   1.7711  -0.8666  -1.8148   0.00    0.0
2019/01/19 03:05:00.000   47.480953964   19.056524893   177.6393   5   9   2.2165   1.2160   1.0678   1.7891  -0.8781  -1.8373   0.00    0.0
2019/01/19 03:05:30.000   47.480953736   19.056524133   177.8443   5   9   2.2205   1.2200   1.0750   1.8063  -0.8893  -1.8593   0.00    0.0
2019/01/19 03:06:00.000   47.480954396   19.056522635   178.5026   5   9   2.2243   1.2238   1.0820   1.8226  -0.9002  -1.8810   0.00    0.0
2019/01/19 03:06:30.000   47.480955324   19.056521786   179.6682   5   9   2.2277   1.2274   1.0890   1.8380  -0.9108  -1.9021   0.00    0.0
2019/01/19 03:07:00.000   47.480955824   19.056521438   179.7811   5   9   2.2308   1.2307   1.0958   1.8524  -0.9211  -1.9227   0.00    0.0
2019/01/19 03:07:30.000   47.480955831   19.056523418   180.0620   5   9   2.2336   1.2338   1.1026   1.8658  -0.9310  -1.9427   0.00    0.0
2019/01/19 03:08:00.000   47.480956275   19.056524763   179.8828   5   9   2.2361   1.2367   1.1093   1.8782  -0.9405  -1.9621   0.00    0.0
2019/01/19 03:08:30.000   47.480957235   19.056525406   179.4477   5   9   2.2381   1.2393   1.1158   1.8894  -0.9496  -1.9809   0.00    0.0
2019/01/19 03:09:00.000   47.480958136   19.056525539   179.5662   5   9   2.2399   1.2416   1.1222   1.8996  -0.9582  -1.9990   0.00    0.0
2019/01/19 03:09:30.000   47.480958417   19.056522615   179.1497   5   9   2.2412   1.2437   1.1285   1.9086  -0.9664  -2.0164   0.00    0.0
2019/01/19 03:10:00.000   47.480958198   19.056521176   179.0872   5   9   2.2422   1.2455   1.1347   1.9165  -0.9741  -2.0330   0.00    0.0
2019/01/19 03:10:30.000   47.480957858   19.056522334   179.3779   5   9   2.2428   1.2470   1.1407   1.9232  -0.9813  -2.0489   0.00    0.0
2019/01/19 03:11:00.000   47.480958553   19.056522534   179.4733   5   9   2.2430   1.2483   1.1466   1.9287  -0.9880  -2.0640   0.00    0.0
2019/01/19 03:11:30.000   47.480959517   19.056521345   179.0151   5   9   2.2427   1.2492   1.1524   1.9330  -0.9941  -2.0783   0.00    0.0
2019/01/19 03:12:00.000   47.480958585   19.056520582   178.4729   5   9   2.2421   1.2499   1.1580   1.9361  -0.9997  -2.0917   0.00    0.0
2019/01/19 03:12:30.000   47.480956273   19.056520042   178.1232   5   9   2.2411   1.2502   1.1634   1.9380  -1.0048  -2.1043   0.00    0.0
2019/01/19 03:13:00.000   47.480954502   19.056519525   177.9349   5   9   2.2397   1.2503   1.1686   1.9386  -1.0093  -2.1160   0.00    0.0
2019/01/19 03:13:30.000   47.480954228   19.056521100   178.5058   5   9   2.2378   1.2501   1.1738   1.9379  -1.0132  -2.1269   0.00    0.0
2019/01/19 03:14:00.000   47.480954940   19.056523237   178.9390   5   9   2.2356   1.2495   1.1787   1.9361  -1.0165  -2.1368   0.00    0.0
2019/01/19 03:14:30.000   47.480956662   19.056524412   179.1136   5   9   2.2330   1.2487   1.1835   1.9330  -1.0192  -2.1458   0.00    0.0
2019/01/19 03:15:00.000   47.480957691   19.056525770   179.6541   5   9   2.2299   1.2476   1.1880   1.9287  -1.0213  -2.1540   0.00    0.0
2019/01/19 03:15:30.000   47.480957741   19.056525820   179.8650   5   9   2.2265   1.2462   1.1925   1.9232  -1.0228  -2.1612   0.00    0.0
2019/01/19 03:16:00.000   47.480957652   19.056525125   179.5164   5   9   2.2226   1.2446   1.1967   1.9165  -1.0237  -2.1675   0.00    0.0
2019/01/19 03:16:30.000   47.480957820   19.056525410   178.8239   5   9   2.2184   1.2426   1.2008   1.9087  -1.0240  -2.1729   0.00    0.0
2019/01/19 03:17:00.000   47.480958898   19.056524374   178.0574   5   9   2.2138   1.2404   1.2047   1.8997  -1.0237  -2.1774   0.00    0.0
2019/01/19 03:17:30.000   47.480959620   19.056523567   177.3973   5   9   2.2088   1.2379   1.2084   1.8896  -1.0228  -2.1811   0.00    0.0
2019/01/19 03:18:00.000   47.480957840   19.056523215   177.1051   5   9   2.2035   1.2351   1.2120   1.8785  -1.0214  -2.1838   0.00    0.0
2019/01/19 03:18:30.000   47.480956248   19.056523383   177.3062   5   9   2.1978   1.2321   1.2154   1.8663  -1.0193  -2.1857   0.00    0.0
2019/01/19 03:19:00.000   47.480955589   19.056523275   177.5676   5   9   2.1917   1.2288   1.2186   1.8531  -1.0167  -2.1868   0.00    0.0
2019/01/19 03:19:30.000   47.480956345   19.056524788   178.4295   5   9   2.1854   1.2253   1.2217   1.8389  -1.0135  -2.1871   0.00    0.0
2019/01/19 03:20:00.000   47.480957236   19.056525256   179.0306   5   9   2.1787   1.2215   1.2246   1.8238  -1.0098  -2.1865   0.00    0.0
2019/01/19 03:20:30.000   47.480957620   19.056524880   179.6181   5   9   2.1717   1.2175   1.2274   1.8079  -1.0055  -2.1852   0.00    0.0
2019/01/19 03:21:00.000   47.480956300   19.056523621   179.7425   5   9   2.1644   1.2133   1.2300   1.7911  -1.0007  -2.1831   0.00    0.0
2019/01/19 03:21:30.000   47.480955471   19.056523930   180.2495   5   9   2.1568   1.2089   1.2324   1.7734  -0.9955  -2.1803   0.00    0.0
2019/01/19 03:22:00.000   47.480954909   19.056525049   180.8393   5   9   2.1490   1.2042   1.2347   1.7551  -0.9897  -2.1769   0.00    0.0
2019/01/19 03:22:30.000   47.480955799   19.056527490   181.3896   5   9   2.1409   1.1994   1.2369   1.7360  -0.9835  -2.1727   0.00    0.0
2019/01/19 03:23:00.000   47.480956867   19.056529243   181.2883   5   9   2.1325   1.1944   1.2390   1.7162  -0.9768  -2.1680   0.00    0.0
2019/01/19 03:23:30.000   47.480957622   19.056528623   180.8453   5   9   2.1240   1.1892   1.2409   1.6958  -0.9696  -2.1626   0.00    0.0
2019/01/19 03:24:00.000   47.480958395   19.056527896   180.7872   5   9   2.1152   1.1838   1.2427   1.6749  -0.9621  -2.1567   0.00    0.0
2019/01/19 03:24:30.000   47.480958393   19.056526441   180.8775   5   9   2.1063   1.1783   1.2444   1.6534  -0.9542  -2.1502   0.00    0.0
2019/01/19 03:25:00.000   47.480958554   19.056526964   181.2359   5   9   2.0971   1.1727   1.2460   1.6315  -0.9459  -2.1433   0.00    0.0
2019/01/19 03:25:30.000   47.480958778   19.056526919   181.4437   5   9   2.0878   1.1669   1.2475   1.6091  -0.9372  -2.1359   0.00    0.0
2019/01/19 03:26:00.000   47.480960491   19.056527516   181.4533   5   9   2.0783   1.1610   1.2489   1.5863  -0.9283  -2.1280   0.00    0.0
2019/01/19 03:26:30.000   47.480961377   19.056527195   181.1794   5   9   2.0687   1.1550   1.2502   1.5632  -0.9190  -2.1198   0.00    0.0
2019/01/19 03:27:00.000   47.480959891   19.056527354   181.2063   5   9   2.0590   1.1488   1.2514   1.5398  -0.9094  -2.1112   0.00    0.0
2019/01/19 03:27:30.000   47.480958221   19.056527017   181.6265   5   9   2.0492   1.1426   1.2526   1.5161  -0.8995  -2.1022   0.00    0.0
2019/01/19 03:28:00.000   47.480957426   19.056529025   182.1609   5   9   2.0392   1.1363   1.2536   1.4921  -0.8894  -2.0930   0.00    0.0
2019/01/19 03:28:30.000   47.480957524   19.056533018   182.8139   5   9   2.0292   1.1299   1.2547   1.4680  -0.8790  -2.0834   0.00    0.0
2019/01/19 03:29:00.000   47.480957542   19.056534082   183.2025   5   9   2.0191   1.1234   1.2556   1.4437  -0.8684  -2.0737   0.00    0.0
2019/01/19 03:29:30.000   47.480956852   19.056533223   183.5373   5   9   2.0090   1.1169   1.2565   1.4193  -0.8576  -2.0637   0.00    0.0
