% program   : GINA 1.0
% inp file  : C:\Users\lus2bp\Source\Repos\GINA\70_EGNOS_Project\files\PositionComparisonInputFiles\bute0190\bute0190.19o
% inp file  : C:\Users\lus2bp\Source\Repos\GINA\70_EGNOS_Project\files\PositionComparisonInputFiles\bute0190\brdc0190.19n
% obs start : 2019/01/19 00:00:00.0 GPST (week2036 518400.0s)
% obs end   : 2019/01/19 23:59:30.0 GPST (week2036 604770.0s)
% pos mode  : single
% elev mask : 15.0 deg
% ionos opt : ems
% tropo opt : Neill
% ephemeris : broadcasted
% (lat/lon/height=WGS84/ellipsoidal,Q=1:fix,2:float,3:sbas,4:dgps,5:single,6:ppp,ns=# of satellites)
%  GPST                  latitude(deg) longitude(deg)  height(m)   Q  ns   sdn(m)   sde(m)   sdu(m)  sdne(m)  sdeu(m)  sdun(m) age(s)  ratio
2019/01/19 00:00:00.000   47.480964077   19.056543301   188.8868   5   7   2.2349   1.4553   0.8579   2.2066  -0.6014  -0.4978   0.00    0.0
2019/01/19 00:00:30.000   47.480966038   19.056543720   188.8192   5   7   2.2460   1.4648   0.8601   2.2504  -0.6112  -0.5206   0.00    0.0
2019/01/19 00:01:00.000   47.480968026   19.056545933   188.8832   5   7   2.2572   1.4743   0.8623   2.2942  -0.6212  -0.5436   0.00    0.0
2019/01/19 00:01:30.000   47.480968386   19.056548788   188.7840   5   7   2.2683   1.4836   0.8646   2.3380  -0.6313  -0.5668   0.00    0.0
2019/01/19 00:02:00.000   47.480968943   19.056547932   188.9353   5   7   2.2795   1.4929   0.8670   2.3817  -0.6415  -0.5900   0.00    0.0
2019/01/19 00:02:30.000   47.480969749   19.056545787   189.8862   5   7   2.2907   1.5021   0.8694   2.4252  -0.6518  -0.6133   0.00    0.0
2019/01/19 00:03:00.000   47.480967911   19.056545200   191.3139   5   7   2.3019   1.5112   0.8719   2.4685  -0.6622  -0.6368   0.00    0.0
2019/01/19 00:03:30.000   47.480968898   19.056543585   190.6152   5   7   2.3130   1.5201   0.8744   2.5115  -0.6726  -0.6603   0.00    0.0
2019/01/19 00:04:00.000   47.480969092   19.056543527   190.0334   5   7   2.3241   1.5289   0.8770   2.5541  -0.6831  -0.6838   0.00    0.0
2019/01/19 00:04:30.000   47.480969984   19.056544055   188.1877   5   7   2.3351   1.5375   0.8797   2.5963  -0.6936  -0.7074   0.00    0.0
2019/01/19 00:05:00.000   47.480968532   19.056544500   187.9853   5   7   2.3460   1.5459   0.8824   2.6379  -0.7041  -0.7310   0.00    0.0
2019/01/19 00:05:30.000   47.480966482   19.056546769   188.2849   5   7   2.3568   1.5541   0.8852   2.6790  -0.7146  -0.7546   0.00    0.0
2019/01/19 00:06:00.000   47.480965499   19.056549064   188.7286   5   7   2.3674   1.5620   0.8880   2.7193  -0.7250  -0.7781   0.00    0.0
2019/01/19 00:06:30.000   47.480965220   19.056550435   188.7251   5   7   2.3778   1.5698   0.8908   2.7589  -0.7354  -0.8016   0.00    0.0
2019/01/19 00:07:00.000   47.480965867   19.056550405   188.6477   5   7   2.3880   1.5773   0.8937   2.7976  -0.7457  -0.8250   0.00    0.0
2019/01/19 00:07:30.000   47.480967173   19.056547704   188.7281   5   7   2.3980   1.5845   0.8966   2.8353  -0.7559  -0.8482   0.00    0.0
2019/01/19 00:08:00.000   47.480967747   19.056544906   188.8768   5   7   2.4078   1.5914   0.8995   2.8720  -0.7659  -0.8713   0.00    0.0
2019/01/19 00:08:30.000   47.480967038   19.056542937   189.5236   5   7   2.4173   1.5980   0.9025   2.9075  -0.7758  -0.8941   0.00    0.0
2019/01/19 00:09:00.000   47.480966332   19.056540851   190.0555   5   7   2.4265   1.6042   0.9054   2.9418  -0.7855  -0.9168   0.00    0.0
2019/01/19 00:09:30.000   47.480965836   19.056541299   190.4040   5   7   2.4353   1.6102   0.9084   2.9748  -0.7950  -0.9391   0.00    0.0
2019/01/19 00:10:00.000   47.480965434   19.056543255   190.6291   5   7   2.4439   1.6158   0.9114   3.0063  -0.8043  -0.9612   0.00    0.0
2019/01/19 00:10:30.000   47.480966552   19.056543262   190.7738   5   7   2.4520   1.6210   0.9143   3.0364  -0.8132  -0.9830   0.00    0.0
2019/01/19 00:11:00.000   47.480967719   19.056543291   190.1162   5   7   2.4598   1.6258   0.9173   3.0648  -0.8219  -1.0044   0.00    0.0
2019/01/19 00:11:30.000   47.480967939   19.056544474   189.5412   5   7   2.4671   1.6302   0.9202   3.0915  -0.8303  -1.0254   0.00    0.0
2019/01/19 00:12:00.000   47.480969549   19.056569933   184.3853   5   8   1.4139   1.4036   0.9177   1.4173  -0.7542  -0.8418   0.00    0.0
2019/01/19 00:12:30.000   47.480969316   19.056570465   184.1614   5   8   1.4185   1.4049   0.9199   1.4269  -0.7561  -0.8486   0.00    0.0
2019/01/19 00:13:00.000   47.480969256   19.056571837   183.9204   5   8   1.4230   1.4061   0.9221   1.4360  -0.7577  -0.8552   0.00    0.0
2019/01/19 00:13:30.000   47.480968366   19.056575651   184.0869   5   8   1.4274   1.4069   0.9242   1.4446  -0.7591  -0.8616   0.00    0.0
2019/01/19 00:14:00.000   47.480968545   19.056576989   184.2361   5   8   1.4316   1.4076   0.9263   1.4525  -0.7602  -0.8678   0.00    0.0
2019/01/19 00:14:30.000   47.480969493   19.056577289   184.2895   5   8   1.4356   1.4080   0.9283   1.4599  -0.7609  -0.8737   0.00    0.0
2019/01/19 00:15:00.000   47.480969863   19.056576961   184.1591   5   8   1.4394   1.4082   0.9303   1.4666  -0.7614  -0.8794   0.00    0.0
2019/01/19 00:15:30.000   47.480969295   19.056575011   183.8620   5   8   1.4430   1.4082   0.9322   1.4727  -0.7616  -0.8849   0.00    0.0
2019/01/19 00:16:00.000   47.480969507   19.056573242   183.7059   5   8   1.4465   1.4079   0.9341   1.4782  -0.7615  -0.8901   0.00    0.0
2019/01/19 00:16:30.000   47.480969734   19.056571571   182.9880   5   8   1.4498   1.4074   0.9359   1.4831  -0.7611  -0.8951   0.00    0.0
2019/01/19 00:17:00.000   47.480968151   19.056573245   182.5166   5   8   1.4528   1.4066   0.9377   1.4873  -0.7603  -0.8998   0.00    0.0
2019/01/19 00:17:30.000   47.480966998   19.056572854   182.4544   5   8   1.4557   1.4056   0.9394   1.4909  -0.7593  -0.9042   0.00    0.0
2019/01/19 00:18:00.000   47.480966642   19.056572876   182.4755   5   8   1.4584   1.4044   0.9410   1.4938  -0.7580  -0.9084   0.00    0.0
2019/01/19 00:18:30.000   47.480966403   19.056573931   182.5454   5   8   1.4609   1.4029   0.9426   1.4960  -0.7564  -0.9123   0.00    0.0
2019/01/19 00:19:00.000   47.480965099   19.056573962   182.6650   5   8   1.4631   1.4012   0.9441   1.4976  -0.7544  -0.9160   0.00    0.0
2019/01/19 00:19:30.000   47.480964309   19.056572177   182.6246   5   8   1.4652   1.3993   0.9456   1.4985  -0.7522  -0.9193   0.00    0.0
2019/01/19 00:20:00.000   47.480964025   19.056571439   182.5241   5   8   1.4671   1.3971   0.9470   1.4987  -0.7496  -0.9224   0.00    0.0
2019/01/19 00:20:30.000   47.480964267   19.056570727   182.3935   5   8   1.4687   1.3947   0.9484   1.4983  -0.7468  -0.9253   0.00    0.0
2019/01/19 00:21:00.000   47.480963795   19.056570923   182.4087   5   8   1.4702   1.3921   0.9497   1.4972  -0.7436  -0.9278   0.00    0.0
2019/01/19 00:21:30.000   47.480962041   19.056572952   182.7694   5   8   1.4714   1.3892   0.9510   1.4955  -0.7402  -0.9301   0.00    0.0
2019/01/19 00:22:00.000   47.480960890   19.056574079   183.0494   5   8   1.4724   1.3861   0.9522   1.4931  -0.7365  -0.9322   0.00    0.0
2019/01/19 00:22:30.000   47.480960415   19.056575758   183.0923   5   8   1.4733   1.3828   0.9534   1.4901  -0.7325  -0.9339   0.00    0.0
2019/01/19 00:23:00.000   47.480961340   19.056573988   182.8570   5   8   1.4739   1.3793   0.9545   1.4864  -0.7282  -0.9354   0.00    0.0
2019/01/19 00:23:30.000   47.480961952   19.056571774   182.5282   5   8   1.4743   1.3756   0.9556   1.4822  -0.7236  -0.9366   0.00    0.0
2019/01/19 00:24:00.000   47.480962123   19.056571095   182.4454   5   8   1.4745   1.3716   0.9566   1.4773  -0.7188  -0.9376   0.00    0.0
2019/01/19 00:24:30.000   47.480961528   19.056571468   182.3618   5   8   1.4746   1.3675   0.9576   1.4719  -0.7137  -0.9384   0.00    0.0
2019/01/19 00:25:00.000   47.480960271   19.056574108   182.5619   5   8   1.4744   1.3632   0.9586   1.4659  -0.7084  -0.9388   0.00    0.0
2019/01/19 00:25:30.000   47.480959477   19.056576237   182.8799   5   8   1.4740   1.3587   0.9595   1.4593  -0.7028  -0.9391   0.00    0.0
2019/01/19 00:26:00.000   47.480958532   19.056576144   182.8900   5   8   1.4735   1.3540   0.9604   1.4522  -0.6970  -0.9391   0.00    0.0
2019/01/19 00:26:30.000   47.480958297   19.056573396   182.5295   5   8   1.4727   1.3492   0.9612   1.4445  -0.6910  -0.9389   0.00    0.0
2019/01/19 00:27:00.000   47.480957849   19.056570445   182.3649   5   8   1.4718   1.3441   0.9620   1.4364  -0.6848  -0.9384   0.00    0.0
2019/01/19 00:27:30.000   47.480957720   19.056569634   182.4597   5   8   1.4707   1.3390   0.9628   1.4277  -0.6783  -0.9378   0.00    0.0
2019/01/19 00:28:00.000   47.480958747   19.056567737   182.4109   5   8   1.4695   1.3336   0.9635   1.4186  -0.6717  -0.9369   0.00    0.0
2019/01/19 00:28:30.000   47.480959261   19.056566448   182.4122   5   8   1.4680   1.3281   0.9643   1.4090  -0.6648  -0.9358   0.00    0.0
2019/01/19 00:29:00.000   47.480960140   19.056564526   182.1979   5   8   1.4664   1.3225   0.9649   1.3990  -0.6578  -0.9346   0.00    0.0
2019/01/19 00:29:30.000   47.480961385   19.056565232   182.0595   5   8   1.4647   1.3167   0.9656   1.3885  -0.6507  -0.9331   0.00    0.0
2019/01/19 00:30:00.000   47.480962223   19.056566271   181.9162   5   8   1.4627   1.3108   0.9663   1.3777  -0.6433  -0.9315   0.00    0.0
2019/01/19 00:30:30.000   47.480961199   19.056568458   181.8819   5   8   1.4607   1.3048   0.9669   1.3665  -0.6358  -0.9297   0.00    0.0
2019/01/19 00:31:00.000   47.480959192   19.056571007   182.0705   5   8   1.4584   1.2987   0.9675   1.3550  -0.6282  -0.9278   0.00    0.0
2019/01/19 00:31:30.000   47.480959874   19.056566807   181.9050   5   8   1.4561   1.2925   0.9681   1.3431  -0.6204  -0.9257   0.00    0.0
2019/01/19 00:32:00.000   47.480958001   19.056566477   181.7749   5   8   1.4536   1.2861   0.9687   1.3309  -0.6125  -0.9234   0.00    0.0
2019/01/19 00:32:30.000   47.480954934   19.056568343   181.5368   5   8   1.4510   1.2797   0.9693   1.3184  -0.6045  -0.9211   0.00    0.0
2019/01/19 00:33:00.000   47.480952575   19.056570276   181.4491   5   8   1.4483   1.2732   0.9699   1.3057  -0.5964  -0.9186   0.00    0.0
2019/01/19 00:33:30.000   47.480951778   19.056572072   181.6135   5   8   1.4454   1.2666   0.9705   1.2927  -0.5882  -0.9159   0.00    0.0
2019/01/19 00:34:00.000   47.480951996   19.056573006   181.7534   5   8   1.4424   1.2600   0.9710   1.2794  -0.5800  -0.9132   0.00    0.0
2019/01/19 00:34:30.000   47.480953445   19.056570663   181.5880   5   8   1.4394   1.2533   0.9716   1.2660  -0.5716  -0.9104   0.00    0.0
2019/01/19 00:35:00.000   47.480953625   19.056569604   181.8426   5   8   1.4362   1.2465   0.9721   1.2523  -0.5632  -0.9074   0.00    0.0
2019/01/19 00:35:30.000   47.480953113   19.056568353   181.8501   5   8   1.4329   1.2397   0.9727   1.2385  -0.5547  -0.9044   0.00    0.0
2019/01/19 00:36:00.000   47.480952602   19.056566796   181.5925   5   8   1.4295   1.2328   0.9733   1.2245  -0.5461  -0.9013   0.00    0.0
2019/01/19 00:36:30.000   47.480952373   19.056565152   181.3699   5   8   1.4261   1.2259   0.9739   1.2104  -0.5375  -0.8982   0.00    0.0
2019/01/19 00:37:00.000   47.480951957   19.056564232   181.3042   5   8   1.4226   1.2189   0.9744   1.1961  -0.5289  -0.8949   0.00    0.0
2019/01/19 00:37:30.000   47.480951719   19.056563718   181.3305   5   8   1.4189   1.2119   0.9750   1.1818  -0.5202  -0.8916   0.00    0.0
2019/01/19 00:38:00.000   47.480951500   19.056566300   181.5394   5   8   1.4153   1.2049   0.9757   1.1673  -0.5115  -0.8883   0.00    0.0
2019/01/19 00:38:30.000   47.480952697   19.056567730   181.7252   5   8   1.4115   1.1979   0.9763   1.1528  -0.5028  -0.8849   0.00    0.0
2019/01/19 00:39:00.000   47.480952841   19.056567705   181.8141   5   8   1.4077   1.1909   0.9769   1.1382  -0.4940  -0.8815   0.00    0.0
2019/01/19 00:39:30.000   47.480951870   19.056566877   181.7158   5   8   1.4038   1.1839   0.9775   1.1236  -0.4853  -0.8781   0.00    0.0
2019/01/19 00:40:00.000   47.480952488   19.056564282   181.4891   5   8   1.3999   1.1768   0.9782   1.1089  -0.4765  -0.8746   0.00    0.0
2019/01/19 00:40:30.000   47.480952463   19.056564816   181.5586   5   8   1.3959   1.1698   0.9789   1.0942  -0.4678  -0.8711   0.00    0.0
2019/01/19 00:41:00.000   47.480952180   19.056568385   181.6150   5   8   1.3919   1.1627   0.9796   1.0795  -0.4591  -0.8676   0.00    0.0
2019/01/19 00:41:30.000   47.480952693   19.056568717   181.1783   5   8   1.3879   1.1557   0.9803   1.0648  -0.4503  -0.8641   0.00    0.0
2019/01/19 00:42:00.000   47.480950781   19.056570086   181.0507   5   8   1.3838   1.1487   0.9811   1.0501  -0.4416  -0.8605   0.00    0.0
2019/01/19 00:42:30.000   47.480949297   19.056570477   181.1567   5   8   1.3796   1.1418   0.9818   1.0355  -0.4329  -0.8570   0.00    0.0
2019/01/19 00:43:00.000   47.480950178   19.056569158   181.3577   5   8   1.3755   1.1348   0.9826   1.0208  -0.4243  -0.8535   0.00    0.0
2019/01/19 00:43:30.000   47.480953722   19.056569130   181.7705   5   8   1.3713   1.1279   0.9834   1.0062  -0.4156  -0.8500   0.00    0.0
2019/01/19 00:44:00.000   47.480956600   19.056566933   181.7241   5   8   1.3671   1.1210   0.9842   0.9917  -0.4070  -0.8465   0.00    0.0
2019/01/19 00:44:30.000   47.480957937   19.056564108   181.3850   5   8   1.3629   1.1141   0.9851   0.9772  -0.3985  -0.8430   0.00    0.0
2019/01/19 00:45:00.000   47.480956952   19.056565549   181.2336   5   8   1.3586   1.1073   0.9860   0.9628  -0.3899  -0.8395   0.00    0.0
2019/01/19 00:45:30.000   47.480956437   19.056567390   181.2260   5   8   1.3544   1.1005   0.9869   0.9485  -0.3814  -0.8361   0.00    0.0
2019/01/19 00:46:00.000   47.480957031   19.056567864   181.3974   5   8   1.3501   1.0937   0.9878   0.9342  -0.3730  -0.8326   0.00    0.0
2019/01/19 00:46:30.000   47.480956770   19.056568509   181.4779   5   8   1.3458   1.0870   0.9888   0.9201  -0.3646  -0.8292   0.00    0.0
2019/01/19 00:47:00.000   47.480957121   19.056566669   181.3721   5   8   1.3415   1.0804   0.9898   0.9060  -0.3562  -0.8259   0.00    0.0
2019/01/19 00:47:30.000   47.480956461   19.056566933   181.5604   5   8   1.3372   1.0738   0.9908   0.8920  -0.3479  -0.8225   0.00    0.0
2019/01/19 00:48:00.000   47.480956335   19.056566689   181.6518   5   8   1.3330   1.0672   0.9918   0.8782  -0.3396  -0.8192   0.00    0.0
2019/01/19 00:48:30.000   47.480957398   19.056564506   181.6407   5   8   1.3287   1.0607   0.9929   0.8644  -0.3314  -0.8160   0.00    0.0
2019/01/19 00:49:00.000   47.480958021   19.056563704   181.3402   5   8   1.3244   1.0543   0.9940   0.8508  -0.3232  -0.8127   0.00    0.0
2019/01/19 00:49:30.000   47.480958232   19.056564048   181.1806   5   8   1.3201   1.0479   0.9951   0.8373  -0.3151  -0.8095   0.00    0.0
2019/01/19 00:50:00.000   47.480956909   19.056564465   181.0444   5   8   1.3158   1.0416   0.9963   0.8239  -0.3071  -0.8064   0.00    0.0
2019/01/19 00:50:30.000   47.480956063   19.056565574   181.1314   5   8   1.3116   1.0354   0.9975   0.8106  -0.2991  -0.8033   0.00    0.0
2019/01/19 00:51:00.000   47.480956291   19.056565629   181.0808   5   8   1.3073   1.0292   0.9987   0.7974  -0.2911  -0.8002   0.00    0.0
2019/01/19 00:51:30.000   47.480956035   19.056565705   181.0530   5   8   1.3031   1.0230   0.9999   0.7844  -0.2832  -0.7972   0.00    0.0
2019/01/19 00:52:00.000   47.480954120   19.056567838   181.0764   5   8   1.2988   1.0170   1.0012   0.7715  -0.2754  -0.7942   0.00    0.0
2019/01/19 00:52:30.000   47.480952908   19.056568206   181.0778   5   8   1.2946   1.0110   1.0025   0.7588  -0.2676  -0.7913   0.00    0.0
2019/01/19 00:53:00.000   47.480952084   19.056568435   181.0934   5   8   1.2904   1.0050   1.0038   0.7461  -0.2599  -0.7884   0.00    0.0
2019/01/19 00:53:30.000   47.480945434   19.056562032   183.8903   5   7   1.9161   1.0217   1.0501   1.0363  -0.3170  -1.2172   0.00    0.0
2019/01/19 00:54:00.000   47.480946595   19.056563356   183.6864   5   7   1.9092   1.0143   1.0525   1.0111  -0.3077  -1.2180   0.00    0.0
2019/01/19 00:54:30.000   47.480947230   19.056565163   183.4920   5   7   1.9025   1.0071   1.0550   0.9862  -0.2984  -1.2190   0.00    0.0
2019/01/19 00:55:00.000   47.480946907   19.056566837   183.2972   5   7   1.8959   1.0000   1.0575   0.9618  -0.2892  -1.2203   0.00    0.0
2019/01/19 00:55:30.000   47.480945996   19.056565885   183.0935   5   7   1.8894   0.9930   1.0601   0.9377  -0.2799  -1.2218   0.00    0.0
2019/01/19 00:56:00.000   47.480944852   19.056564679   183.2174   5   7   1.8832   0.9861   1.0628   0.9139  -0.2708  -1.2236   0.00    0.0
2019/01/19 00:56:30.000   47.480943111   19.056563255   183.4037   5   7   1.8770   0.9794   1.0655   0.8906  -0.2616  -1.2255   0.00    0.0
2019/01/19 00:57:00.000   47.480942793   19.056562729   183.2137   5   7   1.8711   0.9729   1.0684   0.8676  -0.2525  -1.2277   0.00    0.0
2019/01/19 00:57:30.000   47.480944007   19.056562360   182.5616   5   7   1.8653   0.9664   1.0713   0.8449  -0.2435  -1.2301   0.00    0.0
2019/01/19 00:58:00.000   47.480944981   19.056562243   182.0035   5   7   1.8596   0.9601   1.0742   0.8225  -0.2344  -1.2328   0.00    0.0
2019/01/19 00:58:30.000   47.480944464   19.056563351   181.6500   5   7   1.8542   0.9539   1.0773   0.8005  -0.2254  -1.2356   0.00    0.0
2019/01/19 00:59:00.000   47.480944008   19.056563727   181.4497   5   7   1.8488   0.9479   1.0804   0.7787  -0.2164  -1.2387   0.00    0.0
2019/01/19 00:59:30.000   47.480945057   19.056562973   181.2360   5   7   1.8436   0.9419   1.0836   0.7573  -0.2074  -1.2421   0.00    0.0
2019/01/19 01:00:00.000   47.480946886   19.056564239   181.3619   5   7   1.8386   0.9361   1.0868   0.7362  -0.1984  -1.2456   0.00    0.0
2019/01/19 01:00:30.000   47.480949124   19.056564803   181.6121   5   7   1.8337   0.9305   1.0901   0.7153  -0.1895  -1.2494   0.00    0.0
2019/01/19 01:01:00.000   47.480958603   19.056549070   178.3135   5   8   1.5866   0.9071   0.7309   0.5302  -0.0334  -0.5133   0.00    0.0
2019/01/19 01:01:30.000   47.480960146   19.056548280   178.1491   5   8   1.5842   0.9035   0.7333   0.5196  -0.0320  -0.5193   0.00    0.0
2019/01/19 01:02:00.000   47.480960147   19.056548304   178.2071   5   8   1.5818   0.8999   0.7357   0.5091  -0.0306  -0.5253   0.00    0.0
2019/01/19 01:02:30.000   47.480958850   19.056547765   178.3750   5   8   1.5794   0.8963   0.7381   0.4987  -0.0291  -0.5313   0.00    0.0
2019/01/19 01:03:00.000   47.480956914   19.056546966   178.9570   5   8   1.5770   0.8928   0.7406   0.4882  -0.0276  -0.5373   0.00    0.0
2019/01/19 01:03:30.000   47.480955362   19.056548758   179.4650   5   8   1.5747   0.8893   0.7430   0.4778  -0.0260  -0.5432   0.00    0.0
2019/01/19 01:04:00.000   47.480955434   19.056548531   179.8644   5   8   1.5725   0.8858   0.7456   0.4675  -0.0244  -0.5492   0.00    0.0
2019/01/19 01:04:30.000   47.480954295   19.056547672   180.3749   5   8   1.5702   0.8823   0.7481   0.4572  -0.0227  -0.5552   0.00    0.0
2019/01/19 01:05:00.000   47.480952327   19.056546612   180.5153   5   8   1.5680   0.8789   0.7506   0.4469  -0.0210  -0.5612   0.00    0.0
2019/01/19 01:05:30.000   47.480952627   19.056544530   180.3351   5   8   1.5659   0.8755   0.7532   0.4367  -0.0193  -0.5672   0.00    0.0
2019/01/19 01:06:00.000   47.480954539   19.056542035   179.9940   5   8   1.5638   0.8721   0.7558   0.4265  -0.0175  -0.5732   0.00    0.0
2019/01/19 01:06:30.000   47.480955679   19.056540678   179.7441   5   8   1.5617   0.8687   0.7584   0.4164  -0.0157  -0.5793   0.00    0.0
2019/01/19 01:07:00.000   47.480956544   19.056540640   179.8214   5   8   1.5596   0.8654   0.7611   0.4063  -0.0139  -0.5853   0.00    0.0
2019/01/19 01:07:30.000   47.480956927   19.056540946   179.8838   5   8   1.5576   0.8621   0.7637   0.3963  -0.0120  -0.5913   0.00    0.0
2019/01/19 01:08:00.000   47.480957466   19.056541288   179.8090   5   8   1.5557   0.8589   0.7664   0.3863  -0.0100  -0.5974   0.00    0.0
2019/01/19 01:08:30.000   47.480958428   19.056540444   179.4781   5   8   1.5537   0.8557   0.7691   0.3764  -0.0081  -0.6034   0.00    0.0
2019/01/19 01:09:00.000   47.480960433   19.056539413   179.3115   5   8   1.5519   0.8525   0.7719   0.3665  -0.0060  -0.6095   0.00    0.0
2019/01/19 01:09:30.000   47.480961408   19.056539126   179.1688   5   8   1.5500   0.8494   0.7746   0.3567  -0.0040  -0.6156   0.00    0.0
2019/01/19 01:10:00.000   47.480960701   19.056539318   179.2266   5   8   1.5482   0.8463   0.7774   0.3469  -0.0019  -0.6216   0.00    0.0
2019/01/19 01:10:30.000   47.480959492   19.056540680   179.3285   5   8   1.5464   0.8432   0.7802   0.3372   0.0002  -0.6277   0.00    0.0
2019/01/19 01:11:00.000   47.480957008   19.056543744   179.6310   5   8   1.5447   0.8402   0.7830   0.3276   0.0024  -0.6338   0.00    0.0
2019/01/19 01:11:30.000   47.480954683   19.056544286   179.6758   5   8   1.5430   0.8372   0.7859   0.3180   0.0046  -0.6400   0.00    0.0
2019/01/19 01:12:00.000   47.480954169   19.056543127   179.3724   5   8   1.5413   0.8342   0.7888   0.3085   0.0068  -0.6461   0.00    0.0
2019/01/19 01:12:30.000   47.480953016   19.056542222   178.9852   5   8   1.5397   0.8313   0.7916   0.2990   0.0091  -0.6522   0.00    0.0
2019/01/19 01:13:00.000   47.480952833   19.056541672   178.8257   5   8   1.5381   0.8284   0.7946   0.2896   0.0114  -0.6584   0.00    0.0
2019/01/19 01:13:30.000   47.480953224   19.056541994   178.9171   5   8   1.5366   0.8256   0.7975   0.2802   0.0137  -0.6645   0.00    0.0
2019/01/19 01:14:00.000   47.480954198   19.056541986   179.0603   5   8   1.5351   0.8228   0.8004   0.2709   0.0161  -0.6707   0.00    0.0
2019/01/19 01:14:30.000   47.480957040   19.056540828   179.0651   5   8   1.5336   0.8200   0.8034   0.2616   0.0185  -0.6769   0.00    0.0
2019/01/19 01:15:00.000   47.480959021   19.056540382   179.1904   5   8   1.5321   0.8173   0.8064   0.2525   0.0209  -0.6831   0.00    0.0
2019/01/19 01:15:30.000   47.480959070   19.056541388   179.4615   5   8   1.5307   0.8146   0.8094   0.2433   0.0234  -0.6893   0.00    0.0
2019/01/19 01:16:00.000   47.480958488   19.056542884   179.7086   5   8   1.5294   0.8120   0.8125   0.2343   0.0259  -0.6955   0.00    0.0
2019/01/19 01:16:30.000   47.480924839   19.056550579   176.4165   5   7   1.5618   1.2425   0.8195   0.5299  -0.0474  -0.7277   0.00    0.0
2019/01/19 01:17:00.000   47.480924996   19.056550420   176.4254   5   7   1.5602   1.2383   0.8226   0.5184  -0.0453  -0.7341   0.00    0.0
2019/01/19 01:17:30.000   47.480924991   19.056550938   176.4739   5   7   1.5586   1.2341   0.8258   0.5069  -0.0431  -0.7405   0.00    0.0
2019/01/19 01:18:00.000   47.480924429   19.056550677   176.4017   5   7   1.5570   1.2298   0.8289   0.4955  -0.0410  -0.7469   0.00    0.0
2019/01/19 01:18:30.000   47.480925533   19.056550663   176.3878   5   7   1.5555   1.2256   0.8321   0.4842  -0.0387  -0.7533   0.00    0.0
2019/01/19 01:19:00.000   47.480926653   19.056550615   176.4311   5   7   1.5540   1.2213   0.8354   0.4729  -0.0365  -0.7597   0.00    0.0
2019/01/19 01:19:30.000   47.480929492   19.056548015   176.2100   5   7   1.5526   1.2171   0.8386   0.4617  -0.0342  -0.7661   0.00    0.0
2019/01/19 01:20:00.000   47.480930670   19.056546315   176.3106   5   7   1.5511   1.2128   0.8419   0.4506  -0.0319  -0.7725   0.00    0.0
2019/01/19 01:20:30.000   47.480931292   19.056544655   176.3312   5   7   1.5497   1.2086   0.8451   0.4395  -0.0296  -0.7789   0.00    0.0
2019/01/19 01:21:00.000   47.480932390   19.056543795   176.4120   5   7   1.5484   1.2043   0.8484   0.4286  -0.0272  -0.7854   0.00    0.0
2019/01/19 01:21:30.000   47.480933279   19.056543011   176.4822   5   7   1.5470   1.2001   0.8517   0.4177  -0.0248  -0.7918   0.00    0.0
2019/01/19 01:22:00.000   47.480932564   19.056542097   176.5090   5   7   1.5457   1.1958   0.8551   0.4068  -0.0224  -0.7983   0.00    0.0
2019/01/19 01:22:30.000   47.480932014   19.056540460   176.6304   5   7   1.5444   1.1916   0.8584   0.3961  -0.0199  -0.8047   0.00    0.0
2019/01/19 01:23:00.000   47.480932034   19.056538624   176.5828   5   7   1.5431   1.1873   0.8618   0.3855  -0.0175  -0.8112   0.00    0.0
2019/01/19 01:23:30.000   47.480932254   19.056536461   176.4795   5   7   1.5419   1.1831   0.8652   0.3749  -0.0150  -0.8177   0.00    0.0
2019/01/19 01:24:00.000   47.480932791   19.056537696   176.7765   5   7   1.5407   1.1789   0.8686   0.3644  -0.0124  -0.8242   0.00    0.0
2019/01/19 01:24:30.000   47.480934169   19.056539422   176.9979   5   7   1.5395   1.1747   0.8720   0.3540  -0.0099  -0.8307   0.00    0.0
2019/01/19 01:25:00.000   47.480936768   19.056541494   176.9624   5   7   1.5383   1.1704   0.8754   0.3438  -0.0073  -0.8371   0.00    0.0
2019/01/19 01:25:30.000   47.480938942   19.056542693   176.5407   5   7   1.5372   1.1662   0.8789   0.3336  -0.0047  -0.8436   0.00    0.0
2019/01/19 01:26:00.000   47.480938161   19.056543114   176.0015   5   7   1.5360   1.1621   0.8823   0.3235  -0.0021  -0.8501   0.00    0.0
2019/01/19 01:26:30.000   47.480937532   19.056543143   175.6097   5   7   1.5349   1.1579   0.8858   0.3135   0.0005  -0.8566   0.00    0.0
2019/01/19 01:27:00.000   47.480934557   19.056544891   175.3211   5   7   1.5338   1.1537   0.8893   0.3036   0.0031  -0.8631   0.00    0.0
2019/01/19 01:27:30.000   47.480933092   19.056546499   175.2206   5   7   1.5327   1.1496   0.8928   0.2938   0.0058  -0.8696   0.00    0.0
2019/01/19 01:28:00.000   47.480934595   19.056547323   175.1598   5   7   1.5317   1.1455   0.8963   0.2841   0.0085  -0.8761   0.00    0.0
2019/01/19 01:28:30.000   47.480935574   19.056547997   175.3190   5   7   1.5306   1.1414   0.8999   0.2745   0.0112  -0.8826   0.00    0.0
2019/01/19 01:29:00.000   47.480935659   19.056548262   175.4787   5   7   1.5296   1.1373   0.9034   0.2650   0.0139  -0.8891   0.00    0.0
2019/01/19 01:29:30.000   47.480937446   19.056546776   175.5989   5   7   1.5286   1.1332   0.9070   0.2556   0.0166  -0.8956   0.00    0.0
2019/01/19 01:30:00.000   47.480939553   19.056545746   175.6049   5   7   1.5276   1.1292   0.9105   0.2463   0.0193  -0.9020   0.00    0.0
2019/01/19 01:30:30.000   47.480939841   19.056546794   175.6727   5   7   1.5266   1.1251   0.9141   0.2372   0.0221  -0.9085   0.00    0.0
2019/01/19 01:31:00.000   47.480939601   19.056546267   175.7433   5   7   1.5256   1.1211   0.9177   0.2281   0.0248  -0.9149   0.00    0.0
2019/01/19 01:31:30.000   47.480939221   19.056544243   175.6684   5   7   1.5246   1.1171   0.9213   0.2192   0.0276  -0.9214   0.00    0.0
2019/01/19 01:32:00.000   47.480939464   19.056543949   175.7768   5   7   1.5236   1.1132   0.9249   0.2103   0.0303  -0.9278   0.00    0.0
2019/01/19 01:32:30.000   47.480940446   19.056543643   175.8036   5   7   1.5227   1.1092   0.9286   0.2016   0.0331  -0.9342   0.00    0.0
2019/01/19 01:33:00.000   47.480941151   19.056542660   175.6303   5   7   1.5217   1.1053   0.9322   0.1929   0.0359  -0.9406   0.00    0.0
2019/01/19 01:33:30.000   47.480952962   19.056535300   176.3410   5   8   1.5055   0.7964   0.9283   0.0207  -0.0515  -0.9725   0.00    0.0
2019/01/19 01:34:00.000   47.480952443   19.056534018   176.0791   5   8   1.5060   0.7964   0.9314   0.0218  -0.0517  -0.9786   0.00    0.0
2019/01/19 01:34:30.000   47.480952747   19.056532324   175.9436   5   8   1.5065   0.7965   0.9344   0.0229  -0.0520  -0.9845   0.00    0.0
2019/01/19 01:35:00.000   47.480952867   19.056532097   175.8830   5   8   1.5069   0.7965   0.9374   0.0240  -0.0522  -0.9904   0.00    0.0
2019/01/19 01:35:30.000   47.480955021   19.056531560   175.5759   5   8   1.5073   0.7965   0.9404   0.0251  -0.0524  -0.9961   0.00    0.0
2019/01/19 01:36:00.000   47.480955553   19.056532839   175.5289   5   8   1.5075   0.7965   0.9433   0.0261  -0.0526  -1.0017   0.00    0.0
2019/01/19 01:36:30.000   47.480955676   19.056533011   175.7300   5   8   1.5077   0.7965   0.9463   0.0271  -0.0527  -1.0071   0.00    0.0
2019/01/19 01:37:00.000   47.480954250   19.056535177   175.9580   5   8   1.5078   0.7964   0.9492   0.0280  -0.0529  -1.0124   0.00    0.0
2019/01/19 01:37:30.000   47.480953043   19.056536271   176.0504   5   8   1.5077   0.7964   0.9520   0.0290  -0.0530  -1.0176   0.00    0.0
2019/01/19 01:38:00.000   47.480951644   19.056537061   176.0825   5   8   1.5077   0.7964   0.9549   0.0299  -0.0532  -1.0227   0.00    0.0
2019/01/19 01:38:30.000   47.480950786   19.056537415   176.1015   5   8   1.5075   0.7963   0.9577   0.0308  -0.0533  -1.0276   0.00    0.0
2019/01/19 01:39:00.000   47.480951637   19.056536059   175.9551   5   8   1.5072   0.7962   0.9605   0.0316  -0.0534  -1.0324   0.00    0.0
2019/01/19 01:39:30.000   47.480951997   19.056535856   175.9461   5   8   1.5068   0.7962   0.9632   0.0324  -0.0535  -1.0370   0.00    0.0
2019/01/19 01:40:00.000   47.480952875   19.056535666   175.9773   5   8   1.5064   0.7961   0.9660   0.0332  -0.0535  -1.0415   0.00    0.0
2019/01/19 01:40:30.000   47.480952210   19.056535348   175.9813   5   8   1.5058   0.7960   0.9686   0.0340  -0.0536  -1.0458   0.00    0.0
2019/01/19 01:41:00.000   47.480950569   19.056535653   176.0245   5   8   1.5052   0.7959   0.9713   0.0347  -0.0536  -1.0500   0.00    0.0
2019/01/19 01:41:30.000   47.480950338   19.056534239   175.9046   5   8   1.5045   0.7958   0.9739   0.0353  -0.0536  -1.0540   0.00    0.0
2019/01/19 01:42:00.000   47.480949629   19.056532864   175.8620   5   8   1.5037   0.7956   0.9765   0.0360  -0.0536  -1.0579   0.00    0.0
2019/01/19 01:42:30.000   47.480948607   19.056534059   176.0875   5   8   1.5028   0.7955   0.9791   0.0366  -0.0536  -1.0616   0.00    0.0
2019/01/19 01:43:00.000   47.480948121   19.056534902   176.2180   5   8   1.5018   0.7953   0.9816   0.0372  -0.0535  -1.0652   0.00    0.0
2019/01/19 01:43:30.000   47.480947656   19.056535867   176.2978   5   8   1.5007   0.7952   0.9841   0.0377  -0.0534  -1.0686   0.00    0.0
2019/01/19 01:44:00.000   47.480948124   19.056537446   176.2141   5   8   1.4995   0.7950   0.9865   0.0382  -0.0533  -1.0718   0.00    0.0
2019/01/19 01:44:30.000   47.480949374   19.056537493   175.8888   5   8   1.4982   0.7948   0.9889   0.0387  -0.0532  -1.0749   0.00    0.0
2019/01/19 01:45:00.000   47.480953208   19.056533175   175.0402   5   9   1.2236   0.7910   0.6710   0.1047  -0.1086  -0.4487   0.00    0.0
2019/01/19 01:45:30.000   47.480953820   19.056532286   175.0203   5   9   1.2233   0.7907   0.6730   0.1059  -0.1094  -0.4518   0.00    0.0
2019/01/19 01:46:00.000   47.480955758   19.056529996   174.7905   5   9   1.2229   0.7904   0.6749   0.1071  -0.1101  -0.4548   0.00    0.0
2019/01/19 01:46:30.000   47.480956136   19.056528208   174.5617   5   9   1.2225   0.7900   0.6768   0.1083  -0.1109  -0.4578   0.00    0.0
2019/01/19 01:47:00.000   47.480955988   19.056527954   174.7131   5   9   1.2221   0.7897   0.6788   0.1094  -0.1117  -0.4608   0.00    0.0
2019/01/19 01:47:30.000   47.480958805   19.056532087   174.0162   5   8   1.6377   0.7919   0.6819   0.1806  -0.1098  -0.4195   0.00    0.0
2019/01/19 01:48:00.000   47.480959194   19.056532368   174.0018   5   8   1.6374   0.7918   0.6837   0.1857  -0.1106  -0.4253   0.00    0.0
2019/01/19 01:48:30.000   47.480957623   19.056531310   174.1976   5   8   1.6370   0.7918   0.6855   0.1907  -0.1113  -0.4310   0.00    0.0
2019/01/19 01:49:00.000   47.480957255   19.056531519   174.0625   5   8   1.6365   0.7917   0.6873   0.1957  -0.1121  -0.4367   0.00    0.0
2019/01/19 01:49:30.000   47.480957548   19.056532306   173.7663   5   8   1.6359   0.7916   0.6891   0.2006  -0.1129  -0.4424   0.00    0.0
2019/01/19 01:50:00.000   47.480959690   19.056531926   173.3853   5   8   1.6353   0.7916   0.6910   0.2054  -0.1137  -0.4480   0.00    0.0
2019/01/19 01:50:30.000   47.480962187   19.056534761   173.0087   5   8   1.6346   0.7915   0.6928   0.2101  -0.1145  -0.4535   0.00    0.0
2019/01/19 01:51:00.000   47.480963044   19.056536443   172.7608   5   8   1.6338   0.7914   0.6947   0.2148  -0.1152  -0.4590   0.00    0.0
2019/01/19 01:51:30.000   47.480964488   19.056535995   172.4835   5   8   1.6329   0.7913   0.6965   0.2193  -0.1160  -0.4644   0.00    0.0
2019/01/19 01:52:00.000   47.480963694   19.056536282   172.5303   5   8   1.6319   0.7913   0.6984   0.2238  -0.1168  -0.4697   0.00    0.0
2019/01/19 01:52:30.000   47.480963203   19.056536186   172.7266   5   8   1.6309   0.7912   0.7002   0.2281  -0.1176  -0.4749   0.00    0.0
2019/01/19 01:53:00.000   47.480961596   19.056535721   173.0165   5   8   1.6297   0.7911   0.7021   0.2324  -0.1184  -0.4801   0.00    0.0
2019/01/19 01:53:30.000   47.480961556   19.056535265   173.1125   5   8   1.6285   0.7910   0.7040   0.2366  -0.1191  -0.4852   0.00    0.0
2019/01/19 01:54:00.000   47.480963436   19.056533760   173.1757   5   8   1.6272   0.7909   0.7059   0.2406  -0.1199  -0.4902   0.00    0.0
2019/01/19 01:54:30.000   47.480964310   19.056533421   173.1506   5   8   1.6258   0.7908   0.7078   0.2446  -0.1207  -0.4952   0.00    0.0
2019/01/19 01:55:00.000   47.480965779   19.056532492   172.9197   5   8   1.6243   0.7907   0.7097   0.2484  -0.1214  -0.5001   0.00    0.0
2019/01/19 01:55:30.000   47.480965822   19.056532982   172.6790   5   8   1.6227   0.7906   0.7116   0.2522  -0.1221  -0.5048   0.00    0.0
2019/01/19 01:56:00.000   47.480965440   19.056533819   172.4517   5   8   1.6211   0.7905   0.7135   0.2558  -0.1229  -0.5095   0.00    0.0
2019/01/19 01:56:30.000   47.480965084   19.056534234   172.4566   5   8   1.6193   0.7903   0.7154   0.2594  -0.1236  -0.5142   0.00    0.0
2019/01/19 01:57:00.000   47.480964359   19.056535085   172.6024   5   8   1.6175   0.7902   0.7174   0.2628  -0.1243  -0.5187   0.00    0.0
2019/01/19 01:57:30.000   47.480965159   19.056534483   172.7566   5   8   1.6156   0.7901   0.7193   0.2661  -0.1250  -0.5231   0.00    0.0
2019/01/19 01:58:00.000   47.480964687   19.056534160   173.2422   5   8   1.6136   0.7899   0.7212   0.2694  -0.1257  -0.5275   0.00    0.0
2019/01/19 01:58:30.000   47.480964527   19.056532208   173.4973   5   8   1.6115   0.7897   0.7231   0.2725  -0.1263  -0.5317   0.00    0.0
2019/01/19 01:59:00.000   47.480964024   19.056532225   173.5744   5   8   1.6093   0.7896   0.7250   0.2755  -0.1270  -0.5359   0.00    0.0
2019/01/19 01:59:30.000   47.480963863   19.056532913   173.4471   5   8   1.6071   0.7894   0.7269   0.2783  -0.1276  -0.5400   0.00    0.0
2019/01/19 02:00:00.000   47.480965985   19.056535667   172.9520   5   8   1.6047   0.7892   0.7289   0.2811  -0.1282  -0.5440   0.00    0.0
2019/01/19 02:00:30.000   47.480965403   19.056536982   172.8869   5   8   1.6023   0.7890   0.7308   0.2837  -0.1288  -0.5479   0.00    0.0
2019/01/19 02:01:00.000   47.480964768   19.056537067   173.0577   5   8   1.5997   0.7887   0.7327   0.2862  -0.1294  -0.5517   0.00    0.0
2019/01/19 02:01:30.000   47.480963717   19.056537012   173.0251   5   8   1.5971   0.7885   0.7346   0.2887  -0.1300  -0.5554   0.00    0.0
2019/01/19 02:02:00.000   47.480962570   19.056536994   172.6909   5   8   1.5944   0.7882   0.7365   0.2909  -0.1305  -0.5590   0.00    0.0
2019/01/19 02:02:30.000   47.480961740   19.056536437   172.4317   5   8   1.5917   0.7880   0.7384   0.2931  -0.1310  -0.5625   0.00    0.0
2019/01/19 02:03:00.000   47.480961538   19.056535292   172.2875   5   8   1.5888   0.7877   0.7403   0.2952  -0.1315  -0.5659   0.00    0.0
2019/01/19 02:03:30.000   47.480962152   19.056533287   172.2691   5   8   1.5859   0.7874   0.7422   0.2971  -0.1320  -0.5692   0.00    0.0
2019/01/19 02:04:00.000   47.480962805   19.056531769   172.4362   5   8   1.5829   0.7871   0.7441   0.2989  -0.1324  -0.5724   0.00    0.0
2019/01/19 02:04:30.000   47.480961802   19.056533058   172.7951   5   8   1.5798   0.7868   0.7460   0.3006  -0.1328  -0.5755   0.00    0.0
2019/01/19 02:05:00.000   47.480961060   19.056533198   173.1321   5   8   1.5766   0.7864   0.7479   0.3022  -0.1332  -0.5785   0.00    0.0
2019/01/19 02:05:30.000   47.480963409   19.056532009   173.2089   5   7   1.5991   1.2540   0.8429   0.5831  -0.5098  -0.6916   0.00    0.0
2019/01/19 02:06:00.000   47.480966674   19.056531228   173.4596   5   8   1.5164   0.8567   0.8168   0.1358  -0.3095  -0.5878   0.00    0.0
2019/01/19 02:06:30.000   47.480968277   19.056531813   173.3486   5   8   1.5146   0.8601   0.8213   0.1499  -0.3159  -0.5970   0.00    0.0
2019/01/19 02:07:00.000   47.480967793   19.056530849   173.1687   5   8   1.5130   0.8635   0.8258   0.1641  -0.3225  -0.6064   0.00    0.0
2019/01/19 02:07:30.000   47.480964404   19.056530068   173.0617   5   8   1.5116   0.8671   0.8305   0.1785  -0.3293  -0.6160   0.00    0.0
2019/01/19 02:08:00.000   47.480960381   19.056530503   173.1118   5   8   1.5103   0.8708   0.8352   0.1929  -0.3362  -0.6257   0.00    0.0
2019/01/19 02:08:30.000   47.480958023   19.056532080   173.2385   5   8   1.5091   0.8746   0.8400   0.2075  -0.3434  -0.6357   0.00    0.0
2019/01/19 02:09:00.000   47.480957794   19.056533012   173.5431   5   8   1.5080   0.8785   0.8449   0.2222  -0.3507  -0.6458   0.00    0.0
2019/01/19 02:09:30.000   47.480958776   19.056533368   173.7546   5   8   1.5071   0.8826   0.8499   0.2370  -0.3582  -0.6561   0.00    0.0
2019/01/19 02:10:00.000   47.480960830   19.056531543   173.5186   5   8   1.5063   0.8867   0.8550   0.2520  -0.3660  -0.6666   0.00    0.0
2019/01/19 02:10:30.000   47.480960988   19.056530234   173.4510   5   8   1.5057   0.8910   0.8602   0.2671  -0.3739  -0.6773   0.00    0.0
2019/01/19 02:11:00.000   47.480959613   19.056530169   173.5456   5   8   1.5052   0.8954   0.8654   0.2824  -0.3821  -0.6882   0.00    0.0
2019/01/19 02:11:30.000   47.480957542   19.056529373   173.4822   5   8   1.5049   0.8999   0.8708   0.2978  -0.3904  -0.6993   0.00    0.0
2019/01/19 02:12:00.000   47.480955638   19.056529661   173.7710   5   8   1.5047   0.9045   0.8763   0.3135  -0.3990  -0.7107   0.00    0.0
2019/01/19 02:12:30.000   47.480955348   19.056530251   173.9360   5   8   1.5047   0.9093   0.8818   0.3292  -0.4079  -0.7223   0.00    0.0
2019/01/19 02:13:00.000   47.480956423   19.056529450   173.8918   5   8   1.5048   0.9142   0.8875   0.3452  -0.4170  -0.7342   0.00    0.0
2019/01/19 02:13:30.000   47.480957904   19.056528726   173.6099   5   8   1.5051   0.9192   0.8933   0.3614  -0.4263  -0.7463   0.00    0.0
2019/01/19 02:14:00.000   47.480959697   19.056543259   176.1521   5   9   1.3851   0.8765   0.6653   0.2046  -0.2583  -0.4018   0.00    0.0
2019/01/19 02:14:30.000   47.480960489   19.056544315   176.0341   5   9   1.3837   0.8805   0.6686   0.2170  -0.2637  -0.4084   0.00    0.0
2019/01/19 02:15:00.000   47.480959672   19.056545737   176.1048   5   9   1.3823   0.8846   0.6720   0.2294  -0.2693  -0.4150   0.00    0.0
2019/01/19 02:15:30.000   47.480959151   19.056546063   176.0760   5   9   1.3811   0.8888   0.6754   0.2419  -0.2750  -0.4218   0.00    0.0
2019/01/19 02:16:00.000   47.480959192   19.056543262   175.7241   5   9   1.3799   0.8931   0.6790   0.2546  -0.2808  -0.4287   0.00    0.0
2019/01/19 02:16:30.000   47.480959478   19.056541836   175.6311   5   9   1.3789   0.8974   0.6826   0.2673  -0.2868  -0.4357   0.00    0.0
2019/01/19 02:17:00.000   47.480959333   19.056542093   175.5985   5   9   1.3780   0.9019   0.6862   0.2801  -0.2929  -0.4428   0.00    0.0
2019/01/19 02:17:30.000   47.480958952   19.056542627   175.7561   5   9   1.3773   0.9065   0.6899   0.2931  -0.2991  -0.4501   0.00    0.0
2019/01/19 02:18:00.000   47.480958761   19.056542596   175.5638   5   9   1.3766   0.9111   0.6937   0.3061  -0.3055  -0.4575   0.00    0.0
2019/01/19 02:18:30.000   47.480958945   19.056542935   175.3072   5   9   1.3761   0.9159   0.6976   0.3193  -0.3121  -0.4651   0.00    0.0
2019/01/19 02:19:00.000   47.480959511   19.056542479   174.8475   5   9   1.3756   0.9208   0.7015   0.3327  -0.3189  -0.4727   0.00    0.0
2019/01/19 02:19:30.000   47.480959285   19.056544284   174.7299   5   9   1.3753   0.9258   0.7056   0.3461  -0.3258  -0.4806   0.00    0.0
2019/01/19 02:20:00.000   47.480958926   19.056544472   174.7427   5   9   1.3751   0.9308   0.7096   0.3597  -0.3328  -0.4886   0.00    0.0
2019/01/19 02:20:30.000   47.480958782   19.056542179   174.8040   5   9   1.3751   0.9360   0.7138   0.3734  -0.3401  -0.4967   0.00    0.0
2019/01/19 02:21:00.000   47.480959206   19.056539271   174.9708   5   9   1.3751   0.9413   0.7180   0.3873  -0.3475  -0.5050   0.00    0.0
2019/01/19 02:21:30.000   47.480959080   19.056539636   175.1760   5   9   1.3753   0.9467   0.7224   0.4013  -0.3551  -0.5134   0.00    0.0
2019/01/19 02:22:00.000   47.480959060   19.056540570   175.4544   5   9   1.3756   0.9522   0.7268   0.4155  -0.3629  -0.5220   0.00    0.0
2019/01/19 02:22:30.000   47.480958354   19.056541046   175.9017   5   9   1.3760   0.9578   0.7312   0.4299  -0.3708  -0.5308   0.00    0.0
2019/01/19 02:23:00.000   47.480956961   19.056541464   176.2342   5   9   1.3765   0.9635   0.7358   0.4444  -0.3790  -0.5397   0.00    0.0
2019/01/19 02:23:30.000   47.480957066   19.056540695   176.3834   5   9   1.3771   0.9693   0.7404   0.4591  -0.3873  -0.5489   0.00    0.0
2019/01/19 02:24:00.000   47.480957766   19.056539617   176.2698   5   9   1.3779   0.9752   0.7452   0.4739  -0.3959  -0.5582   0.00    0.0
2019/01/19 02:24:30.000   47.480958676   19.056539712   176.1681   5   9   1.3788   0.9812   0.7500   0.4890  -0.4047  -0.5676   0.00    0.0
2019/01/19 02:25:00.000   47.480959157   19.056539884   175.9267   5   9   1.3798   0.9874   0.7549   0.5042  -0.4136  -0.5773   0.00    0.0
2019/01/19 02:25:30.000   47.480959242   19.056540769   175.7867   5   9   1.3809   0.9936   0.7599   0.5196  -0.4228  -0.5872   0.00    0.0
2019/01/19 02:26:00.000   47.480958637   19.056540181   175.3148   5   9   1.3822   0.9999   0.7649   0.5352  -0.4322  -0.5973   0.00    0.0
2019/01/19 02:26:30.000   47.480953847   19.056536226   174.3177   5  10   1.3514   0.7995   0.6438   0.3697  -0.1836  -0.4822   0.00    0.0
2019/01/19 02:27:00.000   47.480953705   19.056535556   174.1807   5  10   1.3512   0.8036   0.6468   0.3792  -0.1880  -0.4878   0.00    0.0
2019/01/19 02:27:30.000   47.480953548   19.056535406   174.4818   5  10   1.3510   0.8077   0.6498   0.3888  -0.1925  -0.4934   0.00    0.0
2019/01/19 02:28:00.000   47.480953435   19.056536270   174.8102   5  10   1.3509   0.8119   0.6528   0.3983  -0.1971  -0.4991   0.00    0.0
2019/01/19 02:28:30.000   47.480953597   19.056536258   174.9627   5  10   1.3509   0.8162   0.6558   0.4080  -0.2018  -0.5049   0.00    0.0
2019/01/19 02:29:00.000   47.480952530   19.056535703   174.7840   5  10   1.3509   0.8205   0.6590   0.4177  -0.2065  -0.5108   0.00    0.0
2019/01/19 02:29:30.000   47.480951359   19.056533414   174.3806   5  10   1.3510   0.8249   0.6621   0.4274  -0.2114  -0.5168   0.00    0.0
2019/01/19 02:30:00.000   47.480951240   19.056532639   174.0501   5  10   1.3511   0.8293   0.6653   0.4372  -0.2163  -0.5228   0.00    0.0
2019/01/19 02:30:30.000   47.480951233   19.056533473   173.8883   5  10   1.3513   0.8337   0.6685   0.4471  -0.2213  -0.5289   0.00    0.0
2019/01/19 02:31:00.000   47.480951536   19.056534860   174.1248   5  10   1.3516   0.8383   0.6718   0.4570  -0.2264  -0.5351   0.00    0.0
2019/01/19 02:31:30.000   47.480952116   19.056536355   174.5764   5  10   1.3519   0.8428   0.6752   0.4670  -0.2316  -0.5414   0.00    0.0
2019/01/19 02:32:00.000   47.480952544   19.056536250   175.0166   5  10   1.3523   0.8475   0.6785   0.4770  -0.2369  -0.5478   0.00    0.0
2019/01/19 02:32:30.000   47.480953070   19.056534613   174.9863   5  10   1.3528   0.8521   0.6820   0.4871  -0.2422  -0.5542   0.00    0.0
2019/01/19 02:33:00.000   47.480952531   19.056533939   174.7863   5  10   1.3533   0.8568   0.6854   0.4972  -0.2477  -0.5607   0.00    0.0
2019/01/19 02:33:30.000   47.480951296   19.056534320   174.6202   5  10   1.3538   0.8616   0.6889   0.5074  -0.2532  -0.5673   0.00    0.0
2019/01/19 02:34:00.000   47.480950142   19.056535121   174.5388   5  10   1.3544   0.8664   0.6925   0.5176  -0.2589  -0.5740   0.00    0.0
2019/01/19 02:34:30.000   47.480950543   19.056535161   174.6164   5  10   1.3551   0.8712   0.6961   0.5279  -0.2646  -0.5808   0.00    0.0
2019/01/19 02:35:00.000   47.480951008   19.056534398   174.6259   5  10   1.3558   0.8761   0.6998   0.5382  -0.2704  -0.5877   0.00    0.0
2019/01/19 02:35:30.000   47.480951840   19.056533326   174.6735   5  10   1.3565   0.8810   0.7034   0.5486  -0.2763  -0.5946   0.00    0.0
2019/01/19 02:36:00.000   47.480952382   19.056532872   174.9224   5  10   1.3573   0.8860   0.7072   0.5590  -0.2823  -0.6016   0.00    0.0
2019/01/19 02:36:30.000   47.480952794   19.056532965   175.1879   5  10   1.3582   0.8910   0.7110   0.5695  -0.2884  -0.6087   0.00    0.0
2019/01/19 02:37:00.000   47.480953299   19.056533181   175.1615   5  10   1.3590   0.8960   0.7148   0.5799  -0.2946  -0.6159   0.00    0.0
2019/01/19 02:37:30.000   47.480952483   19.056533363   175.1753   5  10   1.3600   0.9011   0.7187   0.5905  -0.3008  -0.6232   0.00    0.0
2019/01/19 02:38:00.000   47.480950089   19.056533676   175.0191   5  10   1.3609   0.9062   0.7226   0.6010  -0.3072  -0.6305   0.00    0.0
2019/01/19 02:38:30.000   47.480948119   19.056534942   174.7553   5  10   1.3619   0.9113   0.7266   0.6116  -0.3136  -0.6379   0.00    0.0
2019/01/19 02:39:00.000   47.480946958   19.056535680   174.6172   5  10   1.3630   0.9165   0.7306   0.6222  -0.3201  -0.6454   0.00    0.0
2019/01/19 02:39:30.000   47.480947181   19.056536516   174.7051   5  10   1.3640   0.9217   0.7346   0.6329  -0.3267  -0.6530   0.00    0.0
2019/01/19 02:40:00.000   47.480948039   19.056535454   174.7675   5  10   1.3651   0.9269   0.7387   0.6435  -0.3334  -0.6606   0.00    0.0
2019/01/19 02:40:30.000   47.480948942   19.056533833   174.8585   5  10   1.3662   0.9321   0.7428   0.6542  -0.3402  -0.6683   0.00    0.0
2019/01/19 02:41:00.000   47.480949967   19.056531864   174.8593   5  10   1.3674   0.9373   0.7470   0.6648  -0.3470  -0.6761   0.00    0.0
2019/01/19 02:41:30.000   47.480949944   19.056531649   174.9380   5  10   1.3685   0.9426   0.7512   0.6755  -0.3540  -0.6839   0.00    0.0
2019/01/19 02:42:00.000   47.480949146   19.056531933   175.0795   5  10   1.3697   0.9478   0.7554   0.6862  -0.3610  -0.6918   0.00    0.0
2019/01/19 02:42:30.000   47.480947468   19.056533247   175.0368   5  10   1.3709   0.9531   0.7597   0.6968  -0.3680  -0.6997   0.00    0.0
2019/01/19 02:43:00.000   47.480947564   19.056533374   174.8116   5  10   1.3721   0.9583   0.7640   0.7075  -0.3752  -0.7077   0.00    0.0
2019/01/19 02:43:30.000   47.480949009   19.056533414   174.5163   5  10   1.3733   0.9636   0.7684   0.7181  -0.3824  -0.7158   0.00    0.0
2019/01/19 02:44:00.000   47.480950111   19.056533195   174.4723   5  10   1.3746   0.9689   0.7728   0.7287  -0.3897  -0.7239   0.00    0.0
2019/01/19 02:44:30.000   47.480949298   19.056532165   174.5251   5  10   1.3758   0.9741   0.7772   0.7393  -0.3970  -0.7320   0.00    0.0
2019/01/19 02:45:00.000   47.480947837   19.056529294   174.2342   5  10   1.3770   0.9794   0.7816   0.7498  -0.4044  -0.7402   0.00    0.0
2019/01/19 02:45:30.000   47.480946512   19.056527839   174.0060   5  10   1.3782   0.9847   0.7861   0.7602  -0.4118  -0.7484   0.00    0.0
2019/01/19 02:46:00.000   47.480946276   19.056527870   173.9864   5  10   1.3795   0.9899   0.7906   0.7706  -0.4193  -0.7567   0.00    0.0
2019/01/19 02:46:30.000   47.480947150   19.056529016   174.2862   5  10   1.3807   0.9951   0.7952   0.7810  -0.4268  -0.7649   0.00    0.0
2019/01/19 02:47:00.000   47.480948068   19.056528479   174.3649   5  10   1.3819   1.0003   0.7997   0.7912  -0.4344  -0.7732   0.00    0.0
2019/01/19 02:47:30.000   47.480948013   19.056528657   174.5564   5  10   1.3830   1.0054   0.8043   0.8014  -0.4420  -0.7815   0.00    0.0
2019/01/19 02:48:00.000   47.480946993   19.056529535   174.4342   5  10   1.3842   1.0105   0.8089   0.8115  -0.4496  -0.7898   0.00    0.0
2019/01/19 02:48:30.000   47.480946935   19.056530821   174.5763   5  10   1.3853   1.0156   0.8135   0.8214  -0.4573  -0.7981   0.00    0.0
2019/01/19 02:49:00.000   47.480947865   19.056532575   174.7692   5  10   1.3864   1.0207   0.8181   0.8313  -0.4649  -0.8064   0.00    0.0
2019/01/19 02:49:30.000   47.480949376   19.056532777   174.7865   5  10   1.3874   1.0257   0.8228   0.8410  -0.4726  -0.8147   0.00    0.0
2019/01/19 02:50:00.000   47.480950982   19.056532146   174.8553   5  10   1.3885   1.0306   0.8275   0.8506  -0.4803  -0.8230   0.00    0.0
2019/01/19 02:50:30.000   47.480951983   19.056530785   174.8673   5  10   1.3894   1.0355   0.8321   0.8600  -0.4879  -0.8312   0.00    0.0
2019/01/19 02:51:00.000   47.480952740   19.056527631   174.7488   5  10   1.3904   1.0403   0.8368   0.8693  -0.4956  -0.8394   0.00    0.0
2019/01/19 02:51:30.000   47.480953308   19.056526340   175.0355   5  10   1.3912   1.0451   0.8415   0.8783  -0.5032  -0.8476   0.00    0.0
2019/01/19 02:52:00.000   47.480952814   19.056526599   175.3636   5  10   1.3920   1.0498   0.8461   0.8872  -0.5108  -0.8557   0.00    0.0
2019/01/19 02:52:30.000   47.480952409   19.056527157   175.3303   5  10   1.3928   1.0544   0.8508   0.8960  -0.5184  -0.8637   0.00    0.0
2019/01/19 02:53:00.000   47.480952096   19.056527602   175.2386   5  10   1.3935   1.0589   0.8555   0.9044  -0.5259  -0.8717   0.00    0.0
2019/01/19 02:53:30.000   47.480951534   19.056525407   174.9477   5  10   1.3941   1.0634   0.8601   0.9127  -0.5334  -0.8796   0.00    0.0
2019/01/19 02:54:00.000   47.480951192   19.056523454   174.8067   5  10   1.3947   1.0677   0.8648   0.9208  -0.5407  -0.8875   0.00    0.0
2019/01/19 02:54:30.000   47.480951819   19.056522854   174.7928   5  10   1.3951   1.0720   0.8694   0.9286  -0.5481  -0.8952   0.00    0.0
2019/01/19 02:55:00.000   47.480952567   19.056523220   174.9452   5  11   1.2239   1.0743   0.7523   0.8935  -0.5271  -0.6045   0.00    0.0
2019/01/19 02:55:30.000   47.480953550   19.056524398   175.2309   5  10   1.5441   1.0930   0.7555   1.0677  -0.5328  -0.6099   0.00    0.0
2019/01/19 02:56:00.000   47.480952796   19.056523665   175.8385   5  10   1.5486   1.0979   0.7586   1.0810  -0.5394  -0.6197   0.00    0.0
2019/01/19 02:56:30.000   47.480952657   19.056523303   175.7851   5  10   1.5530   1.1028   0.7617   1.0940  -0.5458  -0.6295   0.00    0.0
2019/01/19 02:57:00.000   47.480953823   19.056523834   175.3082   5  10   1.5573   1.1075   0.7648   1.1069  -0.5523  -0.6391   0.00    0.0
2019/01/19 02:57:30.000   47.480953515   19.056524409   175.3790   5  10   1.5615   1.1122   0.7679   1.1195  -0.5586  -0.6487   0.00    0.0
2019/01/19 02:58:00.000   47.480953429   19.056526029   175.1671   5  10   1.5656   1.1168   0.7709   1.1318  -0.5649  -0.6582   0.00    0.0
2019/01/19 02:58:30.000   47.480953636   19.056527816   175.0758   5  10   1.5695   1.1212   0.7739   1.1439  -0.5711  -0.6675   0.00    0.0
2019/01/19 02:59:00.000   47.480954474   19.056527633   174.9010   5  10   1.5733   1.1256   0.7770   1.1556  -0.5772  -0.6768   0.00    0.0
2019/01/19 02:59:30.000   47.480955435   19.056528290   175.1712   5  10   1.5769   1.1298   0.7799   1.1670  -0.5832  -0.6859   0.00    0.0
2019/01/19 03:00:00.000   47.480956211   19.056530188   175.2368   5  10   1.5804   1.1339   0.7829   1.1781  -0.5891  -0.6948   0.00    0.0
2019/01/19 03:00:30.000   47.480956072   19.056531361   175.1340   5  10   1.5837   1.1379   0.7858   1.1887  -0.5949  -0.7036   0.00    0.0
2019/01/19 03:01:00.000   47.480955408   19.056530800   175.5664   5  10   1.5868   1.1417   0.7886   1.1990  -0.6005  -0.7122   0.00    0.0
2019/01/19 03:01:30.000   47.480954670   19.056528053   176.2391   5  10   1.5898   1.1454   0.7914   1.2089  -0.6060  -0.7205   0.00    0.0
2019/01/19 03:02:00.000   47.480954438   19.056524810   176.8467   5  10   1.5926   1.1489   0.7942   1.2184  -0.6113  -0.7287   0.00    0.0
2019/01/19 03:02:30.000   47.480954357   19.056523341   177.0910   5  10   1.5952   1.1523   0.7969   1.2273  -0.6164  -0.7367   0.00    0.0
2019/01/19 03:03:00.000   47.480954291   19.056523584   176.9671   5  10   1.5975   1.1555   0.7996   1.2359  -0.6214  -0.7444   0.00    0.0
2019/01/19 03:03:30.000   47.480953456   19.056523741   176.6509   5  10   1.5997   1.1585   0.8022   1.2439  -0.6262  -0.7519   0.00    0.0
2019/01/19 03:04:00.000   47.480954192   19.056523066   176.2936   5  10   1.6017   1.1614   0.8047   1.2514  -0.6307  -0.7592   0.00    0.0
2019/01/19 03:04:30.000   47.480954654   19.056522922   176.2348   5  10   1.6035   1.1641   0.8072   1.2584  -0.6351  -0.7661   0.00    0.0
2019/01/19 03:05:00.000   47.480954280   19.056522825   176.3510   5  10   1.6050   1.1666   0.8095   1.2648  -0.6392  -0.7728   0.00    0.0
2019/01/19 03:05:30.000   47.480954276   19.056522009   176.4431   5  10   1.6064   1.1689   0.8119   1.2707  -0.6431  -0.7792   0.00    0.0
2019/01/19 03:06:00.000   47.480954897   19.056520509   177.1188   5  10   1.6075   1.1710   0.8141   1.2760  -0.6468  -0.7853   0.00    0.0
2019/01/19 03:06:30.000   47.480956853   19.056519374   177.7491   5  10   1.6084   1.1729   0.8163   1.2807  -0.6502  -0.7911   0.00    0.0
2019/01/19 03:07:00.000   47.480957643   19.056518906   177.7014   5  10   1.6090   1.1746   0.8184   1.2848  -0.6534  -0.7966   0.00    0.0
2019/01/19 03:07:30.000   47.480957890   19.056520764   177.8440   5  10   1.6094   1.1762   0.8204   1.2883  -0.6563  -0.8017   0.00    0.0
2019/01/19 03:08:00.000   47.480957384   19.056522386   178.1648   5  10   1.6095   1.1775   0.8223   1.2911  -0.6589  -0.8065   0.00    0.0
2019/01/19 03:08:30.000   47.480956755   19.056523589   178.5913   5  10   1.6095   1.1786   0.8241   1.2934  -0.6613  -0.8110   0.00    0.0
2019/01/19 03:09:00.000   47.480957672   19.056523720   178.7125   5  10   1.6091   1.1795   0.8259   1.2950  -0.6633  -0.8151   0.00    0.0
2019/01/19 03:09:30.000   47.480958666   19.056520489   178.0743   5  10   1.6086   1.1801   0.8275   1.2960  -0.6651  -0.8188   0.00    0.0
2019/01/19 03:10:00.000   47.480958862   19.056518859   177.9546   5  10   1.6077   1.1806   0.8290   1.2963  -0.6666  -0.8222   0.00    0.0
2019/01/19 03:10:30.000   47.480959199   19.056519690   177.8594   5  10   1.6067   1.1808   0.8305   1.2960  -0.6678  -0.8252   0.00    0.0
2019/01/19 03:11:00.000   47.480959843   19.056519893   177.9799   5  10   1.6054   1.1809   0.8319   1.2950  -0.6687  -0.8278   0.00    0.0
2019/01/19 03:11:30.000   47.480960030   19.056519097   177.9682   5  10   1.6038   1.1807   0.8331   1.2934  -0.6693  -0.8301   0.00    0.0
2019/01/19 03:12:00.000   47.480959101   19.056518332   177.4241   5  10   1.6020   1.1803   0.8343   1.2912  -0.6696  -0.8320   0.00    0.0
2019/01/19 03:12:30.000   47.480957300   19.056517491   176.7741   5  10   1.6000   1.1797   0.8353   1.2884  -0.6696  -0.8336   0.00    0.0
2019/01/19 03:13:00.000   47.480955393   19.056517042   176.6637   5  10   1.5977   1.1789   0.8363   1.2849  -0.6693  -0.8347   0.00    0.0
2019/01/19 03:13:30.000   47.480955181   19.056518565   177.1959   5  10   1.5951   1.1779   0.8372   1.2808  -0.6687  -0.8356   0.00    0.0
2019/01/19 03:14:00.000   47.480956152   19.056520513   177.4717   5  10   1.5924   1.1766   0.8379   1.2760  -0.6678  -0.8360   0.00    0.0
2019/01/19 03:14:30.000   47.480957633   19.056521835   177.7876   5  10   1.5894   1.1752   0.8386   1.2707  -0.6666  -0.8361   0.00    0.0
2019/01/19 03:15:00.000   47.480958650   19.056523187   178.3333   5  10   1.5862   1.1735   0.8391   1.2648  -0.6651  -0.8358   0.00    0.0
2019/01/19 03:15:30.000   47.480958582   19.056523310   178.6135   5  10   1.5828   1.1717   0.8396   1.2583  -0.6633  -0.8352   0.00    0.0
2019/01/19 03:16:00.000   47.480957984   19.056523003   178.5724   5  10   1.5791   1.1696   0.8400   1.2513  -0.6612  -0.8342   0.00    0.0
2019/01/19 03:16:30.000   47.480958135   19.056523303   177.8883   5  10   1.5752   1.1674   0.8402   1.2438  -0.6589  -0.8329   0.00    0.0
2019/01/19 03:17:00.000   47.480959461   19.056522058   176.9689   5  10   1.5712   1.1650   0.8404   1.2357  -0.6562  -0.8313   0.00    0.0
2019/01/19 03:17:30.000   47.480960135   19.056521286   176.3359   5  10   1.5669   1.1624   0.8405   1.2271  -0.6533  -0.8294   0.00    0.0
2019/01/19 03:18:00.000   47.480958219   19.056521051   176.1248   5  10   1.5625   1.1596   0.8405   1.2180  -0.6502  -0.8271   0.00    0.0
2019/01/19 03:18:30.000   47.480956607   19.056521235   176.3356   5  10   1.5578   1.1567   0.8404   1.2084  -0.6467  -0.8246   0.00    0.0
2019/01/19 03:19:00.000   47.480955805   19.056521261   176.6816   5  10   1.5530   1.1536   0.8402   1.1984  -0.6431  -0.8217   0.00    0.0
2019/01/19 03:19:30.000   47.480957696   19.056521785   176.7269   5  10   1.5480   1.1503   0.8400   1.1880  -0.6392  -0.8186   0.00    0.0
2019/01/19 03:20:00.000   47.480959000   19.056521925   176.9571   5  10   1.5428   1.1469   0.8396   1.1772  -0.6350  -0.8152   0.00    0.0
2019/01/19 03:20:30.000   47.480966048   19.056527622   180.0518   5  11   1.3797   0.8830   0.6416   0.6733  -0.2379  -0.4446   0.00    0.0
2019/01/19 03:21:00.000   47.480964645   19.056526703   180.3241   5  11   1.3777   0.8834   0.6428   0.6719  -0.2383  -0.4466   0.00    0.0
2019/01/19 03:21:30.000   47.480963007   19.056526283   180.5127   5  11   1.3755   0.8838   0.6440   0.6704  -0.2388  -0.4485   0.00    0.0
2019/01/19 03:22:00.000   47.480962282   19.056526260   180.5482   5  11   1.3732   0.8840   0.6452   0.6686  -0.2391  -0.4503   0.00    0.0
2019/01/19 03:22:30.000   47.480962744   19.056527458   180.5411   5  11   1.3708   0.8842   0.6463   0.6667  -0.2393  -0.4520   0.00    0.0
2019/01/19 03:23:00.000   47.480963240   19.056528526   180.1700   5  11   1.3683   0.8844   0.6474   0.6645  -0.2395  -0.4536   0.00    0.0
2019/01/19 03:23:30.000   47.480963184   19.056527593   179.6509   5  11   1.3657   0.8844   0.6485   0.6622  -0.2396  -0.4551   0.00    0.0
2019/01/19 03:24:00.000   47.480963473   19.056526777   179.5926   5  11   1.3630   0.8844   0.6496   0.6596  -0.2397  -0.4564   0.00    0.0
2019/01/19 03:24:30.000   47.480964001   19.056525893   179.8910   5  11   1.3603   0.8843   0.6506   0.6568  -0.2396  -0.4577   0.00    0.0
2019/01/19 03:25:00.000   47.480964782   19.056526086   180.0667   5  11   1.3574   0.8841   0.6516   0.6539  -0.2395  -0.4588   0.00    0.0
2019/01/19 03:25:30.000   47.480964573   19.056526415   180.4570   5  11   1.3544   0.8838   0.6526   0.6508  -0.2393  -0.4599   0.00    0.0
2019/01/19 03:26:00.000   47.480966004   19.056527130   180.5294   5  11   1.3514   0.8835   0.6536   0.6474  -0.2390  -0.4608   0.00    0.0
2019/01/19 03:26:30.000   47.480967654   19.056526883   180.2295   5  11   1.3483   0.8831   0.6546   0.6439  -0.2387  -0.4617   0.00    0.0
2019/01/19 03:27:00.000   47.480967020   19.056527426   180.3436   5  11   1.3450   0.8826   0.6555   0.6402  -0.2383  -0.4624   0.00    0.0
2019/01/19 03:27:30.000   47.480965957   19.056527079   180.7142   5  11   1.3418   0.8821   0.6564   0.6364  -0.2378  -0.4631   0.00    0.0
2019/01/19 03:28:00.000   47.480964985   19.056528880   181.1766   5  11   1.3384   0.8815   0.6573   0.6324  -0.2372  -0.4636   0.00    0.0
2019/01/19 03:28:30.000   47.480964880   19.056531653   181.3983   5  11   1.3349   0.8808   0.6581   0.6282  -0.2366  -0.4640   0.00    0.0
2019/01/19 03:29:00.000   47.480965345   19.056532242   181.5693   5  11   1.3314   0.8801   0.6590   0.6238  -0.2358  -0.4644   0.00    0.0
2019/01/19 03:29:30.000   47.480966099   19.056530949   181.6208   5  11   1.3278   0.8793   0.6598   0.6193  -0.2351  -0.4646   0.00    0.0
