% program   : GINA 1.0
% inp file  : C:\Users\lus2bp\Source\Repos\GINA\70_EGNOS_Project\files\PositionComparisonInputFiles\bute0190\bute0190.19o
% inp file  : C:\Users\lus2bp\Source\Repos\GINA\70_EGNOS_Project\files\PositionComparisonInputFiles\bute0190\brdc0190.19n
% obs start : 2019/01/19 00:00:00.0 GPST (week2036 518400.0s)
% obs end   : 2019/01/19 23:59:30.0 GPST (week2036 604770.0s)
% pos mode  : single
% elev mask : 15.0 deg
% ionos opt : ems
% tropo opt : Neill
% ephemeris : broadcasted
% (lat/lon/height=WGS84/ellipsoidal,Q=1:fix,2:float,3:sbas,4:dgps,5:single,6:ppp,ns=# of satellites)
%  GPST                  latitude(deg) longitude(deg)  height(m)   Q  ns   sdn(m)   sde(m)   sdu(m)  sdne(m)  sdeu(m)  sdun(m) age(s)  ratio
2019/01/19 00:00:00.000   47.480964077   19.056543301   188.8868   5   7   2.2349   1.4553   0.8579   2.2066  -0.6014  -0.4978   0.00    0.0
2019/01/19 00:00:30.000   47.480966038   19.056543720   188.8192   5   7   2.2460   1.4648   0.8601   2.2504  -0.6112  -0.5206   0.00    0.0
2019/01/19 00:01:00.000   47.480968026   19.056545933   188.8832   5   7   2.2572   1.4743   0.8623   2.2942  -0.6212  -0.5436   0.00    0.0
2019/01/19 00:01:30.000   47.480968386   19.056548788   188.7840   5   7   2.2683   1.4836   0.8646   2.3380  -0.6313  -0.5668   0.00    0.0
2019/01/19 00:02:00.000   47.480968943   19.056547932   188.9353   5   7   2.2795   1.4929   0.8670   2.3817  -0.6415  -0.5900   0.00    0.0
2019/01/19 00:02:30.000   47.480969749   19.056545787   189.8862   5   7   2.2907   1.5021   0.8694   2.4252  -0.6518  -0.6133   0.00    0.0
2019/01/19 00:03:00.000   47.480969726   19.056542770   190.3794   5   7   2.3019   1.5112   0.8719   2.4685  -0.6622  -0.6368   0.00    0.0
2019/01/19 00:03:30.000   47.480970703   19.056541139   189.6732   5   7   2.3131   1.5201   0.8744   2.5115  -0.6726  -0.6603   0.00    0.0
2019/01/19 00:04:00.000   47.480970887   19.056541062   189.0844   5   7   2.3241   1.5289   0.8770   2.5541  -0.6831  -0.6838   0.00    0.0
2019/01/19 00:04:30.000   47.480970343   19.056542076   189.0466   5   7   2.3351   1.5375   0.8797   2.5963  -0.6936  -0.7074   0.00    0.0
2019/01/19 00:05:00.000   47.480968891   19.056542523   188.8375   5   7   2.3460   1.5459   0.8824   2.6379  -0.7041  -0.7310   0.00    0.0
2019/01/19 00:05:30.000   47.480966810   19.056544732   189.1320   5   7   2.3568   1.5541   0.8852   2.6790  -0.7146  -0.7546   0.00    0.0
2019/01/19 00:06:00.000   47.480965759   19.056546895   189.5726   5   7   2.3674   1.5620   0.8880   2.7193  -0.7250  -0.7781   0.00    0.0
2019/01/19 00:06:30.000   47.480965435   19.056548175   189.5656   5   7   2.3778   1.5698   0.8908   2.7589  -0.7354  -0.8016   0.00    0.0
2019/01/19 00:07:00.000   47.480966083   19.056548142   189.4826   5   7   2.3880   1.5773   0.8937   2.7976  -0.7457  -0.8250   0.00    0.0
2019/01/19 00:07:30.000   47.480967390   19.056545437   189.5578   5   7   2.3980   1.5845   0.8966   2.8353  -0.7559  -0.8482   0.00    0.0
2019/01/19 00:08:00.000   47.480967965   19.056542634   189.7014   5   7   2.4078   1.5914   0.8995   2.8720  -0.7659  -0.8713   0.00    0.0
2019/01/19 00:08:30.000   47.480967258   19.056540660   190.3434   5   7   2.4173   1.5980   0.9025   2.9075  -0.7758  -0.8941   0.00    0.0
2019/01/19 00:09:00.000   47.480966585   19.056538614   190.8710   5   7   2.4265   1.6043   0.9054   2.9418  -0.7855  -0.9168   0.00    0.0
2019/01/19 00:09:30.000   47.480966212   19.056539237   191.2154   5   7   2.4353   1.6102   0.9084   2.9748  -0.7950  -0.9391   0.00    0.0
2019/01/19 00:10:00.000   47.480965932   19.056541374   191.4354   5   7   2.4439   1.6158   0.9114   3.0063  -0.8043  -0.9612   0.00    0.0
2019/01/19 00:10:30.000   47.480967068   19.056541406   191.5748   5   7   2.4520   1.6210   0.9143   3.0364  -0.8132  -0.9830   0.00    0.0
2019/01/19 00:11:00.000   47.480968238   19.056541436   190.9124   5   7   2.4598   1.6258   0.9173   3.0648  -0.8219  -1.0044   0.00    0.0
2019/01/19 00:11:30.000   47.480968462   19.056542618   190.3328   5   7   2.4671   1.6302   0.9202   3.0915  -0.8303  -1.0254   0.00    0.0
2019/01/19 00:12:00.000   47.480969872   19.056564932   185.8532   5   8   1.4139   1.4036   0.9177   1.4173  -0.7542  -0.8418   0.00    0.0
2019/01/19 00:12:30.000   47.480969726   19.056565576   185.6565   5   8   1.4185   1.4049   0.9199   1.4269  -0.7561  -0.8486   0.00    0.0
2019/01/19 00:13:00.000   47.480969839   19.056567164   185.4769   5   8   1.4230   1.4061   0.9221   1.4360  -0.7577  -0.8552   0.00    0.0
2019/01/19 00:13:30.000   47.480969068   19.056571128   185.6835   5   8   1.4274   1.4069   0.9242   1.4446  -0.7591  -0.8616   0.00    0.0
2019/01/19 00:14:00.000   47.480969255   19.056572486   185.8303   5   8   1.4316   1.4076   0.9263   1.4525  -0.7602  -0.8678   0.00    0.0
2019/01/19 00:14:30.000   47.480970212   19.056572806   185.8812   5   8   1.4356   1.4080   0.9283   1.4599  -0.7609  -0.8737   0.00    0.0
2019/01/19 00:15:00.000   47.480970584   19.056572367   185.7779   5   8   1.4394   1.4082   0.9303   1.4666  -0.7614  -0.8794   0.00    0.0
2019/01/19 00:15:30.000   47.480970015   19.056570303   185.5092   5   8   1.4430   1.4082   0.9322   1.4728  -0.7616  -0.8849   0.00    0.0
2019/01/19 00:16:00.000   47.480970235   19.056568536   185.3549   5   8   1.4465   1.4079   0.9341   1.4783  -0.7615  -0.8901   0.00    0.0
2019/01/19 00:16:30.000   47.480970470   19.056566899   184.6332   5   8   1.4498   1.4074   0.9359   1.4831  -0.7611  -0.8951   0.00    0.0
2019/01/19 00:17:00.000   47.480968889   19.056568621   184.1601   5   8   1.4528   1.4066   0.9376   1.4873  -0.7603  -0.8998   0.00    0.0
2019/01/19 00:17:30.000   47.480967739   19.056568277   184.0962   5   8   1.4557   1.4056   0.9393   1.4909  -0.7593  -0.9042   0.00    0.0
2019/01/19 00:18:00.000   47.480967219   19.056568384   184.1179   5   8   1.4584   1.4044   0.9410   1.4938  -0.7580  -0.9084   0.00    0.0
2019/01/19 00:18:30.000   47.480966576   19.056569584   184.1931   5   8   1.4609   1.4029   0.9426   1.4960  -0.7563  -0.9123   0.00    0.0
2019/01/19 00:19:00.000   47.480965069   19.056569660   184.3248   5   8   1.4631   1.4012   0.9441   1.4976  -0.7544  -0.9160   0.00    0.0
2019/01/19 00:19:30.000   47.480964409   19.056567737   184.3040   5   8   1.4652   1.3993   0.9456   1.4985  -0.7522  -0.9193   0.00    0.0
2019/01/19 00:20:00.000   47.480964237   19.056566872   184.2173   5   8   1.4671   1.3971   0.9470   1.4987  -0.7496  -0.9224   0.00    0.0
2019/01/19 00:20:30.000   47.480964489   19.056566188   184.0827   5   8   1.4687   1.3947   0.9484   1.4983  -0.7468  -0.9253   0.00    0.0
2019/01/19 00:21:00.000   47.480964026   19.056566412   184.0937   5   8   1.4702   1.3921   0.9497   1.4972  -0.7436  -0.9278   0.00    0.0
2019/01/19 00:21:30.000   47.480962391   19.056568543   184.4898   5   8   1.4714   1.3892   0.9510   1.4955  -0.7402  -0.9301   0.00    0.0
2019/01/19 00:22:00.000   47.480961354   19.056569771   184.8050   5   8   1.4725   1.3861   0.9522   1.4931  -0.7365  -0.9322   0.00    0.0
2019/01/19 00:22:30.000   47.480960912   19.056571496   184.8542   5   8   1.4733   1.3828   0.9534   1.4901  -0.7325  -0.9339   0.00    0.0
2019/01/19 00:23:00.000   47.480961840   19.056569752   184.6145   5   8   1.4739   1.3793   0.9545   1.4865  -0.7282  -0.9354   0.00    0.0
2019/01/19 00:23:30.000   47.480962456   19.056567564   184.2815   5   8   1.4743   1.3756   0.9556   1.4822  -0.7236  -0.9366   0.00    0.0
2019/01/19 00:24:00.000   47.480962631   19.056566910   184.1944   5   8   1.4746   1.3716   0.9566   1.4773  -0.7188  -0.9376   0.00    0.0
2019/01/19 00:24:30.000   47.480962039   19.056567308   184.1066   5   8   1.4746   1.3675   0.9576   1.4719  -0.7137  -0.9383   0.00    0.0
2019/01/19 00:25:00.000   47.480960909   19.056570350   184.2580   5   8   1.4744   1.3632   0.9586   1.4659  -0.7084  -0.9388   0.00    0.0
2019/01/19 00:25:30.000   47.480960354   19.056573218   184.4877   5   8   1.4740   1.3587   0.9595   1.4593  -0.7028  -0.9391   0.00    0.0
2019/01/19 00:26:00.000   47.480959560   19.056573581   184.4426   5   8   1.4735   1.3540   0.9604   1.4522  -0.6970  -0.9391   0.00    0.0
2019/01/19 00:26:30.000   47.480959336   19.056570863   184.0771   5   8   1.4727   1.3492   0.9612   1.4445  -0.6910  -0.9389   0.00    0.0
2019/01/19 00:27:00.000   47.480958899   19.056567941   183.9078   5   8   1.4718   1.3441   0.9620   1.4364  -0.6848  -0.9384   0.00    0.0
2019/01/19 00:27:30.000   47.480958781   19.056567159   183.9981   5   8   1.4707   1.3390   0.9628   1.4277  -0.6783  -0.9378   0.00    0.0
2019/01/19 00:28:00.000   47.480959820   19.056565289   183.9448   5   8   1.4695   1.3336   0.9635   1.4186  -0.6717  -0.9369   0.00    0.0
2019/01/19 00:28:30.000   47.480960352   19.056564462   183.8122   5   8   1.4680   1.3281   0.9643   1.4090  -0.6648  -0.9358   0.00    0.0
2019/01/19 00:29:00.000   47.480961253   19.056562984   183.4668   5   8   1.4664   1.3225   0.9649   1.3990  -0.6578  -0.9346   0.00    0.0
2019/01/19 00:29:30.000   47.480962510   19.056563714   183.3229   5   8   1.4647   1.3167   0.9656   1.3885  -0.6506  -0.9331   0.00    0.0
2019/01/19 00:30:00.000   47.480963361   19.056564762   183.1785   5   8   1.4627   1.3108   0.9663   1.3777  -0.6433  -0.9315   0.00    0.0
2019/01/19 00:30:30.000   47.480962350   19.056566959   183.1432   5   8   1.4607   1.3048   0.9669   1.3665  -0.6358  -0.9297   0.00    0.0
2019/01/19 00:31:00.000   47.480960357   19.056569516   183.3308   5   8   1.4585   1.2987   0.9675   1.3550  -0.6282  -0.9278   0.00    0.0
2019/01/19 00:31:30.000   47.480961087   19.056565408   183.1725   5   8   1.4561   1.2925   0.9681   1.3431  -0.6204  -0.9257   0.00    0.0
2019/01/19 00:32:00.000   47.480959299   19.056565269   183.0585   5   8   1.4536   1.2861   0.9687   1.3309  -0.6125  -0.9234   0.00    0.0
2019/01/19 00:32:30.000   47.480956288   19.056567258   182.8292   5   8   1.4510   1.2797   0.9693   1.3184  -0.6045  -0.9210   0.00    0.0
2019/01/19 00:33:00.000   47.480953940   19.056569205   182.7404   5   8   1.4483   1.2732   0.9699   1.3057  -0.5964  -0.9185   0.00    0.0
2019/01/19 00:33:30.000   47.480953156   19.056571015   182.9038   5   8   1.4454   1.2666   0.9705   1.2927  -0.5882  -0.9159   0.00    0.0
2019/01/19 00:34:00.000   47.480953386   19.056571963   183.0426   5   8   1.4424   1.2600   0.9710   1.2794  -0.5800  -0.9132   0.00    0.0
2019/01/19 00:34:30.000   47.480954857   19.056569658   182.8718   5   8   1.4394   1.2533   0.9716   1.2660  -0.5716  -0.9104   0.00    0.0
2019/01/19 00:35:00.000   47.480955210   19.056568930   183.0561   5   8   1.4362   1.2465   0.9721   1.2523  -0.5632  -0.9074   0.00    0.0
2019/01/19 00:35:30.000   47.480954877   19.056568000   182.9960   5   8   1.4329   1.2397   0.9727   1.2385  -0.5547  -0.9044   0.00    0.0
2019/01/19 00:36:00.000   47.480954419   19.056566511   182.7275   5   8   1.4295   1.2328   0.9733   1.2245  -0.5461  -0.9013   0.00    0.0
2019/01/19 00:36:30.000   47.480954209   19.056564872   182.5077   5   8   1.4261   1.2259   0.9739   1.2104  -0.5375  -0.8982   0.00    0.0
2019/01/19 00:37:00.000   47.480953813   19.056563958   182.4450   5   8   1.4226   1.2189   0.9744   1.1961  -0.5289  -0.8949   0.00    0.0
2019/01/19 00:37:30.000   47.480953595   19.056563449   182.4743   5   8   1.4189   1.2119   0.9750   1.1818  -0.5202  -0.8916   0.00    0.0
2019/01/19 00:38:00.000   47.480953378   19.056566112   182.6533   5   8   1.4153   1.2049   0.9757   1.1673  -0.5115  -0.8883   0.00    0.0
2019/01/19 00:38:30.000   47.480954564   19.056567689   182.7790   5   8   1.4115   1.1979   0.9763   1.1528  -0.5028  -0.8849   0.00    0.0
2019/01/19 00:39:00.000   47.480954711   19.056567756   182.8317   5   8   1.4077   1.1909   0.9769   1.1382  -0.4940  -0.8815   0.00    0.0
2019/01/19 00:39:30.000   47.480953763   19.056566935   182.7349   5   8   1.4038   1.1838   0.9775   1.1236  -0.4853  -0.8781   0.00    0.0
2019/01/19 00:40:00.000   47.480954404   19.056564347   182.5099   5   8   1.3999   1.1768   0.9782   1.1089  -0.4765  -0.8746   0.00    0.0
2019/01/19 00:40:30.000   47.480954404   19.056564888   182.5811   5   8   1.3959   1.1698   0.9789   1.0942  -0.4678  -0.8711   0.00    0.0
2019/01/19 00:41:00.000   47.480954144   19.056568464   182.6393   5   8   1.3919   1.1627   0.9796   1.0795  -0.4591  -0.8676   0.00    0.0
2019/01/19 00:41:30.000   47.480954631   19.056568791   182.1957   5   8   1.3879   1.1557   0.9803   1.0648  -0.4503  -0.8641   0.00    0.0
2019/01/19 00:42:00.000   47.480952632   19.056570141   182.0505   5   8   1.3838   1.1487   0.9811   1.0501  -0.4416  -0.8605   0.00    0.0
2019/01/19 00:42:30.000   47.480951064   19.056570514   182.1396   5   8   1.3796   1.1418   0.9818   1.0355  -0.4329  -0.8570   0.00    0.0
2019/01/19 00:43:00.000   47.480951964   19.056569198   182.3424   5   8   1.3755   1.1348   0.9826   1.0208  -0.4243  -0.8535   0.00    0.0
2019/01/19 00:43:30.000   47.480955527   19.056569174   182.7572   5   8   1.3713   1.1279   0.9834   1.0062  -0.4156  -0.8500   0.00    0.0
2019/01/19 00:44:00.000   47.480958424   19.056566979   182.7127   5   8   1.3671   1.1210   0.9842   0.9917  -0.4070  -0.8465   0.00    0.0
2019/01/19 00:44:30.000   47.480959781   19.056564158   182.3756   5   8   1.3629   1.1141   0.9851   0.9772  -0.3985  -0.8430   0.00    0.0
2019/01/19 00:45:00.000   47.480958663   19.056565621   182.2360   5   8   1.3586   1.1073   0.9860   0.9628  -0.3899  -0.8395   0.00    0.0
2019/01/19 00:45:30.000   47.480957865   19.056567504   182.2500   5   8   1.3544   1.1005   0.9869   0.9485  -0.3814  -0.8361   0.00    0.0
2019/01/19 00:46:00.000   47.480958180   19.056568020   182.4435   5   8   1.3501   1.0937   0.9878   0.9342  -0.3730  -0.8326   0.00    0.0
2019/01/19 00:46:30.000   47.480957906   19.056568673   182.5292   5   8   1.3458   1.0870   0.9888   0.9201  -0.3646  -0.8292   0.00    0.0
2019/01/19 00:47:00.000   47.480958284   19.056566836   182.4259   5   8   1.3415   1.0804   0.9898   0.9060  -0.3562  -0.8259   0.00    0.0
2019/01/19 00:47:30.000   47.480957673   19.056567279   182.6181   5   8   1.3372   1.0738   0.9908   0.8920  -0.3479  -0.8225   0.00    0.0
2019/01/19 00:48:00.000   47.480957610   19.056567340   182.7134   5   8   1.3330   1.0672   0.9918   0.8782  -0.3396  -0.8192   0.00    0.0
2019/01/19 00:48:30.000   47.480958718   19.056565330   182.7048   5   8   1.3287   1.0607   0.9929   0.8644  -0.3314  -0.8160   0.00    0.0
2019/01/19 00:49:00.000   47.480959366   19.056564542   182.4061   5   8   1.3244   1.0543   0.9940   0.8508  -0.3232  -0.8127   0.00    0.0
2019/01/19 00:49:30.000   47.480959604   19.056564899   182.2482   5   8   1.3201   1.0479   0.9951   0.8373  -0.3151  -0.8095   0.00    0.0
2019/01/19 00:50:00.000   47.480958308   19.056565329   182.1139   5   8   1.3158   1.0416   0.9963   0.8239  -0.3071  -0.8064   0.00    0.0
2019/01/19 00:50:30.000   47.480957486   19.056566451   182.2020   5   8   1.3116   1.0354   0.9975   0.8106  -0.2991  -0.8033   0.00    0.0
2019/01/19 00:51:00.000   47.480957613   19.056566493   182.1297   5   8   1.3073   1.0292   0.9987   0.7974  -0.2911  -0.8002   0.00    0.0
2019/01/19 00:51:30.000   47.480957252   19.056566551   182.0798   5   8   1.3031   1.0230   0.9999   0.7844  -0.2832  -0.7972   0.00    0.0
2019/01/19 00:52:00.000   47.480955348   19.056568683   182.1025   5   8   1.2988   1.0170   1.0012   0.7715  -0.2754  -0.7942   0.00    0.0
2019/01/19 00:52:30.000   47.480954161   19.056569051   182.1058   5   8   1.2946   1.0110   1.0025   0.7588  -0.2676  -0.7913   0.00    0.0
2019/01/19 00:53:00.000   47.480953362   19.056569280   182.1233   5   8   1.2904   1.0050   1.0038   0.7461  -0.2599  -0.7884   0.00    0.0
2019/01/19 00:53:30.000   47.480946969   19.056563098   184.8352   5   7   1.9161   1.0217   1.0501   1.0363  -0.3170  -1.2172   0.00    0.0
2019/01/19 00:54:00.000   47.480948150   19.056564408   184.6373   5   7   1.9092   1.0143   1.0525   1.0111  -0.3077  -1.2180   0.00    0.0
2019/01/19 00:54:30.000   47.480948806   19.056566201   184.4490   5   7   1.9025   1.0071   1.0550   0.9862  -0.2984  -1.2190   0.00    0.0
2019/01/19 00:55:00.000   47.480948503   19.056567861   184.2603   5   7   1.8959   0.9999   1.0575   0.9617  -0.2892  -1.2203   0.00    0.0
2019/01/19 00:55:30.000   47.480947612   19.056566896   184.0628   5   7   1.8894   0.9930   1.0601   0.9377  -0.2799  -1.2218   0.00    0.0
2019/01/19 00:56:00.000   47.480946489   19.056565677   184.1929   5   7   1.8832   0.9861   1.0628   0.9139  -0.2708  -1.2236   0.00    0.0
2019/01/19 00:56:30.000   47.480944769   19.056564240   184.3856   5   7   1.8770   0.9794   1.0655   0.8906  -0.2616  -1.2255   0.00    0.0
2019/01/19 00:57:00.000   47.480944475   19.056563703   184.2018   5   7   1.8711   0.9729   1.0684   0.8676  -0.2525  -1.2277   0.00    0.0
2019/01/19 00:57:30.000   47.480945713   19.056563325   183.5559   5   7   1.8653   0.9664   1.0713   0.8449  -0.2435  -1.2301   0.00    0.0
2019/01/19 00:58:00.000   47.480946712   19.056563199   183.0042   5   7   1.8596   0.9601   1.0742   0.8225  -0.2344  -1.2328   0.00    0.0
2019/01/19 00:58:30.000   47.480946220   19.056564298   182.6570   5   7   1.8542   0.9539   1.0773   0.8005  -0.2254  -1.2356   0.00    0.0
2019/01/19 00:59:00.000   47.480945789   19.056564665   182.4632   5   7   1.8488   0.9479   1.0804   0.7787  -0.2164  -1.2387   0.00    0.0
2019/01/19 00:59:30.000   47.480946863   19.056563901   182.2559   5   7   1.8436   0.9419   1.0836   0.7573  -0.2074  -1.2421   0.00    0.0
2019/01/19 01:00:00.000   47.480948718   19.056565159   182.3885   5   7   1.8386   0.9361   1.0868   0.7362  -0.1984  -1.2456   0.00    0.0
2019/01/19 01:00:30.000   47.480950983   19.056565714   182.6454   5   7   1.8337   0.9305   1.0901   0.7153  -0.1895  -1.2494   0.00    0.0
2019/01/19 01:01:00.000   47.480960070   19.056550885   179.5405   5   8   1.5866   0.9071   0.7309   0.5302  -0.0334  -0.5133   0.00    0.0
2019/01/19 01:01:30.000   47.480961657   19.056550105   179.3709   5   8   1.5842   0.9035   0.7333   0.5196  -0.0320  -0.5193   0.00    0.0
2019/01/19 01:02:00.000   47.480961696   19.056550120   179.4262   5   8   1.5818   0.8999   0.7357   0.5091  -0.0306  -0.5253   0.00    0.0
2019/01/19 01:02:30.000   47.480960433   19.056549556   179.5933   5   8   1.5794   0.8963   0.7381   0.4987  -0.0291  -0.5313   0.00    0.0
2019/01/19 01:03:00.000   47.480958532   19.056548733   180.1747   5   8   1.5770   0.8928   0.7406   0.4882  -0.0276  -0.5373   0.00    0.0
2019/01/19 01:03:30.000   47.480957016   19.056550499   180.6822   5   8   1.5747   0.8893   0.7430   0.4778  -0.0260  -0.5432   0.00    0.0
2019/01/19 01:04:00.000   47.480957132   19.056550247   181.0815   5   8   1.5725   0.8858   0.7456   0.4675  -0.0244  -0.5492   0.00    0.0
2019/01/19 01:04:30.000   47.480956278   19.056549415   181.5978   5   8   1.5702   0.8823   0.7481   0.4572  -0.0227  -0.5552   0.00    0.0
2019/01/19 01:05:00.000   47.480954606   19.056548388   181.7436   5   8   1.5680   0.8789   0.7506   0.4469  -0.0210  -0.5612   0.00    0.0
2019/01/19 01:05:30.000   47.480954983   19.056546292   181.5634   5   8   1.5659   0.8755   0.7532   0.4367  -0.0193  -0.5672   0.00    0.0
2019/01/19 01:06:00.000   47.480956947   19.056543776   181.2217   5   8   1.5638   0.8721   0.7558   0.4265  -0.0175  -0.5732   0.00    0.0
2019/01/19 01:06:30.000   47.480958140   19.056542398   180.9715   5   8   1.5617   0.8687   0.7584   0.4164  -0.0157  -0.5793   0.00    0.0
2019/01/19 01:07:00.000   47.480959059   19.056542338   181.0485   5   8   1.5596   0.8654   0.7611   0.4063  -0.0139  -0.5853   0.00    0.0
2019/01/19 01:07:30.000   47.480959498   19.056542622   181.1109   5   8   1.5576   0.8621   0.7637   0.3963  -0.0120  -0.5913   0.00    0.0
2019/01/19 01:08:00.000   47.480960093   19.056542942   181.0362   5   8   1.5557   0.8589   0.7664   0.3863  -0.0100  -0.5974   0.00    0.0
2019/01/19 01:08:30.000   47.480961111   19.056542075   180.7054   5   8   1.5537   0.8557   0.7691   0.3764  -0.0081  -0.6034   0.00    0.0
2019/01/19 01:09:00.000   47.480963169   19.056541022   180.5385   5   8   1.5519   0.8525   0.7719   0.3665  -0.0060  -0.6095   0.00    0.0
2019/01/19 01:09:30.000   47.480964197   19.056540713   180.3956   5   8   1.5500   0.8494   0.7746   0.3567  -0.0040  -0.6156   0.00    0.0
2019/01/19 01:10:00.000   47.480963544   19.056540882   180.4533   5   8   1.5482   0.8463   0.7774   0.3469  -0.0019  -0.6216   0.00    0.0
2019/01/19 01:10:30.000   47.480962391   19.056542222   180.5552   5   8   1.5464   0.8432   0.7802   0.3372   0.0002  -0.6277   0.00    0.0
2019/01/19 01:11:00.000   47.480959963   19.056545262   180.8579   5   8   1.5447   0.8402   0.7830   0.3276   0.0024  -0.6338   0.00    0.0
2019/01/19 01:11:30.000   47.480957665   19.056545967   180.9092   5   8   1.5430   0.8372   0.7859   0.3180   0.0046  -0.6400   0.00    0.0
2019/01/19 01:12:00.000   47.480957175   19.056544984   180.6128   5   8   1.5413   0.8342   0.7888   0.3085   0.0068  -0.6461   0.00    0.0
2019/01/19 01:12:30.000   47.480956073   19.056544097   180.2274   5   8   1.5397   0.8313   0.7916   0.2990   0.0091  -0.6522   0.00    0.0
2019/01/19 01:13:00.000   47.480955946   19.056543539   180.0690   5   8   1.5381   0.8284   0.7946   0.2896   0.0114  -0.6584   0.00    0.0
2019/01/19 01:13:30.000   47.480956393   19.056543852   180.1616   5   8   1.5366   0.8256   0.7975   0.2802   0.0137  -0.6645   0.00    0.0
2019/01/19 01:14:00.000   47.480957424   19.056543837   180.3060   5   8   1.5351   0.8228   0.8004   0.2709   0.0161  -0.6707   0.00    0.0
2019/01/19 01:14:30.000   47.480960309   19.056542775   180.2923   5   8   1.5336   0.8200   0.8034   0.2616   0.0185  -0.6769   0.00    0.0
2019/01/19 01:15:00.000   47.480962296   19.056542632   180.3599   5   8   1.5321   0.8173   0.8064   0.2524   0.0209  -0.6831   0.00    0.0
2019/01/19 01:15:30.000   47.480962359   19.056543873   180.5854   5   8   1.5307   0.8146   0.8094   0.2433   0.0234  -0.6893   0.00    0.0
2019/01/19 01:16:00.000   47.480961833   19.056545353   180.8346   5   8   1.5294   0.8120   0.8125   0.2342   0.0259  -0.6955   0.00    0.0
2019/01/19 01:16:30.000   47.480926020   19.056553537   177.3092   5   7   1.5618   1.2425   0.8195   0.5299  -0.0474  -0.7277   0.00    0.0
2019/01/19 01:17:00.000   47.480926187   19.056553368   177.3153   5   7   1.5602   1.2383   0.8226   0.5184  -0.0453  -0.7341   0.00    0.0
2019/01/19 01:17:30.000   47.480926193   19.056553877   177.3612   5   7   1.5586   1.2341   0.8258   0.5069  -0.0431  -0.7405   0.00    0.0
2019/01/19 01:18:00.000   47.480925643   19.056553606   177.2866   5   7   1.5570   1.2298   0.8290   0.4955  -0.0410  -0.7469   0.00    0.0
2019/01/19 01:18:30.000   47.480926759   19.056553581   177.2704   5   7   1.5555   1.2256   0.8321   0.4842  -0.0387  -0.7533   0.00    0.0
2019/01/19 01:19:00.000   47.480927893   19.056553523   177.3114   5   7   1.5540   1.2213   0.8354   0.4729  -0.0365  -0.7597   0.00    0.0
2019/01/19 01:19:30.000   47.480930746   19.056550913   177.0881   5   7   1.5526   1.2171   0.8386   0.4617  -0.0342  -0.7661   0.00    0.0
2019/01/19 01:20:00.000   47.480931939   19.056549202   177.1867   5   7   1.5511   1.2128   0.8419   0.4506  -0.0319  -0.7725   0.00    0.0
2019/01/19 01:20:30.000   47.480932578   19.056547531   177.2053   5   7   1.5497   1.2086   0.8451   0.4395  -0.0296  -0.7789   0.00    0.0
2019/01/19 01:21:00.000   47.480933693   19.056546660   177.2843   5   7   1.5484   1.2043   0.8484   0.4285  -0.0272  -0.7854   0.00    0.0
2019/01/19 01:21:30.000   47.480934599   19.056545865   177.3528   5   7   1.5470   1.2001   0.8517   0.4176  -0.0248  -0.7918   0.00    0.0
2019/01/19 01:22:00.000   47.480933903   19.056544939   177.3780   5   7   1.5457   1.1958   0.8551   0.4068  -0.0224  -0.7983   0.00    0.0
2019/01/19 01:22:30.000   47.480933372   19.056543291   177.4978   5   7   1.5444   1.1916   0.8584   0.3961  -0.0199  -0.8047   0.00    0.0
2019/01/19 01:23:00.000   47.480933413   19.056541443   177.4488   5   7   1.5431   1.1873   0.8618   0.3855  -0.0175  -0.8112   0.00    0.0
2019/01/19 01:23:30.000   47.480933654   19.056539269   177.3442   5   7   1.5419   1.1831   0.8652   0.3749  -0.0150  -0.8177   0.00    0.0
2019/01/19 01:24:00.000   47.480934213   19.056540490   177.6396   5   7   1.5407   1.1789   0.8686   0.3644  -0.0124  -0.8242   0.00    0.0
2019/01/19 01:24:30.000   47.480935617   19.056542197   177.8589   5   7   1.5395   1.1746   0.8720   0.3540  -0.0099  -0.8307   0.00    0.0
2019/01/19 01:25:00.000   47.480938243   19.056544251   177.8215   5   7   1.5383   1.1704   0.8754   0.3437  -0.0073  -0.8371   0.00    0.0
2019/01/19 01:25:30.000   47.480940445   19.056545432   177.3978   5   7   1.5372   1.1662   0.8789   0.3336  -0.0047  -0.8436   0.00    0.0
2019/01/19 01:26:00.000   47.480939693   19.056545834   176.8568   5   7   1.5360   1.1621   0.8823   0.3235  -0.0021  -0.8501   0.00    0.0
2019/01/19 01:26:30.000   47.480939093   19.056545845   176.4633   5   7   1.5349   1.1579   0.8858   0.3135   0.0005  -0.8566   0.00    0.0
2019/01/19 01:27:00.000   47.480936022   19.056547693   176.2504   5   7   1.5338   1.1537   0.8893   0.3036   0.0031  -0.8631   0.00    0.0
2019/01/19 01:27:30.000   47.480934451   19.056549418   176.2340   5   7   1.5327   1.1496   0.8928   0.2938   0.0058  -0.8696   0.00    0.0
2019/01/19 01:28:00.000   47.480935971   19.056550244   176.1832   5   7   1.5317   1.1455   0.8963   0.2841   0.0085  -0.8761   0.00    0.0
2019/01/19 01:28:30.000   47.480936985   19.056550902   176.3410   5   7   1.5306   1.1414   0.8999   0.2745   0.0112  -0.8826   0.00    0.0
2019/01/19 01:29:00.000   47.480937106   19.056551152   176.4994   5   7   1.5296   1.1373   0.9034   0.2650   0.0139  -0.8891   0.00    0.0
2019/01/19 01:29:30.000   47.480938930   19.056549650   176.6184   5   7   1.5286   1.1332   0.9070   0.2556   0.0166  -0.8956   0.00    0.0
2019/01/19 01:30:00.000   47.480941074   19.056548605   176.6233   5   7   1.5276   1.1292   0.9105   0.2463   0.0193  -0.9020   0.00    0.0
2019/01/19 01:30:30.000   47.480941401   19.056549638   176.6901   5   7   1.5266   1.1251   0.9141   0.2372   0.0221  -0.9085   0.00    0.0
2019/01/19 01:31:00.000   47.480941200   19.056549095   176.7597   5   7   1.5256   1.1211   0.9177   0.2281   0.0248  -0.9149   0.00    0.0
2019/01/19 01:31:30.000   47.480940859   19.056547056   176.6839   5   7   1.5246   1.1171   0.9213   0.2192   0.0276  -0.9214   0.00    0.0
2019/01/19 01:32:00.000   47.480941142   19.056546747   176.7917   5   7   1.5236   1.1132   0.9249   0.2103   0.0303  -0.9278   0.00    0.0
2019/01/19 01:32:30.000   47.480942165   19.056546426   176.8178   5   7   1.5227   1.1092   0.9286   0.2016   0.0331  -0.9342   0.00    0.0
2019/01/19 01:33:00.000   47.480942911   19.056545427   176.6439   5   7   1.5217   1.1053   0.9322   0.1929   0.0359  -0.9406   0.00    0.0
2019/01/19 01:33:30.000   47.480956168   19.056537240   177.4677   5   8   1.5055   0.7964   0.9283   0.0207  -0.0515  -0.9725   0.00    0.0
2019/01/19 01:34:00.000   47.480955570   19.056535704   177.1722   5   8   1.5060   0.7964   0.9314   0.0218  -0.0517  -0.9786   0.00    0.0
2019/01/19 01:34:30.000   47.480955783   19.056533634   176.9933   5   8   1.5065   0.7965   0.9344   0.0229  -0.0519  -0.9845   0.00    0.0
2019/01/19 01:35:00.000   47.480955866   19.056533265   176.9108   5   8   1.5069   0.7965   0.9374   0.0240  -0.0522  -0.9904   0.00    0.0
2019/01/19 01:35:30.000   47.480958013   19.056532746   176.5964   5   8   1.5073   0.7965   0.9404   0.0250  -0.0524  -0.9961   0.00    0.0
2019/01/19 01:36:00.000   47.480958539   19.056534042   176.5425   5   8   1.5075   0.7965   0.9433   0.0261  -0.0526  -1.0017   0.00    0.0
2019/01/19 01:36:30.000   47.480958656   19.056534232   176.7371   5   8   1.5077   0.7965   0.9463   0.0271  -0.0527  -1.0071   0.00    0.0
2019/01/19 01:37:00.000   47.480957225   19.056536417   176.9590   5   8   1.5078   0.7964   0.9492   0.0280  -0.0529  -1.0124   0.00    0.0
2019/01/19 01:37:30.000   47.480956036   19.056537491   177.0406   5   8   1.5077   0.7964   0.9520   0.0290  -0.0530  -1.0176   0.00    0.0
2019/01/19 01:38:00.000   47.480954743   19.056538109   177.0425   5   8   1.5077   0.7964   0.9549   0.0299  -0.0532  -1.0227   0.00    0.0
2019/01/19 01:38:30.000   47.480953984   19.056538305   177.0337   5   8   1.5075   0.7963   0.9577   0.0308  -0.0533  -1.0276   0.00    0.0
2019/01/19 01:39:00.000   47.480954827   19.056536978   176.8843   5   8   1.5072   0.7962   0.9605   0.0316  -0.0534  -1.0324   0.00    0.0
2019/01/19 01:39:30.000   47.480955180   19.056536804   176.8726   5   8   1.5068   0.7962   0.9632   0.0324  -0.0535  -1.0370   0.00    0.0
2019/01/19 01:40:00.000   47.480956051   19.056536645   176.9015   5   8   1.5064   0.7961   0.9660   0.0332  -0.0535  -1.0415   0.00    0.0
2019/01/19 01:40:30.000   47.480955379   19.056536357   176.9037   5   8   1.5058   0.7960   0.9686   0.0340  -0.0536  -1.0458   0.00    0.0
2019/01/19 01:41:00.000   47.480953733   19.056536693   176.9454   5   8   1.5052   0.7959   0.9713   0.0347  -0.0536  -1.0500   0.00    0.0
2019/01/19 01:41:30.000   47.480953497   19.056535310   176.8245   5   8   1.5045   0.7958   0.9739   0.0353  -0.0536  -1.0540   0.00    0.0
2019/01/19 01:42:00.000   47.480952783   19.056533968   176.7813   5   8   1.5037   0.7956   0.9765   0.0360  -0.0536  -1.0579   0.00    0.0
2019/01/19 01:42:30.000   47.480951757   19.056535195   177.0066   5   8   1.5028   0.7955   0.9791   0.0366  -0.0536  -1.0616   0.00    0.0
2019/01/19 01:43:00.000   47.480951266   19.056536072   177.1373   5   8   1.5018   0.7953   0.9816   0.0372  -0.0535  -1.0652   0.00    0.0
2019/01/19 01:43:30.000   47.480950798   19.056537071   177.2176   5   8   1.5007   0.7952   0.9841   0.0377  -0.0534  -1.0686   0.00    0.0
2019/01/19 01:44:00.000   47.480951263   19.056538685   177.1349   5   8   1.4995   0.7950   0.9865   0.0382  -0.0533  -1.0718   0.00    0.0
2019/01/19 01:44:30.000   47.480952511   19.056538768   176.8111   5   8   1.4982   0.7948   0.9889   0.0386  -0.0532  -1.0749   0.00    0.0
2019/01/19 01:45:00.000   47.480955233   19.056535686   176.2061   5   9   1.2236   0.7910   0.6710   0.1047  -0.1086  -0.4487   0.00    0.0
2019/01/19 01:45:30.000   47.480955879   19.056534801   176.1800   5   9   1.2233   0.7907   0.6730   0.1059  -0.1094  -0.4518   0.00    0.0
2019/01/19 01:46:00.000   47.480957854   19.056532515   175.9443   5   9   1.2229   0.7904   0.6749   0.1071  -0.1101  -0.4548   0.00    0.0
2019/01/19 01:46:30.000   47.480958269   19.056530732   175.7099   5   9   1.2225   0.7900   0.6768   0.1083  -0.1109  -0.4578   0.00    0.0
2019/01/19 01:47:00.000   47.480958158   19.056530483   175.8561   5   9   1.2221   0.7897   0.6788   0.1094  -0.1117  -0.4608   0.00    0.0
2019/01/19 01:47:30.000   47.480960708   19.056534057   175.2395   5   8   1.6377   0.7919   0.6819   0.1806  -0.1098  -0.4195   0.00    0.0
2019/01/19 01:48:00.000   47.480961199   19.056534188   175.2271   5   8   1.6374   0.7918   0.6837   0.1857  -0.1106  -0.4253   0.00    0.0
2019/01/19 01:48:30.000   47.480959728   19.056532978   175.4260   5   8   1.6370   0.7918   0.6855   0.1907  -0.1113  -0.4310   0.00    0.0
2019/01/19 01:49:00.000   47.480959419   19.056533216   175.2840   5   8   1.6365   0.7917   0.6873   0.1957  -0.1121  -0.4367   0.00    0.0
2019/01/19 01:49:30.000   47.480959767   19.056534038   174.9809   5   8   1.6359   0.7916   0.6891   0.2006  -0.1129  -0.4424   0.00    0.0
2019/01/19 01:50:00.000   47.480961964   19.056533692   174.5935   5   8   1.6353   0.7916   0.6910   0.2054  -0.1137  -0.4480   0.00    0.0
2019/01/19 01:50:30.000   47.480964518   19.056536559   174.2112   5   8   1.6346   0.7915   0.6928   0.2101  -0.1145  -0.4535   0.00    0.0
2019/01/19 01:51:00.000   47.480965458   19.056538268   173.9427   5   8   1.6338   0.7914   0.6947   0.2148  -0.1152  -0.4590   0.00    0.0
2019/01/19 01:51:30.000   47.480967029   19.056537839   173.6222   5   8   1.6329   0.7913   0.6965   0.2193  -0.1160  -0.4644   0.00    0.0
2019/01/19 01:52:00.000   47.480966343   19.056538145   173.6364   5   8   1.6319   0.7913   0.6984   0.2238  -0.1168  -0.4697   0.00    0.0
2019/01/19 01:52:30.000   47.480965910   19.056538074   173.8290   5   8   1.6309   0.7912   0.7002   0.2281  -0.1176  -0.4749   0.00    0.0
2019/01/19 01:53:00.000   47.480964360   19.056537634   174.1156   5   8   1.6297   0.7911   0.7021   0.2324  -0.1184  -0.4801   0.00    0.0
2019/01/19 01:53:30.000   47.480964377   19.056537201   174.2091   5   8   1.6285   0.7910   0.7040   0.2366  -0.1191  -0.4852   0.00    0.0
2019/01/19 01:54:00.000   47.480966314   19.056535719   174.2703   5   8   1.6272   0.7909   0.7059   0.2406  -0.1199  -0.4902   0.00    0.0
2019/01/19 01:54:30.000   47.480967171   19.056535546   174.2262   5   8   1.6258   0.7908   0.7078   0.2446  -0.1206  -0.4952   0.00    0.0
2019/01/19 01:55:00.000   47.480968597   19.056534833   173.9712   5   8   1.6243   0.7907   0.7097   0.2484  -0.1214  -0.5001   0.00    0.0
2019/01/19 01:55:30.000   47.480968657   19.056535415   173.7222   5   8   1.6227   0.7906   0.7116   0.2522  -0.1221  -0.5048   0.00    0.0
2019/01/19 01:56:00.000   47.480968338   19.056536259   173.4974   5   8   1.6211   0.7905   0.7135   0.2558  -0.1229  -0.5095   0.00    0.0
2019/01/19 01:56:30.000   47.480968044   19.056536679   173.5055   5   8   1.6193   0.7903   0.7154   0.2594  -0.1236  -0.5142   0.00    0.0
2019/01/19 01:57:00.000   47.480967381   19.056537535   173.6550   5   8   1.6175   0.7902   0.7174   0.2628  -0.1243  -0.5187   0.00    0.0
2019/01/19 01:57:30.000   47.480968243   19.056536937   173.8134   5   8   1.6156   0.7901   0.7193   0.2661  -0.1250  -0.5231   0.00    0.0
2019/01/19 01:58:00.000   47.480967833   19.056536619   174.3038   5   8   1.6136   0.7899   0.7212   0.2694  -0.1257  -0.5275   0.00    0.0
2019/01/19 01:58:30.000   47.480967735   19.056534671   174.5643   5   8   1.6115   0.7897   0.7231   0.2725  -0.1263  -0.5318   0.00    0.0
2019/01/19 01:59:00.000   47.480967293   19.056534693   174.6474   5   8   1.6093   0.7895   0.7250   0.2754  -0.1270  -0.5359   0.00    0.0
2019/01/19 01:59:30.000   47.480967193   19.056535384   174.5266   5   8   1.6071   0.7894   0.7269   0.2783  -0.1276  -0.5400   0.00    0.0
2019/01/19 02:00:00.000   47.480969365   19.056538138   174.0378   5   8   1.6047   0.7892   0.7289   0.2811  -0.1282  -0.5440   0.00    0.0
2019/01/19 02:00:30.000   47.480968829   19.056539451   173.9790   5   8   1.6023   0.7889   0.7308   0.2837  -0.1288  -0.5479   0.00    0.0
2019/01/19 02:01:00.000   47.480968261   19.056539493   174.1613   5   8   1.5997   0.7887   0.7327   0.2862  -0.1294  -0.5517   0.00    0.0
2019/01/19 02:01:30.000   47.480967321   19.056539317   174.1491   5   8   1.5971   0.7885   0.7346   0.2886  -0.1300  -0.5554   0.00    0.0
2019/01/19 02:02:00.000   47.480966272   19.056539201   173.8324   5   8   1.5944   0.7882   0.7365   0.2909  -0.1305  -0.5590   0.00    0.0
2019/01/19 02:02:30.000   47.480965484   19.056538650   173.5795   5   8   1.5917   0.7880   0.7384   0.2931  -0.1310  -0.5625   0.00    0.0
2019/01/19 02:03:00.000   47.480965323   19.056537511   173.4423   5   8   1.5888   0.7877   0.7403   0.2952  -0.1315  -0.5659   0.00    0.0
2019/01/19 02:03:30.000   47.480965977   19.056535512   173.4313   5   8   1.5859   0.7874   0.7422   0.2971  -0.1320  -0.5692   0.00    0.0
2019/01/19 02:04:00.000   47.480966671   19.056533999   173.6064   5   8   1.5829   0.7871   0.7441   0.2989  -0.1324  -0.5724   0.00    0.0
2019/01/19 02:04:30.000   47.480965712   19.056535291   173.9730   5   8   1.5798   0.7868   0.7460   0.3006  -0.1328  -0.5755   0.00    0.0
2019/01/19 02:05:00.000   47.480965006   19.056535439   174.3196   5   8   1.5766   0.7864   0.7479   0.3022  -0.1332  -0.5785   0.00    0.0
2019/01/19 02:05:30.000   47.480964519   19.056533202   174.0670   5   7   1.5991   1.2540   0.8429   0.5831  -0.5098  -0.6916   0.00    0.0
2019/01/19 02:06:00.000   47.480969439   19.056532248   174.5795   5   8   1.5164   0.8567   0.8168   0.1358  -0.3095  -0.5878   0.00    0.0
2019/01/19 02:06:30.000   47.480971020   19.056532829   174.4626   5   8   1.5146   0.8601   0.8213   0.1499  -0.3159  -0.5970   0.00    0.0
2019/01/19 02:07:00.000   47.480970515   19.056531862   174.2768   5   8   1.5130   0.8635   0.8258   0.1641  -0.3225  -0.6064   0.00    0.0
2019/01/19 02:07:30.000   47.480967098   19.056531080   174.1655   5   8   1.5116   0.8671   0.8305   0.1785  -0.3293  -0.6160   0.00    0.0
2019/01/19 02:08:00.000   47.480962904   19.056531603   174.2568   5   8   1.5103   0.8708   0.8352   0.1929  -0.3362  -0.6257   0.00    0.0
2019/01/19 02:08:30.000   47.480960374   19.056533269   174.4249   5   8   1.5091   0.8746   0.8400   0.2075  -0.3434  -0.6357   0.00    0.0
2019/01/19 02:09:00.000   47.480960058   19.056534232   174.7400   5   8   1.5080   0.8785   0.8449   0.2222  -0.3507  -0.6458   0.00    0.0
2019/01/19 02:09:30.000   47.480961003   19.056534585   174.9438   5   8   1.5071   0.8826   0.8499   0.2370  -0.3582  -0.6561   0.00    0.0
2019/01/19 02:10:00.000   47.480963045   19.056532751   174.7040   5   8   1.5063   0.8867   0.8550   0.2520  -0.3660  -0.6666   0.00    0.0
2019/01/19 02:10:30.000   47.480963225   19.056531427   174.6378   5   8   1.5057   0.8910   0.8602   0.2671  -0.3739  -0.6773   0.00    0.0
2019/01/19 02:11:00.000   47.480961862   19.056531351   174.7326   5   8   1.5052   0.8954   0.8654   0.2824  -0.3821  -0.6882   0.00    0.0
2019/01/19 02:11:30.000   47.480959758   19.056530551   174.6625   5   8   1.5049   0.8999   0.8708   0.2978  -0.3904  -0.6993   0.00    0.0
2019/01/19 02:12:00.000   47.480957821   19.056530835   174.9446   5   8   1.5047   0.9045   0.8763   0.3135  -0.3990  -0.7107   0.00    0.0
2019/01/19 02:12:30.000   47.480957497   19.056531422   175.1030   5   8   1.5047   0.9093   0.8818   0.3292  -0.4079  -0.7223   0.00    0.0
2019/01/19 02:13:00.000   47.480958539   19.056530617   175.0524   5   8   1.5048   0.9142   0.8875   0.3452  -0.4170  -0.7342   0.00    0.0
2019/01/19 02:13:30.000   47.480959987   19.056529889   174.7640   5   8   1.5051   0.9192   0.8933   0.3614  -0.4263  -0.7463   0.00    0.0
2019/01/19 02:14:00.000   47.480961711   19.056544972   177.4092   5   9   1.3851   0.8765   0.6653   0.2046  -0.2583  -0.4018   0.00    0.0
2019/01/19 02:14:30.000   47.480962472   19.056546031   177.2862   5   9   1.3837   0.8805   0.6686   0.2170  -0.2637  -0.4084   0.00    0.0
2019/01/19 02:15:00.000   47.480961624   19.056547454   177.3520   5   9   1.3823   0.8846   0.6720   0.2294  -0.2693  -0.4150   0.00    0.0
2019/01/19 02:15:30.000   47.480961073   19.056547782   177.3183   5   9   1.3811   0.8888   0.6754   0.2419  -0.2750  -0.4218   0.00    0.0
2019/01/19 02:16:00.000   47.480961084   19.056544982   176.9616   5   9   1.3799   0.8931   0.6790   0.2546  -0.2808  -0.4287   0.00    0.0
2019/01/19 02:16:30.000   47.480961340   19.056543557   176.8639   5   9   1.3789   0.8974   0.6826   0.2673  -0.2868  -0.4357   0.00    0.0
2019/01/19 02:17:00.000   47.480961165   19.056543815   176.8266   5   9   1.3780   0.9019   0.6862   0.2801  -0.2929  -0.4428   0.00    0.0
2019/01/19 02:17:30.000   47.480960752   19.056544372   176.9838   5   9   1.3773   0.9065   0.6899   0.2931  -0.2991  -0.4501   0.00    0.0
2019/01/19 02:18:00.000   47.480960529   19.056544445   176.8074   5   9   1.3766   0.9111   0.6937   0.3061  -0.3055  -0.4575   0.00    0.0
2019/01/19 02:18:30.000   47.480960682   19.056544873   176.5639   5   9   1.3761   0.9159   0.6976   0.3193  -0.3121  -0.4651   0.00    0.0
2019/01/19 02:19:00.000   47.480961220   19.056544409   176.0981   5   9   1.3756   0.9208   0.7015   0.3327  -0.3189  -0.4728   0.00    0.0
2019/01/19 02:19:30.000   47.480960966   19.056546206   175.9745   5   9   1.3753   0.9258   0.7056   0.3461  -0.3258  -0.4806   0.00    0.0
2019/01/19 02:20:00.000   47.480960579   19.056546387   175.9814   5   9   1.3751   0.9308   0.7097   0.3597  -0.3328  -0.4886   0.00    0.0
2019/01/19 02:20:30.000   47.480960408   19.056544086   176.0370   5   9   1.3751   0.9360   0.7138   0.3734  -0.3401  -0.4967   0.00    0.0
2019/01/19 02:21:00.000   47.480960803   19.056541171   176.1981   5   9   1.3751   0.9413   0.7180   0.3873  -0.3475  -0.5050   0.00    0.0
2019/01/19 02:21:30.000   47.480960650   19.056541529   176.3976   5   9   1.3753   0.9467   0.7224   0.4013  -0.3551  -0.5134   0.00    0.0
2019/01/19 02:22:00.000   47.480960602   19.056542457   176.6704   5   9   1.3756   0.9522   0.7268   0.4155  -0.3629  -0.5220   0.00    0.0
2019/01/19 02:22:30.000   47.480959868   19.056542928   177.1120   5   9   1.3760   0.9578   0.7312   0.4299  -0.3708  -0.5308   0.00    0.0
2019/01/19 02:23:00.000   47.480958448   19.056543340   177.4391   5   9   1.3765   0.9635   0.7358   0.4444  -0.3790  -0.5397   0.00    0.0
2019/01/19 02:23:30.000   47.480958526   19.056542565   177.5828   5   9   1.3771   0.9693   0.7404   0.4591  -0.3873  -0.5489   0.00    0.0
2019/01/19 02:24:00.000   47.480959199   19.056541481   177.4639   5   9   1.3779   0.9752   0.7452   0.4739  -0.3959  -0.5582   0.00    0.0
2019/01/19 02:24:30.000   47.480960081   19.056541571   177.3569   5   9   1.3788   0.9812   0.7500   0.4890  -0.4047  -0.5676   0.00    0.0
2019/01/19 02:25:00.000   47.480960536   19.056541737   177.1103   5   9   1.3798   0.9874   0.7549   0.5042  -0.4136  -0.5773   0.00    0.0
2019/01/19 02:25:30.000   47.480960594   19.056542616   176.9652   5   9   1.3809   0.9936   0.7599   0.5196  -0.4228  -0.5872   0.00    0.0
2019/01/19 02:26:00.000   47.480959962   19.056542023   176.4883   5   9   1.3822   0.9999   0.7649   0.5352  -0.4322  -0.5973   0.00    0.0
2019/01/19 02:26:30.000   47.480956282   19.056539074   175.6952   5  10   1.3514   0.7995   0.6438   0.3697  -0.1836  -0.4822   0.00    0.0
2019/01/19 02:27:00.000   47.480956056   19.056538342   175.5617   5  10   1.3512   0.8036   0.6468   0.3792  -0.1880  -0.4878   0.00    0.0
2019/01/19 02:27:30.000   47.480955753   19.056538066   175.8756   5  10   1.3510   0.8077   0.6498   0.3887  -0.1925  -0.4934   0.00    0.0
2019/01/19 02:28:00.000   47.480955520   19.056538830   176.2133   5  10   1.3509   0.8119   0.6528   0.3983  -0.1971  -0.4991   0.00    0.0
2019/01/19 02:28:30.000   47.480955638   19.056538798   176.3637   5  10   1.3509   0.8162   0.6558   0.4080  -0.2018  -0.5049   0.00    0.0
2019/01/19 02:29:00.000   47.480954527   19.056538222   176.1829   5  10   1.3509   0.8205   0.6590   0.4177  -0.2065  -0.5108   0.00    0.0
2019/01/19 02:29:30.000   47.480953312   19.056535912   175.7777   5  10   1.3510   0.8249   0.6621   0.4274  -0.2114  -0.5168   0.00    0.0
2019/01/19 02:30:00.000   47.480953149   19.056535117   175.4453   5  10   1.3511   0.8293   0.6653   0.4372  -0.2163  -0.5228   0.00    0.0
2019/01/19 02:30:30.000   47.480953101   19.056535925   175.2816   5  10   1.3513   0.8337   0.6685   0.4471  -0.2213  -0.5289   0.00    0.0
2019/01/19 02:31:00.000   47.480953364   19.056537286   175.5165   5  10   1.3516   0.8383   0.6718   0.4570  -0.2264  -0.5351   0.00    0.0
2019/01/19 02:31:30.000   47.480953904   19.056538755   175.9663   5  10   1.3519   0.8428   0.6752   0.4670  -0.2316  -0.5414   0.00    0.0
2019/01/19 02:32:00.000   47.480954292   19.056538625   176.4049   5  10   1.3523   0.8475   0.6785   0.4770  -0.2369  -0.5478   0.00    0.0
2019/01/19 02:32:30.000   47.480954780   19.056536962   176.3730   5  10   1.3528   0.8521   0.6820   0.4871  -0.2422  -0.5542   0.00    0.0
2019/01/19 02:33:00.000   47.480954277   19.056536229   176.1488   5  10   1.3533   0.8568   0.6854   0.4972  -0.2477  -0.5607   0.00    0.0
2019/01/19 02:33:30.000   47.480953168   19.056536511   175.9325   5  10   1.3538   0.8616   0.6889   0.5074  -0.2532  -0.5673   0.00    0.0
2019/01/19 02:34:00.000   47.480952136   19.056537287   175.8092   5  10   1.3544   0.8664   0.6925   0.5176  -0.2589  -0.5740   0.00    0.0
2019/01/19 02:34:30.000   47.480952648   19.056537462   175.8596   5  10   1.3551   0.8712   0.6961   0.5279  -0.2646  -0.5808   0.00    0.0
2019/01/19 02:35:00.000   47.480953231   19.056536838   175.8394   5  10   1.3558   0.8761   0.6998   0.5382  -0.2704  -0.5877   0.00    0.0
2019/01/19 02:35:30.000   47.480954049   19.056535753   175.8808   5  10   1.3565   0.8810   0.7034   0.5486  -0.2763  -0.5946   0.00    0.0
2019/01/19 02:36:00.000   47.480954566   19.056535276   176.1253   5  10   1.3573   0.8860   0.7072   0.5590  -0.2823  -0.6016   0.00    0.0
2019/01/19 02:36:30.000   47.480954955   19.056535345   176.3864   5  10   1.3582   0.8910   0.7110   0.5695  -0.2884  -0.6087   0.00    0.0
2019/01/19 02:37:00.000   47.480955437   19.056535535   176.3551   5  10   1.3590   0.8960   0.7148   0.5799  -0.2946  -0.6159   0.00    0.0
2019/01/19 02:37:30.000   47.480954598   19.056535691   176.3641   5  10   1.3600   0.9011   0.7187   0.5905  -0.3008  -0.6232   0.00    0.0
2019/01/19 02:38:00.000   47.480952182   19.056535978   176.2030   5  10   1.3609   0.9062   0.7226   0.6010  -0.3072  -0.6305   0.00    0.0
2019/01/19 02:38:30.000   47.480950189   19.056537218   175.9345   5  10   1.3619   0.9113   0.7266   0.6116  -0.3136  -0.6379   0.00    0.0
2019/01/19 02:39:00.000   47.480949005   19.056537930   175.7915   5  10   1.3630   0.9165   0.7306   0.6222  -0.3201  -0.6454   0.00    0.0
2019/01/19 02:39:30.000   47.480949207   19.056538741   175.8747   5  10   1.3640   0.9217   0.7346   0.6329  -0.3267  -0.6530   0.00    0.0
2019/01/19 02:40:00.000   47.480950043   19.056537652   175.9323   5  10   1.3651   0.9269   0.7387   0.6435  -0.3334  -0.6606   0.00    0.0
2019/01/19 02:40:30.000   47.480950921   19.056536051   176.0268   5  10   1.3662   0.9321   0.7428   0.6542  -0.3402  -0.6683   0.00    0.0
2019/01/19 02:41:00.000   47.480951896   19.056534388   176.0819   5  10   1.3674   0.9373   0.7470   0.6648  -0.3470  -0.6761   0.00    0.0
2019/01/19 02:41:30.000   47.480951826   19.056534433   176.2064   5  10   1.3685   0.9425   0.7512   0.6755  -0.3540  -0.6839   0.00    0.0
2019/01/19 02:42:00.000   47.480951005   19.056534679   176.3406   5  10   1.3697   0.9478   0.7554   0.6862  -0.3610  -0.6918   0.00    0.0
2019/01/19 02:42:30.000   47.480949305   19.056535954   176.2905   5  10   1.3709   0.9531   0.7597   0.6968  -0.3680  -0.6997   0.00    0.0
2019/01/19 02:43:00.000   47.480949379   19.056536044   176.0582   5  10   1.3721   0.9583   0.7640   0.7075  -0.3752  -0.7077   0.00    0.0
2019/01/19 02:43:30.000   47.480950802   19.056536046   175.7556   5  10   1.3733   0.9636   0.7684   0.7181  -0.3824  -0.7158   0.00    0.0
2019/01/19 02:44:00.000   47.480951847   19.056535753   175.6954   5  10   1.3746   0.9689   0.7728   0.7287  -0.3897  -0.7239   0.00    0.0
2019/01/19 02:44:30.000   47.480950946   19.056534618   175.7237   5  10   1.3758   0.9741   0.7772   0.7393  -0.3970  -0.7320   0.00    0.0
2019/01/19 02:45:00.000   47.480949433   19.056531677   175.4177   5  10   1.3770   0.9794   0.7816   0.7498  -0.4044  -0.7402   0.00    0.0
2019/01/19 02:45:30.000   47.480948093   19.056530191   175.1838   5  10   1.3782   0.9846   0.7861   0.7602  -0.4118  -0.7484   0.00    0.0
2019/01/19 02:46:00.000   47.480947842   19.056530190   175.1586   5  10   1.3795   0.9899   0.7906   0.7706  -0.4193  -0.7567   0.00    0.0
2019/01/19 02:46:30.000   47.480948701   19.056531304   175.4528   5  10   1.3807   0.9951   0.7952   0.7810  -0.4268  -0.7649   0.00    0.0
2019/01/19 02:47:00.000   47.480949604   19.056530736   175.5261   5  10   1.3819   1.0003   0.7997   0.7912  -0.4344  -0.7732   0.00    0.0
2019/01/19 02:47:30.000   47.480949617   19.056530795   175.7033   5  10   1.3830   1.0054   0.8043   0.8014  -0.4420  -0.7815   0.00    0.0
2019/01/19 02:48:00.000   47.480948668   19.056531548   175.5660   5  10   1.3842   1.0105   0.8089   0.8115  -0.4496  -0.7898   0.00    0.0
2019/01/19 02:48:30.000   47.480948676   19.056532709   175.6930   5  10   1.3853   1.0156   0.8135   0.8214  -0.4573  -0.7981   0.00    0.0
2019/01/19 02:49:00.000   47.480949594   19.056534422   175.8793   5  10   1.3864   1.0207   0.8181   0.8313  -0.4649  -0.8064   0.00    0.0
2019/01/19 02:49:30.000   47.480951081   19.056534596   175.8915   5  10   1.3874   1.0256   0.8228   0.8410  -0.4726  -0.8147   0.00    0.0
2019/01/19 02:50:00.000   47.480952649   19.056533947   175.9535   5  10   1.3885   1.0306   0.8275   0.8506  -0.4803  -0.8230   0.00    0.0
2019/01/19 02:50:30.000   47.480953607   19.056532570   175.9584   5  10   1.3894   1.0355   0.8321   0.8600  -0.4879  -0.8312   0.00    0.0
2019/01/19 02:51:00.000   47.480954324   19.056529400   175.8329   5  10   1.3904   1.0403   0.8368   0.8692  -0.4956  -0.8394   0.00    0.0
2019/01/19 02:51:30.000   47.480954866   19.056528083   176.1144   5  10   1.3912   1.0451   0.8415   0.8783  -0.5032  -0.8476   0.00    0.0
2019/01/19 02:52:00.000   47.480954354   19.056528314   176.4381   5  10   1.3920   1.0498   0.8461   0.8872  -0.5108  -0.8557   0.00    0.0
2019/01/19 02:52:30.000   47.480953931   19.056528843   176.4004   5  10   1.3928   1.0544   0.8508   0.8959  -0.5184  -0.8637   0.00    0.0
2019/01/19 02:53:00.000   47.480953600   19.056529260   176.3044   5  10   1.3935   1.0589   0.8555   0.9044  -0.5259  -0.8717   0.00    0.0
2019/01/19 02:53:30.000   47.480952980   19.056527089   176.0057   5  10   1.3941   1.0634   0.8601   0.9127  -0.5334  -0.8796   0.00    0.0
2019/01/19 02:54:00.000   47.480952416   19.056525370   175.8433   5  10   1.3947   1.0677   0.8648   0.9208  -0.5407  -0.8875   0.00    0.0
2019/01/19 02:54:30.000   47.480952833   19.056524989   175.8093   5  10   1.3951   1.0720   0.8694   0.9285  -0.5481  -0.8952   0.00    0.0
2019/01/19 02:55:00.000   47.480953734   19.056525175   175.9017   5  11   1.2239   1.0743   0.7523   0.8935  -0.5271  -0.6045   0.00    0.0
2019/01/19 02:55:30.000   47.480954855   19.056526731   176.1132   5  10   1.5441   1.0930   0.7555   1.0677  -0.5328  -0.6099   0.00    0.0
2019/01/19 02:56:00.000   47.480954073   19.056525973   176.7174   5  10   1.5486   1.0979   0.7586   1.0810  -0.5394  -0.6197   0.00    0.0
2019/01/19 02:56:30.000   47.480953907   19.056525587   176.6606   5  10   1.5530   1.1028   0.7617   1.0940  -0.5458  -0.6295   0.00    0.0
2019/01/19 02:57:00.000   47.480955039   19.056526085   176.1793   5  10   1.5573   1.1075   0.7648   1.1069  -0.5523  -0.6391   0.00    0.0
2019/01/19 02:57:30.000   47.480954687   19.056526616   176.2437   5  10   1.5615   1.1122   0.7679   1.1195  -0.5586  -0.6487   0.00    0.0
2019/01/19 02:58:00.000   47.480954565   19.056528199   176.0266   5  10   1.5656   1.1168   0.7709   1.1318  -0.5649  -0.6582   0.00    0.0
2019/01/19 02:58:30.000   47.480954751   19.056529966   175.9329   5  10   1.5695   1.1212   0.7740   1.1439  -0.5711  -0.6675   0.00    0.0
2019/01/19 02:59:00.000   47.480955569   19.056529762   175.7556   5  10   1.5733   1.1256   0.7770   1.1556  -0.5772  -0.6768   0.00    0.0
2019/01/19 02:59:30.000   47.480956511   19.056530399   176.0235   5  10   1.5769   1.1298   0.7799   1.1670  -0.5832  -0.6859   0.00    0.0
2019/01/19 03:00:00.000   47.480957267   19.056532276   176.0868   5  10   1.5804   1.1339   0.7829   1.1781  -0.5891  -0.6948   0.00    0.0
2019/01/19 03:00:30.000   47.480957110   19.056533430   175.9817   5  10   1.5837   1.1379   0.7858   1.1887  -0.5949  -0.7036   0.00    0.0
2019/01/19 03:01:00.000   47.480956427   19.056532849   176.4119   5  10   1.5868   1.1417   0.7886   1.1990  -0.6005  -0.7122   0.00    0.0
2019/01/19 03:01:30.000   47.480955672   19.056530083   177.0825   5  10   1.5898   1.1454   0.7914   1.2089  -0.6060  -0.7206   0.00    0.0
2019/01/19 03:02:00.000   47.480955422   19.056526822   177.6880   5  10   1.5926   1.1489   0.7942   1.2184  -0.6113  -0.7287   0.00    0.0
2019/01/19 03:02:30.000   47.480955324   19.056525334   177.9303   5  10   1.5952   1.1523   0.7969   1.2273  -0.6164  -0.7367   0.00    0.0
2019/01/19 03:03:00.000   47.480955243   19.056525559   177.8045   5  10   1.5975   1.1555   0.7996   1.2359  -0.6214  -0.7444   0.00    0.0
2019/01/19 03:03:30.000   47.480954391   19.056525699   177.4866   5  10   1.5997   1.1585   0.8022   1.2439  -0.6262  -0.7519   0.00    0.0
2019/01/19 03:04:00.000   47.480955112   19.056525006   177.1276   5  10   1.6017   1.1614   0.8047   1.2514  -0.6307  -0.7592   0.00    0.0
2019/01/19 03:04:30.000   47.480955559   19.056524845   177.0672   5  10   1.6035   1.1641   0.8072   1.2584  -0.6351  -0.7661   0.00    0.0
2019/01/19 03:05:00.000   47.480955170   19.056524731   177.1819   5  10   1.6050   1.1666   0.8095   1.2648  -0.6392  -0.7728   0.00    0.0
2019/01/19 03:05:30.000   47.480955152   19.056523900   177.2727   5  10   1.6064   1.1689   0.8119   1.2707  -0.6431  -0.7792   0.00    0.0
2019/01/19 03:06:00.000   47.480955760   19.056522383   177.9471   5  10   1.6075   1.1710   0.8141   1.2760  -0.6468  -0.7853   0.00    0.0
2019/01/19 03:06:30.000   47.480957703   19.056521232   178.5762   5  10   1.6084   1.1729   0.8163   1.2807  -0.6502  -0.7911   0.00    0.0
2019/01/19 03:07:00.000   47.480958480   19.056520748   178.5276   5  10   1.6090   1.1746   0.8184   1.2848  -0.6534  -0.7966   0.00    0.0
2019/01/19 03:07:30.000   47.480958716   19.056522591   178.6694   5  10   1.6094   1.1762   0.8204   1.2883  -0.6563  -0.8017   0.00    0.0
2019/01/19 03:08:00.000   47.480958199   19.056524196   178.9896   5  10   1.6096   1.1775   0.8223   1.2911  -0.6589  -0.8065   0.00    0.0
2019/01/19 03:08:30.000   47.480957560   19.056525384   179.4155   5  10   1.6095   1.1786   0.8241   1.2934  -0.6613  -0.8110   0.00    0.0
2019/01/19 03:09:00.000   47.480958452   19.056525515   179.5373   5  10   1.6091   1.1795   0.8259   1.2950  -0.6633  -0.8151   0.00    0.0
2019/01/19 03:09:30.000   47.480959131   19.056522419   178.8983   5  10   1.6086   1.1801   0.8275   1.2960  -0.6651  -0.8188   0.00    0.0
2019/01/19 03:10:00.000   47.480959009   19.056520921   178.7773   5  10   1.6077   1.1806   0.8290   1.2963  -0.6666  -0.8222   0.00    0.0
2019/01/19 03:10:30.000   47.480959342   19.056521739   178.6813   5  10   1.6067   1.1808   0.8305   1.2960  -0.6678  -0.8252   0.00    0.0
2019/01/19 03:11:00.000   47.480959981   19.056521930   178.8010   5  10   1.6054   1.1809   0.8319   1.2950  -0.6687  -0.8278   0.00    0.0
2019/01/19 03:11:30.000   47.480960164   19.056521122   178.7886   5  10   1.6038   1.1807   0.8331   1.2934  -0.6693  -0.8301   0.00    0.0
2019/01/19 03:12:00.000   47.480959231   19.056520345   178.2448   5  10   1.6020   1.1803   0.8343   1.2912  -0.6696  -0.8320   0.00    0.0
2019/01/19 03:12:30.000   47.480957426   19.056519493   177.5952   5  10   1.6000   1.1797   0.8353   1.2884  -0.6696  -0.8336   0.00    0.0
2019/01/19 03:13:00.000   47.480955515   19.056519034   177.4852   5  10   1.5977   1.1789   0.8363   1.2849  -0.6693  -0.8347   0.00    0.0
2019/01/19 03:13:30.000   47.480955300   19.056520546   178.0179   5  10   1.5951   1.1779   0.8372   1.2808  -0.6687  -0.8356   0.00    0.0
2019/01/19 03:14:00.000   47.480956269   19.056522484   178.2944   5  10   1.5924   1.1766   0.8379   1.2760  -0.6678  -0.8360   0.00    0.0
2019/01/19 03:14:30.000   47.480957748   19.056523796   178.6111   5  10   1.5894   1.1752   0.8386   1.2707  -0.6666  -0.8361   0.00    0.0
2019/01/19 03:15:00.000   47.480958763   19.056525138   179.1577   5  10   1.5862   1.1735   0.8391   1.2648  -0.6651  -0.8358   0.00    0.0
2019/01/19 03:15:30.000   47.480958694   19.056525253   179.4390   5  10   1.5828   1.1717   0.8396   1.2583  -0.6633  -0.8352   0.00    0.0
2019/01/19 03:16:00.000   47.480958095   19.056524937   179.3990   5  10   1.5791   1.1696   0.8400   1.2513  -0.6612  -0.8342   0.00    0.0
2019/01/19 03:16:30.000   47.480958247   19.056525227   178.7163   5  10   1.5752   1.1674   0.8402   1.2437  -0.6589  -0.8329   0.00    0.0
2019/01/19 03:17:00.000   47.480959574   19.056523974   177.7984   5  10   1.5712   1.1650   0.8404   1.2357  -0.6562  -0.8313   0.00    0.0
2019/01/19 03:17:30.000   47.480960249   19.056523194   177.1669   5  10   1.5669   1.1624   0.8405   1.2271  -0.6533  -0.8294   0.00    0.0
2019/01/19 03:18:00.000   47.480958334   19.056522950   176.9575   5  10   1.5625   1.1596   0.8405   1.2180  -0.6502  -0.8271   0.00    0.0
2019/01/19 03:18:30.000   47.480956724   19.056523127   177.1700   5  10   1.5578   1.1567   0.8404   1.2084  -0.6467  -0.8246   0.00    0.0
2019/01/19 03:19:00.000   47.480955925   19.056523145   177.5180   5  10   1.5530   1.1536   0.8402   1.1984  -0.6431  -0.8217   0.00    0.0
2019/01/19 03:19:30.000   47.480957944   19.056523421   177.6089   5  10   1.5480   1.1503   0.8400   1.1880  -0.6392  -0.8186   0.00    0.0
2019/01/19 03:20:00.000   47.480959374   19.056523313   177.8840   5  10   1.5428   1.1469   0.8396   1.1772  -0.6350  -0.8152   0.00    0.0
2019/01/19 03:20:30.000   47.480967760   19.056530157   181.4528   5  11   1.3797   0.8830   0.6416   0.6733  -0.2379  -0.4446   0.00    0.0
2019/01/19 03:21:00.000   47.480966330   19.056529222   181.7148   5  11   1.3777   0.8834   0.6428   0.6719  -0.2383  -0.4466   0.00    0.0
2019/01/19 03:21:30.000   47.480964665   19.056528787   181.8935   5  11   1.3755   0.8838   0.6440   0.6704  -0.2388  -0.4485   0.00    0.0
2019/01/19 03:22:00.000   47.480963915   19.056528748   181.9192   5  11   1.3732   0.8840   0.6452   0.6686  -0.2391  -0.4503   0.00    0.0
2019/01/19 03:22:30.000   47.480964342   19.056529921   181.8991   5  11   1.3708   0.8842   0.6463   0.6667  -0.2393  -0.4520   0.00    0.0
2019/01/19 03:23:00.000   47.480964796   19.056530956   181.5125   5  11   1.3683   0.8844   0.6474   0.6645  -0.2395  -0.4536   0.00    0.0
2019/01/19 03:23:30.000   47.480964709   19.056530001   180.9820   5  11   1.3657   0.8844   0.6485   0.6622  -0.2396  -0.4551   0.00    0.0
2019/01/19 03:24:00.000   47.480964980   19.056529173   180.9162   5  11   1.3630   0.8844   0.6496   0.6596  -0.2397  -0.4564   0.00    0.0
2019/01/19 03:24:30.000   47.480965489   19.056528278   181.2074   5  11   1.3603   0.8843   0.6506   0.6568  -0.2396  -0.4577   0.00    0.0
2019/01/19 03:25:00.000   47.480966253   19.056528459   181.3761   5  11   1.3574   0.8841   0.6516   0.6539  -0.2395  -0.4588   0.00    0.0
2019/01/19 03:25:30.000   47.480966027   19.056528775   181.7594   5  11   1.3544   0.8838   0.6526   0.6507  -0.2393  -0.4599   0.00    0.0
2019/01/19 03:26:00.000   47.480967441   19.056529478   181.8251   5  11   1.3514   0.8835   0.6536   0.6474  -0.2390  -0.4608   0.00    0.0
2019/01/19 03:26:30.000   47.480969075   19.056529219   181.5185   5  11   1.3483   0.8831   0.6546   0.6439  -0.2387  -0.4617   0.00    0.0
2019/01/19 03:27:00.000   47.480968425   19.056529750   181.6261   5  11   1.3450   0.8826   0.6555   0.6402  -0.2383  -0.4624   0.00    0.0
2019/01/19 03:27:30.000   47.480967347   19.056529390   181.9904   5  11   1.3418   0.8821   0.6564   0.6364  -0.2378  -0.4631   0.00    0.0
2019/01/19 03:28:00.000   47.480966360   19.056531179   182.4466   5  11   1.3384   0.8815   0.6573   0.6324  -0.2372  -0.4636   0.00    0.0
2019/01/19 03:28:30.000   47.480966241   19.056533939   182.6623   5  11   1.3349   0.8808   0.6581   0.6282  -0.2366  -0.4640   0.00    0.0
2019/01/19 03:29:00.000   47.480966815   19.056534315   182.7759   5  11   1.3314   0.8801   0.6590   0.6238  -0.2358  -0.4644   0.00    0.0
2019/01/19 03:29:30.000   47.480967814   19.056532572   182.7098   5  11   1.3278   0.8793   0.6598   0.6193  -0.2351  -0.4646   0.00    0.0
