% program   : GINA 1.0
% inp file  : C:\Users\lus2bp\Source\Repos\GINA\70_EGNOS_Project\files\PositionComparisonInputFiles\bute0190\bute0190.19o
% inp file  : C:\Users\lus2bp\Source\Repos\GINA\70_EGNOS_Project\files\PositionComparisonInputFiles\bute0190\brdc0190.19n
% obs start : 2019/01/19 00:00:00.0 GPST (week2036 518400.0s)
% obs end   : 2019/01/19 23:59:30.0 GPST (week2036 604770.0s)
% pos mode  : single
% elev mask : 10.0 deg
% ionos opt : ems
% tropo opt : Neill
% ephemeris : broadcasted
% (lat/lon/height=WGS84/ellipsoidal,Q=1:fix,2:float,3:sbas,4:dgps,5:single,6:ppp,ns=# of satellites)
%  GPST                  latitude(deg) longitude(deg)  height(m)   Q  ns   sdn(m)   sde(m)   sdu(m)  sdne(m)  sdeu(m)  sdun(m) age(s)  ratio
2019/01/19 00:00:00.000   47.480957651   19.056548654   202.7506   5   5   4.7961   2.1349   2.0951   6.4337  -3.5858  -5.4930   0.00    0.0
2019/01/19 00:00:30.000   47.480964354   19.056564121   194.9564   5   8   1.2781   1.3231   0.8572   1.0897  -0.6552  -0.6499   0.00    0.0
2019/01/19 00:01:00.000   47.480966166   19.056564860   195.1374   5   8   1.2846   1.3281   0.8601   1.1064  -0.6609  -0.6588   0.00    0.0
2019/01/19 00:01:30.000   47.480966424   19.056566738   195.0771   5   8   1.2910   1.3330   0.8629   1.1230  -0.6666  -0.6678   0.00    0.0
2019/01/19 00:02:00.000   47.480966993   19.056565742   195.1268   5   8   1.2975   1.3378   0.8657   1.1395  -0.6722  -0.6768   0.00    0.0
2019/01/19 00:02:30.000   47.480967948   19.056564582   195.7796   5   8   1.3039   1.3424   0.8685   1.1558  -0.6777  -0.6858   0.00    0.0
2019/01/19 00:03:00.000   47.480968145   19.056563237   195.8491   5   8   1.3103   1.3470   0.8714   1.1721  -0.6832  -0.6947   0.00    0.0
2019/01/19 00:03:30.000   47.480968812   19.056558883   195.5054   5   8   1.3167   1.3515   0.8741   1.1882  -0.6885  -0.7036   0.00    0.0
2019/01/19 00:04:00.000   47.480968702   19.056556050   195.2981   5   8   1.3230   1.3558   0.8769   1.2041  -0.6937  -0.7125   0.00    0.0
2019/01/19 00:04:30.000   47.480968146   19.056556730   195.2070   5   8   1.3293   1.3600   0.8797   1.2198  -0.6988  -0.7213   0.00    0.0
2019/01/19 00:05:00.000   47.480966577   19.056555843   195.1341   5   8   1.3356   1.3641   0.8824   1.2353  -0.7037  -0.7301   0.00    0.0
2019/01/19 00:05:30.000   47.480964531   19.056558173   195.2964   5   8   1.3418   1.3681   0.8852   1.2506  -0.7086  -0.7388   0.00    0.0
2019/01/19 00:06:00.000   47.480963520   19.056560522   195.5927   5   8   1.3479   1.3719   0.8879   1.2656  -0.7132  -0.7474   0.00    0.0
2019/01/19 00:06:30.000   47.480963146   19.056561080   195.6169   5   8   1.3539   1.3755   0.8905   1.2803  -0.7178  -0.7560   0.00    0.0
2019/01/19 00:07:00.000   47.480963843   19.056561393   195.3605   5   8   1.3599   1.3790   0.8932   1.2947  -0.7221  -0.7644   0.00    0.0
2019/01/19 00:07:30.000   47.480965181   19.056558860   195.2961   5   8   1.3658   1.3823   0.8958   1.3088  -0.7263  -0.7728   0.00    0.0
2019/01/19 00:08:00.000   47.480965804   19.056556477   195.2508   5   8   1.3716   1.3854   0.8984   1.3225  -0.7302  -0.7810   0.00    0.0
2019/01/19 00:08:30.000   47.480965305   19.056556953   195.2929   5   8   1.3773   1.3884   0.9009   1.3359  -0.7340  -0.7891   0.00    0.0
2019/01/19 00:09:00.000   47.480964787   19.056556865   195.3121   5   8   1.3829   1.3911   0.9034   1.3489  -0.7376  -0.7971   0.00    0.0
2019/01/19 00:09:30.000   47.480964403   19.056557373   195.5676   5   8   1.3884   1.3937   0.9059   1.3614  -0.7410  -0.8050   0.00    0.0
2019/01/19 00:10:00.000   47.480964061   19.056558678   195.8496   5   8   1.3937   1.3961   0.9084   1.3735  -0.7441  -0.8127   0.00    0.0
2019/01/19 00:10:30.000   47.480965160   19.056558172   195.9939   5   8   1.3990   1.3983   0.9108   1.3852  -0.7470  -0.8202   0.00    0.0
2019/01/19 00:11:00.000   47.480966209   19.056556392   195.6098   5   8   1.4041   1.4003   0.9131   1.3964  -0.7496  -0.8276   0.00    0.0
2019/01/19 00:11:30.000   47.480966387   19.056556769   195.1017   5   8   1.4090   1.4021   0.9154   1.4071  -0.7521  -0.8348   0.00    0.0
2019/01/19 00:12:00.000   47.480966476   19.056558590   194.9579   5   8   1.4139   1.4036   0.9177   1.4173  -0.7542  -0.8418   0.00    0.0
2019/01/19 00:12:30.000   47.480966366   19.056559187   194.7147   5   8   1.4185   1.4049   0.9199   1.4269  -0.7561  -0.8486   0.00    0.0
2019/01/19 00:13:00.000   47.480966512   19.056560730   194.4890   5   8   1.4230   1.4061   0.9221   1.4360  -0.7577  -0.8552   0.00    0.0
2019/01/19 00:13:30.000   47.480965770   19.056564649   194.6502   5   8   1.4274   1.4069   0.9242   1.4446  -0.7591  -0.8616   0.00    0.0
2019/01/19 00:14:00.000   47.480965984   19.056565964   194.7520   5   8   1.4316   1.4076   0.9263   1.4525  -0.7601  -0.8678   0.00    0.0
2019/01/19 00:14:30.000   47.480966965   19.056566241   194.7584   5   8   1.4356   1.4080   0.9283   1.4599  -0.7609  -0.8737   0.00    0.0
2019/01/19 00:15:00.000   47.480967357   19.056565761   194.6110   5   8   1.4394   1.4082   0.9303   1.4666  -0.7614  -0.8794   0.00    0.0
2019/01/19 00:15:30.000   47.480966808   19.056563657   194.2988   5   8   1.4430   1.4082   0.9322   1.4728  -0.7616  -0.8849   0.00    0.0
2019/01/19 00:16:00.000   47.480967043   19.056561850   194.1015   5   8   1.4465   1.4079   0.9341   1.4783  -0.7615  -0.8901   0.00    0.0
2019/01/19 00:16:30.000   47.480967291   19.056560175   193.3374   5   8   1.4498   1.4074   0.9359   1.4831  -0.7610  -0.8950   0.00    0.0
2019/01/19 00:17:00.000   47.480965722   19.056561861   192.8223   5   8   1.4528   1.4066   0.9376   1.4873  -0.7603  -0.8997   0.00    0.0
2019/01/19 00:17:30.000   47.480964580   19.056561481   192.7169   5   8   1.4557   1.4056   0.9393   1.4909  -0.7593  -0.9042   0.00    0.0
2019/01/19 00:18:00.000   47.480964067   19.056561553   192.6977   5   8   1.4584   1.4044   0.9410   1.4938  -0.7580  -0.9084   0.00    0.0
2019/01/19 00:18:30.000   47.480963428   19.056562718   192.7324   5   8   1.4609   1.4029   0.9426   1.4960  -0.7563  -0.9123   0.00    0.0
2019/01/19 00:19:00.000   47.480961924   19.056562762   192.8242   5   8   1.4631   1.4012   0.9441   1.4976  -0.7544  -0.9159   0.00    0.0
2019/01/19 00:19:30.000   47.480961266   19.056560807   192.7641   5   8   1.4652   1.3993   0.9456   1.4985  -0.7521  -0.9193   0.00    0.0
2019/01/19 00:20:00.000   47.480961093   19.056559911   192.6386   5   8   1.4671   1.3971   0.9470   1.4987  -0.7496  -0.9224   0.00    0.0
2019/01/19 00:20:30.000   47.480961343   19.056559197   192.4658   5   8   1.4687   1.3947   0.9484   1.4983  -0.7467  -0.9253   0.00    0.0
2019/01/19 00:21:00.000   47.480960876   19.056559392   192.4392   5   8   1.4702   1.3921   0.9497   1.4972  -0.7436  -0.9278   0.00    0.0
2019/01/19 00:21:30.000   47.480959235   19.056561495   192.7983   5   8   1.4714   1.3892   0.9510   1.4955  -0.7402  -0.9301   0.00    0.0
2019/01/19 00:22:00.000   47.480958192   19.056562696   193.0771   5   8   1.4724   1.3861   0.9522   1.4931  -0.7365  -0.9321   0.00    0.0
2019/01/19 00:22:30.000   47.480957743   19.056564394   193.0904   5   8   1.4733   1.3828   0.9534   1.4901  -0.7324  -0.9339   0.00    0.0
2019/01/19 00:23:00.000   47.480958662   19.056562625   192.8156   5   8   1.4739   1.3793   0.9545   1.4865  -0.7282  -0.9354   0.00    0.0
2019/01/19 00:23:30.000   47.480959269   19.056560413   192.4481   5   8   1.4743   1.3756   0.9556   1.4822  -0.7236  -0.9366   0.00    0.0
2019/01/19 00:24:00.000   47.480959433   19.056559735   192.3272   5   8   1.4745   1.3717   0.9566   1.4774  -0.7188  -0.9376   0.00    0.0
2019/01/19 00:24:30.000   47.480958830   19.056560111   192.2062   5   8   1.4746   1.3675   0.9576   1.4719  -0.7137  -0.9383   0.00    0.0
2019/01/19 00:25:00.000   47.480957688   19.056563131   192.3251   5   8   1.4744   1.3632   0.9586   1.4659  -0.7084  -0.9388   0.00    0.0
2019/01/19 00:25:30.000   47.480957120   19.056565978   192.5232   5   8   1.4740   1.3587   0.9595   1.4593  -0.7028  -0.9391   0.00    0.0
2019/01/19 00:26:00.000   47.480956313   19.056566322   192.4470   5   8   1.4735   1.3540   0.9604   1.4522  -0.6970  -0.9391   0.00    0.0
2019/01/19 00:26:30.000   47.480956076   19.056563585   192.0514   5   8   1.4727   1.3492   0.9612   1.4445  -0.6910  -0.9388   0.00    0.0
2019/01/19 00:27:00.000   47.480955624   19.056560644   191.8526   5   8   1.4718   1.3442   0.9620   1.4364  -0.6848  -0.9384   0.00    0.0
2019/01/19 00:27:30.000   47.480955492   19.056559845   191.9141   5   8   1.4707   1.3390   0.9628   1.4277  -0.6783  -0.9377   0.00    0.0
2019/01/19 00:28:00.000   47.480956515   19.056557959   191.8329   5   8   1.4695   1.3336   0.9635   1.4186  -0.6717  -0.9369   0.00    0.0
2019/01/19 00:28:30.000   47.480957033   19.056557116   191.6732   5   8   1.4680   1.3281   0.9642   1.4090  -0.6648  -0.9358   0.00    0.0
2019/01/19 00:29:00.000   47.480957918   19.056555624   191.3016   5   8   1.4664   1.3225   0.9649   1.3990  -0.6578  -0.9345   0.00    0.0
2019/01/19 00:29:30.000   47.480959160   19.056556340   191.1322   5   8   1.4647   1.3167   0.9656   1.3886  -0.6506  -0.9331   0.00    0.0
2019/01/19 00:30:00.000   47.480959996   19.056557376   190.9633   5   8   1.4627   1.3108   0.9663   1.3777  -0.6433  -0.9315   0.00    0.0
2019/01/19 00:30:30.000   47.480958969   19.056559561   190.9042   5   8   1.4607   1.3048   0.9669   1.3665  -0.6358  -0.9297   0.00    0.0
2019/01/19 00:31:00.000   47.480956961   19.056562107   191.0690   5   8   1.4584   1.2987   0.9675   1.3550  -0.6282  -0.9278   0.00    0.0
2019/01/19 00:31:30.000   47.480957675   19.056557989   190.8888   5   8   1.4561   1.2925   0.9681   1.3431  -0.6204  -0.9257   0.00    0.0
2019/01/19 00:32:00.000   47.480955872   19.056557841   190.7536   5   8   1.4536   1.2862   0.9687   1.3309  -0.6125  -0.9234   0.00    0.0
2019/01/19 00:32:30.000   47.480952845   19.056559821   190.5042   5   8   1.4510   1.2797   0.9693   1.3184  -0.6045  -0.9210   0.00    0.0
2019/01/19 00:33:00.000   47.480950482   19.056561761   190.3961   5   8   1.4483   1.2732   0.9699   1.3057  -0.5964  -0.9185   0.00    0.0
2019/01/19 00:33:30.000   47.480949682   19.056563565   190.5411   5   8   1.4454   1.2666   0.9704   1.2927  -0.5882  -0.9159   0.00    0.0
2019/01/19 00:34:00.000   47.480949898   19.056564508   190.6626   5   8   1.4424   1.2600   0.9710   1.2794  -0.5800  -0.9132   0.00    0.0
2019/01/19 00:34:30.000   47.480951353   19.056562198   190.4753   5   8   1.4394   1.2533   0.9716   1.2660  -0.5716  -0.9104   0.00    0.0
2019/01/19 00:35:00.000   47.480951692   19.056561467   190.6440   5   8   1.4362   1.2465   0.9721   1.2523  -0.5631  -0.9074   0.00    0.0
2019/01/19 00:35:30.000   47.480951345   19.056560535   190.5694   5   8   1.4329   1.2397   0.9727   1.2385  -0.5546  -0.9044   0.00    0.0
2019/01/19 00:36:00.000   47.480950872   19.056559044   190.2871   5   8   1.4295   1.2328   0.9733   1.2245  -0.5461  -0.9013   0.00    0.0
2019/01/19 00:36:30.000   47.480950647   19.056557405   190.0547   5   8   1.4261   1.2259   0.9739   1.2104  -0.5375  -0.8981   0.00    0.0
2019/01/19 00:37:00.000   47.480950237   19.056556491   189.9803   5   8   1.4226   1.2189   0.9744   1.1961  -0.5289  -0.8949   0.00    0.0
2019/01/19 00:37:30.000   47.480950006   19.056555985   189.9988   5   8   1.4189   1.2119   0.9750   1.1818  -0.5202  -0.8916   0.00    0.0
2019/01/19 00:38:00.000   47.480949776   19.056558650   190.1681   5   8   1.4153   1.2049   0.9756   1.1673  -0.5115  -0.8883   0.00    0.0
2019/01/19 00:38:30.000   47.480950948   19.056560231   190.2850   5   8   1.4115   1.1979   0.9763   1.1528  -0.5028  -0.8849   0.00    0.0
2019/01/19 00:39:00.000   47.480951082   19.056560303   190.3299   5   8   1.4077   1.1909   0.9769   1.1382  -0.4940  -0.8815   0.00    0.0
2019/01/19 00:39:30.000   47.480950121   19.056559488   190.2263   5   8   1.4038   1.1839   0.9775   1.1236  -0.4853  -0.8781   0.00    0.0
2019/01/19 00:40:00.000   47.480950749   19.056556908   189.9954   5   8   1.3999   1.1768   0.9782   1.1089  -0.4765  -0.8746   0.00    0.0
2019/01/19 00:40:30.000   47.480950735   19.056557457   190.0618   5   8   1.3959   1.1698   0.9789   1.0942  -0.4678  -0.8711   0.00    0.0
2019/01/19 00:41:00.000   47.480950463   19.056561043   190.1161   5   8   1.3919   1.1628   0.9796   1.0795  -0.4591  -0.8676   0.00    0.0
2019/01/19 00:41:30.000   47.480950937   19.056561381   189.6696   5   8   1.3879   1.1557   0.9803   1.0648  -0.4503  -0.8641   0.00    0.0
2019/01/19 00:42:00.000   47.480948924   19.056562744   189.5227   5   8   1.3838   1.1487   0.9811   1.0501  -0.4416  -0.8605   0.00    0.0
2019/01/19 00:42:30.000   47.480947344   19.056563130   189.6109   5   8   1.3796   1.1418   0.9818   1.0355  -0.4329  -0.8570   0.00    0.0
2019/01/19 00:43:00.000   47.480948231   19.056561829   189.8138   5   8   1.3755   1.1348   0.9826   1.0208  -0.4243  -0.8535   0.00    0.0
2019/01/19 00:43:30.000   47.480951782   19.056561821   190.2297   5   8   1.3713   1.1279   0.9834   1.0063  -0.4156  -0.8500   0.00    0.0
2019/01/19 00:44:00.000   47.480954666   19.056559644   190.1874   5   8   1.3671   1.1210   0.9842   0.9917  -0.4070  -0.8465   0.00    0.0
2019/01/19 00:44:30.000   47.480956010   19.056556842   189.8534   5   8   1.3629   1.1141   0.9851   0.9772  -0.3985  -0.8430   0.00    0.0
2019/01/19 00:45:00.000   47.480954879   19.056558326   189.7179   5   8   1.3586   1.1073   0.9860   0.9628  -0.3899  -0.8395   0.00    0.0
2019/01/19 00:45:30.000   47.480954068   19.056560231   189.7372   5   8   1.3544   1.1005   0.9869   0.9485  -0.3814  -0.8361   0.00    0.0
2019/01/19 00:46:00.000   47.480954370   19.056560770   189.9368   5   8   1.3501   1.0937   0.9878   0.9343  -0.3730  -0.8326   0.00    0.0
2019/01/19 00:46:30.000   47.480954082   19.056561449   190.0297   5   8   1.3458   1.0870   0.9888   0.9201  -0.3646  -0.8292   0.00    0.0
2019/01/19 00:47:00.000   47.480955005   19.056568645   191.7184   5   9   1.1522   0.9949   0.6736   0.6166  -0.0508  -0.3276   0.00    0.0
2019/01/19 00:47:30.000   47.480954215   19.056568022   191.6735   5   9   1.1516   0.9922   0.6752   0.6130  -0.0502  -0.3296   0.00    0.0
2019/01/19 00:48:00.000   47.480953998   19.056566913   191.5214   5   9   1.1508   0.9895   0.6769   0.6092  -0.0496  -0.3316   0.00    0.0
2019/01/19 00:48:30.000   47.480955005   19.056564628   191.4425   5   9   1.1501   0.9866   0.6785   0.6052  -0.0490  -0.3336   0.00    0.0
2019/01/19 00:49:00.000   47.480955578   19.056564627   191.2718   5   9   1.1492   0.9838   0.6802   0.6012  -0.0484  -0.3356   0.00    0.0
2019/01/19 00:49:30.000   47.480955725   19.056566027   191.2841   5   9   1.1484   0.9809   0.6818   0.5971  -0.0478  -0.3376   0.00    0.0
2019/01/19 00:50:00.000   47.480954324   19.056566680   191.1693   5   9   1.1474   0.9779   0.6835   0.5929  -0.0471  -0.3396   0.00    0.0
2019/01/19 00:50:30.000   47.480953399   19.056567807   191.2394   5   9   1.1465   0.9749   0.6852   0.5886  -0.0464  -0.3415   0.00    0.0
2019/01/19 00:51:00.000   47.480953427   19.056567774   191.1368   5   9   1.1455   0.9719   0.6868   0.5842  -0.0458  -0.3434   0.00    0.0
2019/01/19 00:51:30.000   47.480952950   19.056568361   191.1596   5   9   1.1444   0.9689   0.6885   0.5797  -0.0450  -0.3453   0.00    0.0
2019/01/19 00:52:00.000   47.480951008   19.056569189   190.9527   5   9   1.1433   0.9658   0.6902   0.5751  -0.0443  -0.3472   0.00    0.0
2019/01/19 00:52:30.000   47.480949808   19.056568305   190.7439   5   9   1.1422   0.9626   0.6919   0.5705  -0.0436  -0.3491   0.00    0.0
2019/01/19 00:53:00.000   47.480949036   19.056567066   190.5242   5   9   1.1410   0.9595   0.6936   0.5658  -0.0428  -0.3510   0.00    0.0
2019/01/19 00:53:30.000   47.480949980   19.056565998   190.2316   5   9   1.1397   0.9563   0.6953   0.5610  -0.0420  -0.3528   0.00    0.0
2019/01/19 00:54:00.000   47.480951116   19.056566274   190.0057   5   9   1.1385   0.9531   0.6970   0.5561  -0.0412  -0.3547   0.00    0.0
2019/01/19 00:54:30.000   47.480951572   19.056567198   189.8852   5   9   1.1372   0.9498   0.6987   0.5512  -0.0404  -0.3565   0.00    0.0
2019/01/19 00:55:00.000   47.480950641   19.056566800   189.8331   5   9   1.1358   0.9465   0.7004   0.5463  -0.0396  -0.3583   0.00    0.0
2019/01/19 00:55:30.000   47.480949812   19.056564973   189.5940   5   9   1.1345   0.9433   0.7021   0.5413  -0.0387  -0.3601   0.00    0.0
2019/01/19 00:56:00.000   47.480949340   19.056564557   189.5989   5   9   1.1331   0.9399   0.7038   0.5362  -0.0378  -0.3619   0.00    0.0
2019/01/19 00:56:30.000   47.480947963   19.056563411   189.7524   5   9   1.1316   0.9366   0.7055   0.5311  -0.0370  -0.3636   0.00    0.0
2019/01/19 00:57:00.000   47.480947673   19.056562288   189.5921   5   9   1.1302   0.9333   0.7072   0.5259  -0.0361  -0.3653   0.00    0.0
2019/01/19 00:57:30.000   47.480948435   19.056562036   189.2139   5   9   1.1287   0.9299   0.7089   0.5208  -0.0352  -0.3671   0.00    0.0
2019/01/19 00:58:00.000   47.480948917   19.056561074   188.8588   5   9   1.1271   0.9265   0.7106   0.5155  -0.0343  -0.3688   0.00    0.0
2019/01/19 00:58:30.000   47.480948517   19.056559761   188.3651   5   9   1.1256   0.9232   0.7124   0.5103  -0.0333  -0.3704   0.00    0.0
2019/01/19 00:59:00.000   47.480948139   19.056558149   188.0859   5   9   1.1240   0.9198   0.7141   0.5050  -0.0324  -0.3721   0.00    0.0
2019/01/19 00:59:30.000   47.480949939   19.056557959   187.7445   5   9   1.1224   0.9164   0.7158   0.4997  -0.0314  -0.3738   0.00    0.0
2019/01/19 01:00:00.000   47.480951203   19.056557179   188.0260   5   9   1.1207   0.9130   0.7176   0.4944  -0.0304  -0.3754   0.00    0.0
2019/01/19 01:00:30.000   47.480952938   19.056555404   188.3949   5   9   1.1191   0.9096   0.7193   0.4890  -0.0295  -0.3770   0.00    0.0
2019/01/19 01:01:00.000   47.480955226   19.056553724   188.3455   5   9   1.1174   0.9061   0.7210   0.4837  -0.0285  -0.3786   0.00    0.0
2019/01/19 01:01:30.000   47.480956209   19.056552000   188.3133   5   9   1.1157   0.9027   0.7227   0.4783  -0.0275  -0.3802   0.00    0.0
2019/01/19 01:02:00.000   47.480956154   19.056551622   188.3777   5   9   1.1139   0.8993   0.7245   0.4729  -0.0265  -0.3817   0.00    0.0
2019/01/19 01:02:30.000   47.480955319   19.056551191   188.4263   5   9   1.1122   0.8959   0.7262   0.4675  -0.0254  -0.3833   0.00    0.0
2019/01/19 01:03:00.000   47.480954834   19.056551442   188.6496   5   9   1.1104   0.8925   0.7279   0.4622  -0.0244  -0.3848   0.00    0.0
2019/01/19 01:03:30.000   47.480954026   19.056553540   188.9843   5   9   1.1086   0.8891   0.7297   0.4568  -0.0234  -0.3863   0.00    0.0
2019/01/19 01:04:00.000   47.480954645   19.056553395   189.2679   5   9   1.1068   0.8856   0.7314   0.4514  -0.0223  -0.3878   0.00    0.0
2019/01/19 01:04:30.000   47.480954498   19.056552833   189.6252   5   9   1.1050   0.8822   0.7331   0.4460  -0.0213  -0.3893   0.00    0.0
2019/01/19 01:05:00.000   47.480953282   19.056551825   189.6784   5   9   1.1032   0.8788   0.7349   0.4406  -0.0202  -0.3907   0.00    0.0
2019/01/19 01:05:30.000   47.480953484   19.056549185   189.5603   5   9   1.1013   0.8755   0.7366   0.4353  -0.0191  -0.3922   0.00    0.0
2019/01/19 01:06:00.000   47.480954602   19.056545572   189.4405   5   9   1.0994   0.8721   0.7383   0.4299  -0.0180  -0.3936   0.00    0.0
2019/01/19 01:06:30.000   47.480955132   19.056543286   189.3691   5   9   1.0975   0.8687   0.7401   0.4246  -0.0169  -0.3949   0.00    0.0
2019/01/19 01:07:00.000   47.480956238   19.056543026   189.4295   5   9   1.0956   0.8653   0.7418   0.4193  -0.0158  -0.3963   0.00    0.0
2019/01/19 01:07:30.000   47.480956340   19.056542698   189.5986   5   9   1.0937   0.8620   0.7435   0.4140  -0.0147  -0.3977   0.00    0.0
2019/01/19 01:08:00.000   47.480957270   19.056542930   189.4805   5   9   1.0918   0.8587   0.7452   0.4087  -0.0136  -0.3990   0.00    0.0
2019/01/19 01:08:30.000   47.480958606   19.056541951   189.1146   5   9   1.0898   0.8553   0.7470   0.4034  -0.0125  -0.4003   0.00    0.0
2019/01/19 01:09:00.000   47.480960843   19.056540679   188.9472   5   9   1.0879   0.8520   0.7487   0.3982  -0.0114  -0.4016   0.00    0.0
2019/01/19 01:09:30.000   47.480962235   19.056540275   188.7669   5   9   1.0859   0.8487   0.7504   0.3929  -0.0103  -0.4028   0.00    0.0
2019/01/19 01:10:00.000   47.480962596   19.056540778   188.6498   5   9   1.0839   0.8454   0.7521   0.3877  -0.0092  -0.4041   0.00    0.0
2019/01/19 01:10:30.000   47.480962464   19.056542422   188.5817   5   9   1.0819   0.8422   0.7538   0.3826  -0.0080  -0.4053   0.00    0.0
2019/01/19 01:11:00.000   47.480960909   19.056545639   188.7525   5   9   1.0799   0.8389   0.7555   0.3774  -0.0069  -0.4065   0.00    0.0
2019/01/19 01:11:30.000   47.480958994   19.056546189   188.7822   5   9   1.0779   0.8357   0.7572   0.3723  -0.0058  -0.4077   0.00    0.0
2019/01/19 01:12:00.000   47.480958374   19.056544735   188.5764   5   9   1.0759   0.8325   0.7589   0.3672  -0.0046  -0.4088   0.00    0.0
2019/01/19 01:12:30.000   47.480957484   19.056543587   188.2121   5   9   1.0739   0.8293   0.7606   0.3622  -0.0035  -0.4100   0.00    0.0
2019/01/19 01:13:00.000   47.480956648   19.056542244   188.2697   5   9   1.0718   0.8261   0.7623   0.3572  -0.0024  -0.4111   0.00    0.0
2019/01/19 01:13:30.000   47.480957370   19.056542344   188.3756   5   9   1.0698   0.8230   0.7640   0.3522  -0.0012  -0.4122   0.00    0.0
2019/01/19 01:14:00.000   47.480957984   19.056541742   188.6789   5   9   1.0677   0.8199   0.7656   0.3473  -0.0001  -0.4132   0.00    0.0
2019/01/19 01:14:30.000   47.480960257   19.056540014   188.8650   5   9   1.0656   0.8167   0.7673   0.3423   0.0011  -0.4142   0.00    0.0
2019/01/19 01:15:00.000   47.480962064   19.056539445   189.0465   5   9   1.0636   0.8136   0.7690   0.3375   0.0022  -0.4153   0.00    0.0
2019/01/19 01:15:30.000   47.480962678   19.056540625   189.2416   5   9   1.0615   0.8106   0.7706   0.3326   0.0034  -0.4162   0.00    0.0
2019/01/19 01:16:00.000   47.480963041   19.056542192   189.3979   5   9   1.0594   0.8075   0.7723   0.3278   0.0045  -0.4172   0.00    0.0
2019/01/19 01:16:30.000   47.480964520   19.056542705   189.4157   5   9   1.0573   0.8045   0.7739   0.3231   0.0056  -0.4181   0.00    0.0
2019/01/19 01:17:00.000   47.480965221   19.056542138   189.5751   5   9   1.0552   0.8015   0.7756   0.3184   0.0068  -0.4190   0.00    0.0
2019/01/19 01:17:30.000   47.480966778   19.056542634   189.6032   5   9   1.0531   0.7985   0.7772   0.3137   0.0079  -0.4199   0.00    0.0
2019/01/19 01:18:00.000   47.480967021   19.056541952   189.6988   5   9   1.0510   0.7956   0.7788   0.3091   0.0091  -0.4208   0.00    0.0
2019/01/19 01:18:30.000   47.480967467   19.056541733   189.7553   5   9   1.0488   0.7926   0.7804   0.3045   0.0102  -0.4216   0.00    0.0
2019/01/19 01:19:00.000   47.480967805   19.056541860   189.6863   5   9   1.0467   0.7897   0.7821   0.2999   0.0113  -0.4224   0.00    0.0
2019/01/19 01:19:30.000   47.480968725   19.056538851   189.6562   5   9   1.0446   0.7868   0.7837   0.2954   0.0125  -0.4232   0.00    0.0
2019/01/19 01:20:00.000   47.480968342   19.056537063   189.7943   5   9   1.0424   0.7840   0.7853   0.2910   0.0136  -0.4239   0.00    0.0
2019/01/19 01:20:30.000   47.480972295   19.056529970   190.4867   5  10   1.0126   0.6254   0.7763   0.1750  -0.0453  -0.4552   0.00    0.0
2019/01/19 01:21:00.000   47.480971386   19.056528997   190.6634   5  10   1.0119   0.6248   0.7774   0.1746  -0.0451  -0.4558   0.00    0.0
2019/01/19 01:21:30.000   47.480970348   19.056527873   190.9087   5  10   1.0112   0.6243   0.7784   0.1742  -0.0450  -0.4564   0.00    0.0
2019/01/19 01:22:00.000   47.480969195   19.056526965   190.9421   5  10   1.0104   0.6237   0.7794   0.1737  -0.0448  -0.4569   0.00    0.0
2019/01/19 01:22:30.000   47.480968291   19.056526190   191.0683   5  10   1.0095   0.6232   0.7804   0.1733  -0.0446  -0.4573   0.00    0.0
2019/01/19 01:23:00.000   47.480967947   19.056525416   191.0478   5  10   1.0086   0.6226   0.7814   0.1728  -0.0444  -0.4576   0.00    0.0
2019/01/19 01:23:30.000   47.480967948   19.056524014   191.0432   5  10   1.0077   0.6221   0.7823   0.1722  -0.0442  -0.4579   0.00    0.0
2019/01/19 01:24:00.000   47.480967717   19.056526288   191.1554   5  10   1.0067   0.6215   0.7833   0.1717  -0.0440  -0.4581   0.00    0.0
2019/01/19 01:24:30.000   47.480968525   19.056529023   191.1680   5  10   1.0056   0.6210   0.7842   0.1711  -0.0438  -0.4583   0.00    0.0
2019/01/19 01:25:00.000   47.480968941   19.056532219   191.1072   5  10   1.0045   0.6204   0.7850   0.1705  -0.0435  -0.4584   0.00    0.0
2019/01/19 01:25:30.000   47.480970203   19.056534498   190.7405   5  10   1.0034   0.6199   0.7859   0.1699  -0.0433  -0.4584   0.00    0.0
2019/01/19 01:26:00.000   47.480970613   19.056535097   190.4036   5  10   1.0022   0.6193   0.7867   0.1693  -0.0430  -0.4584   0.00    0.0
2019/01/19 01:26:30.000   47.480971010   19.056534802   190.3960   5  10   1.0009   0.6187   0.7875   0.1687  -0.0427  -0.4583   0.00    0.0
2019/01/19 01:27:00.000   47.480969069   19.056535662   190.6925   5  10   0.9997   0.6181   0.7883   0.1680  -0.0424  -0.4581   0.00    0.0
2019/01/19 01:27:30.000   47.480985761   19.056538967   187.9552   5   9   1.4887   0.6470   0.8742  -0.0459   0.0305  -0.8734   0.00    0.0
2019/01/19 01:28:00.000   47.480962506   19.056531267   185.2064   5   8   1.4942   0.7953   0.8937   0.0066  -0.0482  -0.8993   0.00    0.0
2019/01/19 01:28:30.000   47.480962507   19.056532373   185.1980   5   8   1.4956   0.7955   0.8969   0.0080  -0.0486  -0.9064   0.00    0.0
2019/01/19 01:29:00.000   47.480962590   19.056532500   185.2951   5   8   1.4969   0.7956   0.9001   0.0093  -0.0489  -0.9134   0.00    0.0
2019/01/19 01:29:30.000   47.480962930   19.056531712   185.2099   5   8   1.4981   0.7958   0.9033   0.0107  -0.0492  -0.9203   0.00    0.0
2019/01/19 01:30:00.000   47.480963581   19.056531382   185.0174   5   8   1.4993   0.7959   0.9065   0.0120  -0.0495  -0.9272   0.00    0.0
2019/01/19 01:30:30.000   47.480962811   19.056532896   184.9325   5   8   1.5004   0.7960   0.9096   0.0133  -0.0498  -0.9339   0.00    0.0
2019/01/19 01:31:00.000   47.480949854   19.056544089   187.7752   5   9   1.2194   0.7945   0.6190   0.0584  -0.0837  -0.3530   0.00    0.0
2019/01/19 01:31:30.000   47.480949305   19.056542090   187.6568   5   9   1.2199   0.7945   0.6208   0.0603  -0.0846  -0.3566   0.00    0.0
2019/01/19 01:32:00.000   47.480950454   19.056540828   187.5027   5   9   1.2204   0.7946   0.6225   0.0623  -0.0855  -0.3602   0.00    0.0
2019/01/19 01:32:30.000   47.480951687   19.056540120   187.3767   5   9   1.2209   0.7946   0.6243   0.0642  -0.0864  -0.3638   0.00    0.0
2019/01/19 01:33:00.000   47.480951080   19.056540281   187.4510   5   9   1.2213   0.7946   0.6261   0.0661  -0.0873  -0.3675   0.00    0.0
2019/01/19 01:33:30.000   47.480950847   19.056539820   187.1722   5   9   1.2217   0.7946   0.6279   0.0680  -0.0883  -0.3710   0.00    0.0
2019/01/19 01:34:00.000   47.480950089   19.056538220   186.8196   5   9   1.2221   0.7946   0.6297   0.0699  -0.0892  -0.3746   0.00    0.0
2019/01/19 01:34:30.000   47.480950261   19.056535972   186.5613   5   9   1.2225   0.7945   0.6315   0.0717  -0.0901  -0.3782   0.00    0.0
2019/01/19 01:35:00.000   47.480950821   19.056534922   186.2866   5   9   1.2229   0.7945   0.6333   0.0735  -0.0910  -0.3817   0.00    0.0
2019/01/19 01:35:30.000   47.480953078   19.056534076   185.8678   5   9   1.2232   0.7944   0.6351   0.0753  -0.0920  -0.3853   0.00    0.0
2019/01/19 01:36:00.000   47.480953798   19.056534963   185.6951   5   9   1.2235   0.7944   0.6369   0.0771  -0.0929  -0.3888   0.00    0.0
2019/01/19 01:36:30.000   47.480953434   19.056535411   185.9274   5   9   1.2237   0.7943   0.6388   0.0789  -0.0938  -0.3923   0.00    0.0
2019/01/19 01:37:00.000   47.480952178   19.056537205   186.0432   5   9   1.2240   0.7942   0.6406   0.0806  -0.0947  -0.3958   0.00    0.0
2019/01/19 01:37:30.000   47.480951088   19.056537963   186.0403   5   9   1.2242   0.7941   0.6425   0.0823  -0.0956  -0.3993   0.00    0.0
2019/01/19 01:38:00.000   47.480950516   19.056537638   185.8220   5   9   1.2244   0.7940   0.6444   0.0840  -0.0965  -0.4027   0.00    0.0
2019/01/19 01:38:30.000   47.480950723   19.056536639   185.5434   5   9   1.2245   0.7938   0.6462   0.0857  -0.0974  -0.4062   0.00    0.0
2019/01/19 01:39:00.000   47.480951022   19.056535640   185.4661   5   9   1.2246   0.7937   0.6481   0.0873  -0.0983  -0.4096   0.00    0.0
2019/01/19 01:39:30.000   47.480951752   19.056534859   185.3250   5   9   1.2247   0.7936   0.6500   0.0889  -0.0992  -0.4130   0.00    0.0
2019/01/19 01:40:00.000   47.480952587   19.056534514   185.3206   5   9   1.2248   0.7934   0.6519   0.0905  -0.1001  -0.4164   0.00    0.0
2019/01/19 01:40:30.000   47.480952174   19.056533737   185.2281   5   9   1.2248   0.7932   0.6538   0.0921  -0.1010  -0.4197   0.00    0.0
2019/01/19 01:41:00.000   47.480951123   19.056533233   185.1046   5   9   1.2248   0.7930   0.6557   0.0936  -0.1019  -0.4230   0.00    0.0
2019/01/19 01:41:30.000   47.480949219   19.056533365   185.3243   5   9   1.2248   0.7928   0.6576   0.0951  -0.1027  -0.4263   0.00    0.0
2019/01/19 01:42:00.000   47.480947405   19.056532959   185.4984   5   9   1.2247   0.7926   0.6595   0.0966  -0.1036  -0.4296   0.00    0.0
2019/01/19 01:42:30.000   47.480947866   19.056532410   185.3733   5   9   1.2246   0.7924   0.6614   0.0980  -0.1044  -0.4329   0.00    0.0
2019/01/19 01:43:00.000   47.480948698   19.056531670   185.1956   5   9   1.2245   0.7921   0.6633   0.0994  -0.1053  -0.4361   0.00    0.0
2019/01/19 01:43:30.000   47.480949893   19.056530677   184.8979   5   9   1.2243   0.7919   0.6653   0.1008  -0.1061  -0.4393   0.00    0.0
2019/01/19 01:44:00.000   47.480950305   19.056532114   184.8182   5   9   1.2241   0.7916   0.6672   0.1021  -0.1070  -0.4425   0.00    0.0
2019/01/19 01:44:30.000   47.480950062   19.056533570   184.8156   5   9   1.2238   0.7913   0.6691   0.1034  -0.1078  -0.4456   0.00    0.0
2019/01/19 01:45:00.000   47.480950189   19.056533072   184.7747   5   9   1.2236   0.7910   0.6710   0.1047  -0.1086  -0.4487   0.00    0.0
2019/01/19 01:45:30.000   47.480950925   19.056531883   184.7301   5   9   1.2233   0.7907   0.6730   0.1059  -0.1094  -0.4518   0.00    0.0
2019/01/19 01:46:00.000   47.480952990   19.056529292   184.4796   5   9   1.2229   0.7904   0.6749   0.1071  -0.1101  -0.4548   0.00    0.0
2019/01/19 01:46:30.000   47.480953496   19.056527203   184.2343   5   9   1.2225   0.7900   0.6768   0.1083  -0.1109  -0.4578   0.00    0.0
2019/01/19 01:47:00.000   47.480953478   19.056526646   184.3734   5   9   1.2221   0.7897   0.6788   0.1094  -0.1117  -0.4608   0.00    0.0
2019/01/19 01:47:30.000   47.480953823   19.056525885   184.3759   5   9   1.2216   0.7893   0.6807   0.1105  -0.1124  -0.4637   0.00    0.0
2019/01/19 01:48:00.000   47.480954258   19.056525428   184.4121   5   9   1.2211   0.7889   0.6827   0.1116  -0.1132  -0.4667   0.00    0.0
2019/01/19 01:48:30.000   47.480953699   19.056525330   184.3970   5   9   1.2206   0.7885   0.6846   0.1126  -0.1139  -0.4695   0.00    0.0
2019/01/19 01:49:00.000   47.480953812   19.056525823   184.1767   5   9   1.2200   0.7881   0.6865   0.1136  -0.1146  -0.4724   0.00    0.0
2019/01/19 01:49:30.000   47.480953858   19.056525612   184.0029   5   9   1.2194   0.7877   0.6885   0.1145  -0.1153  -0.4752   0.00    0.0
2019/01/19 01:50:00.000   47.480955570   19.056523899   183.8037   5   9   1.2188   0.7872   0.6904   0.1154  -0.1159  -0.4779   0.00    0.0
2019/01/19 01:50:30.000   47.480957069   19.056524369   183.7823   5   9   1.2181   0.7868   0.6923   0.1163  -0.1166  -0.4807   0.00    0.0
2019/01/19 01:51:00.000   47.480957266   19.056524221   183.7955   5   9   1.2174   0.7863   0.6943   0.1171  -0.1172  -0.4833   0.00    0.0
2019/01/19 01:51:30.000   47.480958324   19.056522336   183.6980   5   9   1.2166   0.7858   0.6962   0.1179  -0.1179  -0.4860   0.00    0.0
2019/01/19 01:52:00.000   47.480957614   19.056522057   183.7981   5   9   1.2158   0.7853   0.6982   0.1186  -0.1185  -0.4886   0.00    0.0
2019/01/19 01:52:30.000   47.480957744   19.056522459   183.9044   5   9   1.2150   0.7848   0.7001   0.1193  -0.1191  -0.4912   0.00    0.0
2019/01/19 01:53:00.000   47.480956830   19.056522627   184.0841   5   9   1.2141   0.7843   0.7020   0.1200  -0.1196  -0.4937   0.00    0.0
2019/01/19 01:53:30.000   47.480966644   19.056519691   185.1644   5  10   1.2020   0.6550   0.7034   0.0500  -0.1086  -0.4917   0.00    0.0
2019/01/19 01:54:00.000   47.480968067   19.056518558   185.1026   5  10   1.2015   0.6554   0.7054   0.0523  -0.1098  -0.4945   0.00    0.0
2019/01/19 01:54:30.000   47.480969161   19.056518275   185.0681   5  10   1.2010   0.6558   0.7074   0.0546  -0.1110  -0.4972   0.00    0.0
2019/01/19 01:55:00.000   47.480970126   19.056516698   184.9419   5  10   1.2005   0.6562   0.7093   0.0569  -0.1122  -0.4999   0.00    0.0
2019/01/19 01:55:30.000   47.480969480   19.056516136   184.8713   5  10   1.1998   0.6566   0.7113   0.0592  -0.1134  -0.5025   0.00    0.0
2019/01/19 01:56:00.000   47.480968117   19.056515705   184.8426   5  10   1.1992   0.6570   0.7133   0.0615  -0.1145  -0.5051   0.00    0.0
2019/01/19 01:56:30.000   47.480966097   19.056515638   184.8682   5  10   1.1985   0.6574   0.7152   0.0637  -0.1157  -0.5076   0.00    0.0
2019/01/19 01:57:00.000   47.480964751   19.056516015   185.0867   5  10   1.1977   0.6577   0.7171   0.0658  -0.1168  -0.5101   0.00    0.0
2019/01/19 01:57:30.000   47.480964727   19.056515411   185.2184   5  10   1.1969   0.6581   0.7191   0.0680  -0.1180  -0.5125   0.00    0.0
2019/01/19 01:58:00.000   47.480964520   19.056515506   185.6469   5  10   1.1961   0.6585   0.7210   0.0701  -0.1191  -0.5149   0.00    0.0
2019/01/19 01:58:30.000   47.480964975   19.056513753   185.9054   5  10   1.1952   0.6589   0.7229   0.0721  -0.1202  -0.5173   0.00    0.0
2019/01/19 01:59:00.000   47.480964737   19.056513607   186.0491   5  10   1.1943   0.6592   0.7248   0.0742  -0.1213  -0.5195   0.00    0.0
2019/01/19 01:59:30.000   47.480954391   19.056538244   190.2330   5  11   1.1097   0.6558   0.5771   0.0451  -0.0912  -0.3279   0.00    0.0
2019/01/19 02:00:00.000   47.480954728   19.056539536   190.0581   5  11   1.1088   0.6562   0.5786   0.0472  -0.0924  -0.3297   0.00    0.0
2019/01/19 02:00:30.000   47.480954403   19.056539884   189.8748   5  11   1.1078   0.6566   0.5801   0.0493  -0.0935  -0.3315   0.00    0.0
2019/01/19 02:01:00.000   47.480953331   19.056539849   189.8595   5  11   1.1068   0.6569   0.5816   0.0514  -0.0946  -0.3333   0.00    0.0
2019/01/19 02:01:30.000   47.480952357   19.056538951   189.8144   5  11   1.1058   0.6573   0.5831   0.0534  -0.0957  -0.3351   0.00    0.0
2019/01/19 02:02:00.000   47.480965316   19.056559484   186.5566   5  10   1.4250   0.6577   0.5854   0.0578  -0.0968  -0.3091   0.00    0.0
2019/01/19 02:02:30.000   47.480965001   19.056559010   186.4909   5  10   1.4238   0.6581   0.5867   0.0628  -0.0978  -0.3127   0.00    0.0
2019/01/19 02:03:00.000   47.480965750   19.056557282   186.2152   5  10   1.4225   0.6585   0.5881   0.0678  -0.0988  -0.3163   0.00    0.0
2019/01/19 02:03:30.000   47.480967233   19.056554758   185.8715   5  10   1.4212   0.6589   0.5895   0.0728  -0.0998  -0.3198   0.00    0.0
2019/01/19 02:04:00.000   47.480968586   19.056552919   185.6453   5  10   1.4199   0.6594   0.5909   0.0777  -0.1009  -0.3233   0.00    0.0
2019/01/19 02:04:30.000   47.480968005   19.056554271   185.6614   5  10   1.4185   0.6598   0.5924   0.0825  -0.1019  -0.3267   0.00    0.0
2019/01/19 02:05:00.000   47.480967192   19.056555243   185.9597   5  10   1.4171   0.6603   0.5938   0.0873  -0.1030  -0.3301   0.00    0.0
2019/01/19 02:05:30.000   47.480966956   19.056555199   186.2352   5  10   1.4156   0.6607   0.5952   0.0920  -0.1040  -0.3335   0.00    0.0
2019/01/19 02:06:00.000   47.480967574   19.056555141   186.3542   5  10   1.4141   0.6612   0.5966   0.0966  -0.1051  -0.3368   0.00    0.0
2019/01/19 02:06:30.000   47.480969789   19.056554136   185.8131   5  10   1.4125   0.6617   0.5981   0.1012  -0.1062  -0.3401   0.00    0.0
2019/01/19 02:07:00.000   47.480971298   19.056551270   185.0616   5  10   1.4109   0.6622   0.5995   0.1058  -0.1072  -0.3433   0.00    0.0
2019/01/19 02:07:30.000   47.480970075   19.056550273   184.7052   5  10   1.4092   0.6627   0.6010   0.1103  -0.1083  -0.3465   0.00    0.0
2019/01/19 02:08:00.000   47.480966898   19.056553267   185.1434   5  10   1.4075   0.6632   0.6024   0.1147  -0.1094  -0.3497   0.00    0.0
2019/01/19 02:08:30.000   47.480964607   19.056557761   185.7814   5  10   1.4057   0.6637   0.6039   0.1190  -0.1104  -0.3528   0.00    0.0
2019/01/19 02:09:00.000   47.480963438   19.056560242   186.3791   5  10   1.4039   0.6642   0.6054   0.1233  -0.1115  -0.3558   0.00    0.0
2019/01/19 02:09:30.000   47.480963614   19.056560297   186.5136   5  10   1.4020   0.6647   0.6068   0.1275  -0.1126  -0.3588   0.00    0.0
2019/01/19 02:10:00.000   47.480966495   19.056557352   185.9802   5  10   1.4001   0.6652   0.6083   0.1316  -0.1137  -0.3618   0.00    0.0
2019/01/19 02:10:30.000   47.480968657   19.056554251   185.4595   5  10   1.3982   0.6658   0.6098   0.1356  -0.1147  -0.3647   0.00    0.0
2019/01/19 02:11:00.000   47.480968243   19.056554073   185.4730   5  10   1.3962   0.6663   0.6113   0.1396  -0.1158  -0.3676   0.00    0.0
2019/01/19 02:11:30.000   47.480966677   19.056554503   185.6016   5  10   1.3941   0.6668   0.6127   0.1435  -0.1169  -0.3704   0.00    0.0
2019/01/19 02:12:00.000   47.480964858   19.056556027   186.1030   5  10   1.3920   0.6674   0.6142   0.1474  -0.1179  -0.3731   0.00    0.0
2019/01/19 02:12:30.000   47.480964900   19.056556852   186.2859   5  10   1.3898   0.6679   0.6157   0.1511  -0.1190  -0.3758   0.00    0.0
2019/01/19 02:13:00.000   47.480966573   19.056555989   186.2037   5  10   1.3876   0.6684   0.6172   0.1548  -0.1200  -0.3785   0.00    0.0
2019/01/19 02:13:30.000   47.480968786   19.056555302   185.9100   5  10   1.3854   0.6689   0.6187   0.1584  -0.1210  -0.3811   0.00    0.0
2019/01/19 02:14:00.000   47.480973645   19.056556921   185.7525   5  11   1.3801   0.6108   0.5738   0.1371  -0.0576  -0.3624   0.00    0.0
2019/01/19 02:14:30.000   47.480973960   19.056556863   185.5046   5  11   1.3778   0.6115   0.5752   0.1407  -0.0586  -0.3649   0.00    0.0
2019/01/19 02:15:00.000   47.480972889   19.056557338   185.4812   5  11   1.3754   0.6123   0.5766   0.1442  -0.0596  -0.3674   0.00    0.0
2019/01/19 02:15:30.000   47.480972605   19.056557344   185.4462   5  11   1.3729   0.6131   0.5780   0.1476  -0.0605  -0.3698   0.00    0.0
2019/01/19 02:16:00.000   47.480973749   19.056555102   185.2209   5  11   1.3705   0.6139   0.5793   0.1509  -0.0615  -0.3722   0.00    0.0
2019/01/19 02:16:30.000   47.480974374   19.056553701   185.1702   5  11   1.3679   0.6147   0.5807   0.1542  -0.0625  -0.3745   0.00    0.0
2019/01/19 02:17:00.000   47.480974506   19.056553910   185.1769   5  11   1.3654   0.6155   0.5821   0.1574  -0.0634  -0.3768   0.00    0.0
2019/01/19 02:17:30.000   47.480967049   19.056552262   184.5430   5  10   1.3676   0.7358   0.5979   0.2069  -0.1168  -0.3941   0.00    0.0
2019/01/19 02:18:00.000   47.480966007   19.056551611   184.2343   5  10   1.3661   0.7388   0.6001   0.2156  -0.1200  -0.3985   0.00    0.0
2019/01/19 02:18:30.000   47.480965407   19.056551368   183.8656   5  10   1.3647   0.7419   0.6024   0.2244  -0.1232  -0.4029   0.00    0.0
2019/01/19 02:19:00.000   47.480965841   19.056550790   183.3682   5  10   1.3633   0.7450   0.6047   0.2332  -0.1264  -0.4074   0.00    0.0
2019/01/19 02:19:30.000   47.480965035   19.056552087   183.1476   5  10   1.3620   0.7482   0.6071   0.2420  -0.1297  -0.4119   0.00    0.0
2019/01/19 02:20:00.000   47.480964345   19.056551981   183.0944   5  10   1.3608   0.7515   0.6094   0.2508  -0.1331  -0.4165   0.00    0.0
2019/01/19 02:20:30.000   47.480964484   19.056549923   183.1846   5  10   1.3596   0.7548   0.6118   0.2597  -0.1366  -0.4211   0.00    0.0
2019/01/19 02:21:00.000   47.480965189   19.056547252   183.3837   5  10   1.3586   0.7582   0.6143   0.2686  -0.1401  -0.4259   0.00    0.0
2019/01/19 02:21:30.000   47.480965013   19.056547567   183.5717   5  10   1.3576   0.7617   0.6168   0.2776  -0.1437  -0.4306   0.00    0.0
2019/01/19 02:22:00.000   47.480965256   19.056548725   183.8854   5  10   1.3566   0.7652   0.6193   0.2866  -0.1473  -0.4355   0.00    0.0
2019/01/19 02:22:30.000   47.480964802   19.056549418   184.3693   5  10   1.3558   0.7688   0.6219   0.2957  -0.1511  -0.4404   0.00    0.0
2019/01/19 02:23:00.000   47.480964323   19.056550631   184.8518   5  10   1.3550   0.7724   0.6245   0.3047  -0.1549  -0.4454   0.00    0.0
2019/01/19 02:23:30.000   47.480964959   19.056550328   185.0930   5  10   1.3543   0.7761   0.6271   0.3139  -0.1587  -0.4504   0.00    0.0
2019/01/19 02:24:00.000   47.480965326   19.056548958   184.9277   5  10   1.3536   0.7799   0.6298   0.3231  -0.1627  -0.4556   0.00    0.0
2019/01/19 02:24:30.000   47.480965119   19.056548070   184.6382   5  10   1.3530   0.7837   0.6325   0.3323  -0.1667  -0.4607   0.00    0.0
2019/01/19 02:25:00.000   47.480964355   19.056547140   184.1828   5  10   1.3525   0.7875   0.6353   0.3416  -0.1708  -0.4660   0.00    0.0
2019/01/19 02:25:30.000   47.480963422   19.056547120   183.8653   5  10   1.3521   0.7914   0.6381   0.3509  -0.1750  -0.4713   0.00    0.0
2019/01/19 02:26:00.000   47.480962968   19.056546662   183.4249   5  10   1.3517   0.7954   0.6410   0.3603  -0.1793  -0.4768   0.00    0.0
2019/01/19 02:26:30.000   47.480962445   19.056546500   183.2185   5  10   1.3514   0.7995   0.6438   0.3697  -0.1836  -0.4822   0.00    0.0
2019/01/19 02:27:00.000   47.480961939   19.056545505   183.0490   5  10   1.3512   0.8036   0.6468   0.3792  -0.1880  -0.4878   0.00    0.0
2019/01/19 02:27:30.000   47.480961363   19.056544969   183.3281   5  10   1.3510   0.8077   0.6498   0.3887  -0.1925  -0.4934   0.00    0.0
2019/01/19 02:28:00.000   47.480960861   19.056545477   183.6324   5  10   1.3509   0.8119   0.6528   0.3983  -0.1971  -0.4992   0.00    0.0
2019/01/19 02:28:30.000   47.480947319   19.056544753   186.3496   5  11   1.1204   0.8125   0.5885   0.4666  -0.2243  -0.2864   0.00    0.0
2019/01/19 02:29:00.000   47.480949137   19.056544146   185.5329   5  11   1.1227   0.8170   0.5909   0.4742  -0.2285  -0.2916   0.00    0.0
2019/01/19 02:29:30.000   47.480949810   19.056541727   184.6902   5  11   1.1250   0.8216   0.5933   0.4819  -0.2328  -0.2969   0.00    0.0
2019/01/19 02:30:00.000   47.480948404   19.056540781   184.5371   5  11   1.1273   0.8263   0.5957   0.4896  -0.2371  -0.3022   0.00    0.0
2019/01/19 02:30:30.000   47.480946072   19.056541480   184.7658   5  11   1.1296   0.8310   0.5982   0.4975  -0.2416  -0.3075   0.00    0.0
2019/01/19 02:31:00.000   47.480944956   19.056542762   185.2191   5  11   1.1319   0.8357   0.6007   0.5053  -0.2461  -0.3130   0.00    0.0
2019/01/19 02:31:30.000   47.480944929   19.056544153   185.7286   5  11   1.1343   0.8405   0.6033   0.5133  -0.2507  -0.3184   0.00    0.0
2019/01/19 02:32:00.000   47.480945708   19.056543910   186.0346   5  11   1.1366   0.8453   0.6059   0.5213  -0.2554  -0.3240   0.00    0.0
2019/01/19 02:32:30.000   47.480947564   19.056542063   185.6694   5  11   1.1390   0.8501   0.6086   0.5294  -0.2601  -0.3296   0.00    0.0
2019/01/19 02:33:00.000   47.480948059   19.056541138   185.1858   5  11   1.1413   0.8550   0.6112   0.5376  -0.2649  -0.3352   0.00    0.0
2019/01/19 02:33:30.000   47.480947385   19.056541248   184.8261   5  11   1.1437   0.8600   0.6140   0.5458  -0.2698  -0.3409   0.00    0.0
2019/01/19 02:34:00.000   47.480946195   19.056541899   184.6842   5  11   1.1461   0.8649   0.6167   0.5541  -0.2748  -0.3467   0.00    0.0
2019/01/19 02:34:30.000   47.480945669   19.056542050   184.9049   5  11   1.1484   0.8699   0.6195   0.5624  -0.2798  -0.3525   0.00    0.0
2019/01/19 02:35:00.000   47.480946228   19.056541299   184.8430   5  11   1.1508   0.8749   0.6223   0.5708  -0.2850  -0.3584   0.00    0.0
2019/01/19 02:35:30.000   47.480947497   19.056540018   184.7414   5  11   1.1532   0.8800   0.6252   0.5793  -0.2902  -0.3643   0.00    0.0
2019/01/19 02:36:00.000   47.480949132   19.056539228   184.6976   5  11   1.1556   0.8851   0.6281   0.5878  -0.2954  -0.3702   0.00    0.0
2019/01/19 02:36:30.000   47.480949743   19.056539100   184.8642   5  11   1.1580   0.8902   0.6310   0.5963  -0.3008  -0.3763   0.00    0.0
2019/01/19 02:37:00.000   47.480950224   19.056539124   184.7881   5  11   1.1603   0.8953   0.6340   0.6049  -0.3062  -0.3823   0.00    0.0
2019/01/19 02:37:30.000   47.480948551   19.056539275   184.9403   5  11   1.1627   0.9005   0.6370   0.6136  -0.3117  -0.3884   0.00    0.0
2019/01/19 02:38:00.000   47.480945351   19.056539568   184.9152   5  11   1.1651   0.9057   0.6400   0.6222  -0.3173  -0.3946   0.00    0.0
2019/01/19 02:38:30.000   47.480942561   19.056540836   184.7906   5  11   1.1674   0.9109   0.6431   0.6309  -0.3229  -0.4008   0.00    0.0
2019/01/19 02:39:00.000   47.480941756   19.056541314   184.5263   5  11   1.1698   0.9161   0.6462   0.6397  -0.3286  -0.4070   0.00    0.0
2019/01/19 02:39:30.000   47.480943237   19.056541643   184.2791   5  11   1.1721   0.9214   0.6493   0.6484  -0.3344  -0.4133   0.00    0.0
2019/01/19 02:40:00.000   47.480944933   19.056540144   184.1003   5  11   1.1744   0.9266   0.6524   0.6572  -0.3402  -0.4196   0.00    0.0
2019/01/19 02:40:30.000   47.480945548   19.056538426   184.2212   5  11   1.1767   0.9319   0.6556   0.6660  -0.3461  -0.4259   0.00    0.0
2019/01/19 02:41:00.000   47.480945121   19.056536999   184.5768   5  11   1.1790   0.9372   0.6588   0.6748  -0.3521  -0.4323   0.00    0.0
2019/01/19 02:41:30.000   47.480944180   19.056537151   184.8818   5  11   1.1813   0.9425   0.6621   0.6836  -0.3581  -0.4387   0.00    0.0
2019/01/19 02:42:00.000   47.480943695   19.056537121   184.9088   5  11   1.1835   0.9478   0.6653   0.6924  -0.3642  -0.4451   0.00    0.0
2019/01/19 02:42:30.000   47.480943313   19.056537754   184.5096   5  11   1.1858   0.9531   0.6686   0.7012  -0.3703  -0.4515   0.00    0.0
2019/01/19 02:43:00.000   47.480944164   19.056537354   184.0580   5  11   1.1879   0.9583   0.6719   0.7100  -0.3765  -0.4580   0.00    0.0
2019/01/19 02:43:30.000   47.480946171   19.056536911   183.5815   5  11   1.1901   0.9636   0.6752   0.7187  -0.3827  -0.4644   0.00    0.0
2019/01/19 02:44:00.000   47.480946865   19.056536529   183.5828   5  11   1.1922   0.9689   0.6785   0.7274  -0.3890  -0.4709   0.00    0.0
2019/01/19 02:44:30.000   47.480945805   19.056535231   183.6266   5  11   1.1943   0.9741   0.6819   0.7361  -0.3953  -0.4774   0.00    0.0
2019/01/19 02:45:00.000   47.480943415   19.056532450   183.5243   5  11   1.1964   0.9794   0.6853   0.7448  -0.4016  -0.4838   0.00    0.0
2019/01/19 02:45:30.000   47.480941858   19.056530843   183.3279   5  11   1.1984   0.9846   0.6886   0.7533  -0.4080  -0.4903   0.00    0.0
2019/01/19 02:46:00.000   47.480941449   19.056530697   183.3271   5  11   1.2003   0.9898   0.6920   0.7619  -0.4144  -0.4967   0.00    0.0
2019/01/19 02:46:30.000   47.480942603   19.056531439   183.5273   5  11   1.2022   0.9950   0.6954   0.7703  -0.4208  -0.5032   0.00    0.0
2019/01/19 02:47:00.000   47.480943336   19.056530726   183.6324   5  11   1.2041   1.0001   0.6989   0.7787  -0.4272  -0.5096   0.00    0.0
2019/01/19 02:47:30.000   47.480942970   19.056530757   183.9010   5  11   1.2059   1.0052   0.7023   0.7870  -0.4337  -0.5160   0.00    0.0
2019/01/19 02:48:00.000   47.480941517   19.056531563   183.8939   5  11   1.2076   1.0103   0.7057   0.7951  -0.4401  -0.5224   0.00    0.0
2019/01/19 02:48:30.000   47.480941626   19.056532437   183.9864   5  11   1.2093   1.0153   0.7091   0.8032  -0.4465  -0.5287   0.00    0.0
2019/01/19 02:49:00.000   47.480943314   19.056533447   183.9507   5  11   1.2109   1.0202   0.7125   0.8112  -0.4530  -0.5350   0.00    0.0
2019/01/19 02:49:30.000   47.480945461   19.056532948   183.7695   5  11   1.2125   1.0251   0.7159   0.8190  -0.4594  -0.5412   0.00    0.0
2019/01/19 02:50:00.000   47.480947697   19.056531586   183.6329   5  11   1.2139   1.0300   0.7193   0.8267  -0.4658  -0.5474   0.00    0.0
2019/01/19 02:50:30.000   47.480947699   19.056530559   183.9115   5  11   1.2153   1.0348   0.7227   0.8342  -0.4722  -0.5535   0.00    0.0
2019/01/19 02:51:00.000   47.480947541   19.056527719   184.0444   5  11   1.2166   1.0395   0.7261   0.8416  -0.4785  -0.5595   0.00    0.0
2019/01/19 02:51:30.000   47.480948024   19.056526180   184.3481   5  11   1.2179   1.0442   0.7295   0.8488  -0.4848  -0.5655   0.00    0.0
2019/01/19 02:52:00.000   47.480947992   19.056525781   184.5328   5  11   1.2190   1.0487   0.7328   0.8558  -0.4911  -0.5714   0.00    0.0
2019/01/19 02:52:30.000   47.480947223   19.056526290   184.6082   5  11   1.2201   1.0532   0.7361   0.8627  -0.4972  -0.5771   0.00    0.0
2019/01/19 02:53:00.000   47.480945897   19.056527215   184.8312   5  11   1.2210   1.0576   0.7394   0.8693  -0.5034  -0.5828   0.00    0.0
2019/01/19 02:53:30.000   47.480945320   19.056524742   184.5353   5  11   1.2219   1.0619   0.7427   0.8757  -0.5094  -0.5884   0.00    0.0
2019/01/19 02:54:00.000   47.480944486   19.056522980   184.4771   5  11   1.2227   1.0662   0.7459   0.8819  -0.5154  -0.5939   0.00    0.0
2019/01/19 02:54:30.000   47.480945039   19.056522209   184.4212   5  11   1.2233   1.0703   0.7492   0.8878  -0.5213  -0.5992   0.00    0.0
2019/01/19 02:55:00.000   47.480945686   19.056522345   184.6199   5  11   1.2239   1.0743   0.7523   0.8935  -0.5271  -0.6045   0.00    0.0
2019/01/19 02:55:30.000   47.480946420   19.056522779   185.0251   5  11   1.2243   1.0782   0.7555   0.8990  -0.5328  -0.6096   0.00    0.0
2019/01/19 02:56:00.000   47.480946101   19.056522996   185.4507   5  11   1.2246   1.0820   0.7586   0.9041  -0.5383  -0.6145   0.00    0.0
2019/01/19 02:56:30.000   47.480946034   19.056522693   185.3744   5  11   1.2248   1.0856   0.7616   0.9090  -0.5438  -0.6193   0.00    0.0
2019/01/19 02:57:00.000   47.480946800   19.056522093   185.0951   5  11   1.2249   1.0892   0.7646   0.9136  -0.5491  -0.6240   0.00    0.0
2019/01/19 02:57:30.000   47.480946302   19.056522074   185.2647   5  11   1.2249   1.0926   0.7676   0.9179  -0.5543  -0.6284   0.00    0.0
2019/01/19 02:58:00.000   47.480945827   19.056522559   185.2635   5  11   1.2247   1.0959   0.7705   0.9219  -0.5593  -0.6328   0.00    0.0
2019/01/19 02:58:30.000   47.480945689   19.056523281   185.3826   5  11   1.2244   1.0990   0.7733   0.9256  -0.5642  -0.6369   0.00    0.0
2019/01/19 02:59:00.000   47.480946220   19.056522110   185.4102   5  11   1.2240   1.1020   0.7761   0.9289  -0.5689  -0.6409   0.00    0.0
2019/01/19 02:59:30.000   47.480947134   19.056522462   185.7513   5  11   1.2235   1.1048   0.7788   0.9319  -0.5734  -0.6446   0.00    0.0
2019/01/19 03:00:00.000   47.480947743   19.056523725   185.9585   5  11   1.2228   1.1075   0.7815   0.9346  -0.5778  -0.6482   0.00    0.0
2019/01/19 03:00:30.000   47.480947405   19.056524161   186.0237   5  11   1.2220   1.1101   0.7841   0.9369  -0.5820  -0.6516   0.00    0.0
2019/01/19 03:01:00.000   47.480947076   19.056524341   186.3148   5  11   1.2210   1.1125   0.7866   0.9389  -0.5860  -0.6548   0.00    0.0
2019/01/19 03:01:30.000   47.480946818   19.056522766   186.7488   5  11   1.2199   1.1147   0.7890   0.9405  -0.5897  -0.6577   0.00    0.0
2019/01/19 03:02:00.000   47.480946874   19.056520181   187.2235   5  11   1.2187   1.1168   0.7914   0.9417  -0.5933  -0.6605   0.00    0.0
2019/01/19 03:02:30.000   47.480946761   19.056518459   187.5340   5  11   1.2173   1.1187   0.7937   0.9425  -0.5967  -0.6630   0.00    0.0
2019/01/19 03:03:00.000   47.480946213   19.056517131   187.7772   5  11   1.2158   1.1204   0.7959   0.9430  -0.5998  -0.6653   0.00    0.0
2019/01/19 03:03:30.000   47.480945050   19.056516145   187.7409   5  11   1.2142   1.1220   0.7980   0.9431  -0.6027  -0.6674   0.00    0.0
2019/01/19 03:04:00.000   47.480945375   19.056514053   187.7356   5  11   1.2124   1.1234   0.8001   0.9429  -0.6054  -0.6693   0.00    0.0
2019/01/19 03:04:30.000   47.480945601   19.056512993   187.9202   5  11   1.2104   1.1246   0.8020   0.9422  -0.6079  -0.6709   0.00    0.0
2019/01/19 03:05:00.000   47.480945004   19.056512006   188.2801   5  11   1.2083   1.1256   0.8039   0.9411  -0.6101  -0.6723   0.00    0.0
2019/01/19 03:05:30.000   47.480944961   19.056510860   188.4864   5  11   1.2061   1.1265   0.8057   0.9397  -0.6120  -0.6735   0.00    0.0
2019/01/19 03:06:00.000   47.480945594   19.056509180   189.2415   5  11   1.2038   1.1272   0.8074   0.9379  -0.6138  -0.6744   0.00    0.0
2019/01/19 03:06:30.000   47.480947509   19.056507708   189.9921   5  11   1.2013   1.1277   0.8090   0.9357  -0.6152  -0.6751   0.00    0.0
2019/01/19 03:07:00.000   47.480948052   19.056506240   190.2347   5  11   1.1986   1.1280   0.8106   0.9332  -0.6164  -0.6755   0.00    0.0
2019/01/19 03:07:30.000   47.480948451   19.056508378   190.3468   5  11   1.1959   1.1282   0.8120   0.9302  -0.6174  -0.6758   0.00    0.0
2019/01/19 03:08:00.000   47.480966521   19.056524867   196.1199   5  12   1.0279   0.8278   0.6063   0.4628  -0.2026  -0.3476   0.00    0.0
2019/01/19 03:08:30.000   47.480970696   19.056540197   193.2341   5  11   1.3977   0.8505   0.6080   0.6422  -0.2074  -0.3670   0.00    0.0
2019/01/19 03:09:00.000   47.480970669   19.056539858   192.9920   5  11   1.3981   0.8526   0.6096   0.6458  -0.2093  -0.3712   0.00    0.0
2019/01/19 03:09:30.000   47.480972116   19.056537401   192.6080   5  11   1.3985   0.8547   0.6111   0.6491  -0.2111  -0.3753   0.00    0.0
2019/01/19 03:10:00.000   47.480971791   19.056535906   192.3859   5  11   1.3987   0.8567   0.6126   0.6523  -0.2128  -0.3793   0.00    0.0
2019/01/19 03:10:30.000   47.480971558   19.056536483   192.0562   5  11   1.3989   0.8586   0.6141   0.6554  -0.2145  -0.3833   0.00    0.0
2019/01/19 03:11:00.000   47.480971647   19.056536438   191.9482   5  11   1.3989   0.8605   0.6156   0.6582  -0.2162  -0.3872   0.00    0.0
2019/01/19 03:11:30.000   47.480972171   19.056536006   192.0346   5  11   1.3989   0.8623   0.6170   0.6608  -0.2179  -0.3910   0.00    0.0
2019/01/19 03:12:00.000   47.480972080   19.056535966   191.7725   5  11   1.3987   0.8641   0.6185   0.6633  -0.2195  -0.3948   0.00    0.0
2019/01/19 03:12:30.000   47.480971411   19.056536075   191.5114   5  11   1.3985   0.8658   0.6200   0.6655  -0.2210  -0.3985   0.00    0.0
2019/01/19 03:13:00.000   47.480969784   19.056535989   191.4785   5  11   1.3981   0.8674   0.6214   0.6676  -0.2225  -0.4021   0.00    0.0
2019/01/19 03:13:30.000   47.480968465   19.056536879   191.5831   5  11   1.3977   0.8690   0.6229   0.6694  -0.2240  -0.4056   0.00    0.0
2019/01/19 03:14:00.000   47.480968568   19.056538353   191.5192   5  11   1.3971   0.8704   0.6243   0.6711  -0.2254  -0.4090   0.00    0.0
2019/01/19 03:14:30.000   47.480968555   19.056538726   191.2692   5  11   1.3964   0.8718   0.6258   0.6725  -0.2267  -0.4123   0.00    0.0
2019/01/19 03:15:00.000   47.480967653   19.056538784   191.0969   5  11   1.3956   0.8732   0.6272   0.6738  -0.2280  -0.4156   0.00    0.0
2019/01/19 03:15:30.000   47.480966313   19.056538073   190.8956   5  11   1.3947   0.8745   0.6286   0.6748  -0.2292  -0.4187   0.00    0.0
2019/01/19 03:16:00.000   47.480965493   19.056537720   190.7542   5  11   1.3937   0.8757   0.6299   0.6756  -0.2304  -0.4217   0.00    0.0
2019/01/19 03:16:30.000   47.480965810   19.056538274   190.1101   5  11   1.3926   0.8768   0.6313   0.6762  -0.2315  -0.4247   0.00    0.0
2019/01/19 03:17:00.000   47.480967603   19.056537528   189.3391   5  11   1.3914   0.8778   0.6327   0.6766  -0.2325  -0.4275   0.00    0.0
2019/01/19 03:17:30.000   47.480968749   19.056537272   188.8562   5  11   1.3900   0.8788   0.6340   0.6768  -0.2335  -0.4303   0.00    0.0
2019/01/19 03:18:00.000   47.480967611   19.056537815   188.9043   5  11   1.3886   0.8797   0.6353   0.6767  -0.2344  -0.4329   0.00    0.0
2019/01/19 03:18:30.000   47.480966275   19.056538382   189.1936   5  11   1.3870   0.8805   0.6366   0.6765  -0.2352  -0.4355   0.00    0.0
2019/01/19 03:19:00.000   47.480965395   19.056538506   189.4921   5  11   1.3854   0.8812   0.6379   0.6760  -0.2360  -0.4379   0.00    0.0
2019/01/19 03:19:30.000   47.480967276   19.056538839   189.5135   5  11   1.3836   0.8819   0.6392   0.6753  -0.2367  -0.4403   0.00    0.0
2019/01/19 03:20:00.000   47.480968174   19.056538452   189.5800   5  11   1.3817   0.8825   0.6404   0.6744  -0.2373  -0.4425   0.00    0.0
2019/01/19 03:20:30.000   47.480967598   19.056537653   189.9588   5  11   1.3797   0.8830   0.6416   0.6733  -0.2379  -0.4446   0.00    0.0
2019/01/19 03:21:00.000   47.480965982   19.056536620   190.1460   5  11   1.3777   0.8834   0.6428   0.6719  -0.2384  -0.4466   0.00    0.0
2019/01/19 03:21:30.000   47.480964137   19.056536086   190.2522   5  11   1.3755   0.8838   0.6440   0.6704  -0.2388  -0.4485   0.00    0.0
2019/01/19 03:22:00.000   47.480963210   19.056535949   190.2080   5  11   1.3732   0.8840   0.6452   0.6686  -0.2391  -0.4503   0.00    0.0
2019/01/19 03:22:30.000   47.480963464   19.056537023   190.1205   5  11   1.3708   0.8842   0.6463   0.6667  -0.2394  -0.4520   0.00    0.0
2019/01/19 03:23:00.000   47.480963750   19.056537960   189.6690   5  11   1.3683   0.8844   0.6474   0.6645  -0.2395  -0.4536   0.00    0.0
2019/01/19 03:23:30.000   47.480963499   19.056536906   189.0760   5  11   1.3657   0.8844   0.6485   0.6622  -0.2396  -0.4551   0.00    0.0
2019/01/19 03:24:00.000   47.480963609   19.056535978   188.9502   5  11   1.3630   0.8844   0.6496   0.6596  -0.2397  -0.4564   0.00    0.0
2019/01/19 03:24:30.000   47.480963962   19.056534983   189.1837   5  11   1.3603   0.8843   0.6506   0.6568  -0.2396  -0.4577   0.00    0.0
2019/01/19 03:25:00.000   47.480964572   19.056535064   189.2971   5  11   1.3574   0.8841   0.6517   0.6539  -0.2395  -0.4588   0.00    0.0
2019/01/19 03:25:30.000   47.480964197   19.056535280   189.6274   5  11   1.3544   0.8838   0.6527   0.6507  -0.2393  -0.4599   0.00    0.0
2019/01/19 03:26:00.000   47.480965465   19.056535883   189.6425   5  11   1.3514   0.8835   0.6536   0.6474  -0.2390  -0.4608   0.00    0.0
2019/01/19 03:26:30.000   47.480966957   19.056535522   189.2875   5  11   1.3483   0.8831   0.6546   0.6439  -0.2387  -0.4617   0.00    0.0
2019/01/19 03:27:00.000   47.480966167   19.056535952   189.3491   5  11   1.3450   0.8826   0.6555   0.6402  -0.2383  -0.4624   0.00    0.0
2019/01/19 03:27:30.000   47.480964954   19.056535490   189.6695   5  11   1.3417   0.8821   0.6564   0.6364  -0.2378  -0.4631   0.00    0.0
2019/01/19 03:28:00.000   47.480963835   19.056537177   190.0841   5  11   1.3384   0.8815   0.6573   0.6324  -0.2372  -0.4636   0.00    0.0
2019/01/19 03:28:30.000   47.480963586   19.056539834   190.2604   5  11   1.3349   0.8808   0.6581   0.6282  -0.2366  -0.4641   0.00    0.0
2019/01/19 03:29:00.000   47.480964035   19.056540108   190.3366   5  11   1.3314   0.8801   0.6590   0.6238  -0.2358  -0.4644   0.00    0.0
2019/01/19 03:29:30.000   47.480964911   19.056538261   190.2354   5  11   1.3278   0.8793   0.6598   0.6193  -0.2351  -0.4646   0.00    0.0
