% program   : RTKPOST ver.2.4.3 b31
% inp file  : C:\Users\lus2bp\Source\Repos\GINA\70_EGNOS_Project\files\PositionComparisonInputFiles\bute0190\bute0190.19o
% inp file  : C:\Users\lus2bp\Source\Repos\GINA\70_EGNOS_Project\files\PositionComparisonInputFiles\bute0190\brdc0190.19n
% obs start : 2019/01/19 00:00:00.0 GPST (week2036 518400.0s)
% obs end   : 2019/01/19 23:59:30.0 GPST (week2036 604770.0s)
% pos mode  : single
% elev mask : 10.0 deg
% ionos opt : vtec_sf
% tropo opt : saastamoinen
% ephemeris : broadcast
%
% (lat/lon/height=WGS84/ellipsoidal,Q=1:fix,2:float,3:sbas,4:dgps,5:single,6:ppp,ns=# of satellites)
%  GPST                  latitude(deg) longitude(deg)  height(m)   Q  ns   sdn(m)   sde(m)   sdu(m)  sdne(m)  sdeu(m)  sdun(m) age(s)  ratio
2019/01/19 00:00:00.000   47.480944723   19.056532915   179.9008   5   8   2.3052   1.6083   4.3126   0.6622   0.7807   2.1434   0.00    0.0
2019/01/19 00:00:30.000   47.480946427   19.056532750   179.9908   5   8   2.3066   1.6083   4.3359   0.6516   0.7807   2.1565   0.00    0.0
2019/01/19 00:01:00.000   47.480948186   19.056533613   180.2040   5   8   2.3079   1.6084   4.3591   0.6408   0.7806   2.1692   0.00    0.0
2019/01/19 00:01:30.000   47.480948397   19.056535579   180.1716   5   8   2.3091   1.6086   4.3821   0.6297   0.7805   2.1816   0.00    0.0
2019/01/19 00:02:00.000   47.480948929   19.056534619   180.2472   5   8   2.3102   1.6088   4.4050   0.6185   0.7803   2.1938   0.00    0.0
2019/01/19 00:02:30.000   47.480949857   19.056533462   180.9351   5   8   2.3112   1.6091   4.4276   0.6070   0.7801   2.2055   0.00    0.0
2019/01/19 00:03:00.000   47.480950029   19.056532142   181.0544   5   8   2.3121   1.6094   4.4500   0.5952   0.7797   2.2169   0.00    0.0
2019/01/19 00:03:30.000   47.480950684   19.056528051   180.7630   5   8   2.3129   1.6098   4.4721   0.5832   0.7794   2.2280   0.00    0.0
2019/01/19 00:04:00.000   47.480950581   19.056525442   180.6016   5   8   2.3135   1.6102   4.4940   0.5709   0.7790   2.2387   0.00    0.0
2019/01/19 00:04:30.000   47.480950050   19.056526179   180.5481   5   8   2.3141   1.6107   4.5156   0.5582   0.7786   2.2489   0.00    0.0
2019/01/19 00:05:00.000   47.480948518   19.056525380   180.5083   5   8   2.3145   1.6112   4.5368   0.5453   0.7781   2.2588   0.00    0.0
2019/01/19 00:05:30.000   47.480946520   19.056527734   180.7081   5   8   2.3148   1.6118   4.5578   0.5320   0.7776   2.2682   0.00    0.0
2019/01/19 00:06:00.000   47.480945570   19.056530088   181.0403   5   8   2.3149   1.6124   4.5783   0.5184   0.7770   2.2773   0.00    0.0
2019/01/19 00:06:30.000   47.480945265   19.056530706   181.1024   5   8   2.3149   1.6131   4.5984   0.5043   0.7764   2.2858   0.00    0.0
2019/01/19 00:07:00.000   47.480946034   19.056531058   180.8920   5   8   2.3148   1.6138   4.6181   0.4899   0.7758   2.2939   0.00    0.0
2019/01/19 00:07:30.000   47.480947450   19.056528582   180.8770   5   8   2.3145   1.6145   4.6374   0.4749   0.7752   2.3015   0.00    0.0
2019/01/19 00:08:00.000   47.480948162   19.056526251   180.8853   5   8   2.3140   1.6153   4.6562   0.4595   0.7746   2.3086   0.00    0.0
2019/01/19 00:08:30.000   47.480947764   19.056526688   180.9875   5   8   2.3134   1.6162   4.6745   0.4435   0.7740   2.3153   0.00    0.0
2019/01/19 00:09:00.000   47.480947359   19.056526578   181.0666   5   8   2.3126   1.6171   4.6923   0.4269   0.7734   2.3214   0.00    0.0
2019/01/19 00:09:30.000   47.480947096   19.056527150   181.3779   5   8   2.3116   1.6180   4.7096   0.4096   0.7727   2.3270   0.00    0.0
2019/01/19 00:10:00.000   47.480946885   19.056528545   181.7143   5   8   2.3105   1.6190   4.7263   0.3915   0.7721   2.3320   0.00    0.0
2019/01/19 00:10:30.000   47.480948130   19.056528100   181.9118   5   8   2.3091   1.6201   4.7424   0.3725   0.7716   2.3365   0.00    0.0
2019/01/19 00:11:00.000   47.480949327   19.056526448   181.5821   5   8   2.3076   1.6212   4.7579   0.3525   0.7710   2.3404   0.00    0.0
2019/01/19 00:11:30.000   47.480949658   19.056526925   181.1357   5   8   2.3059   1.6223   4.7728   0.3313   0.7705   2.3437   0.00    0.0
2019/01/19 00:12:00.000   47.480949904   19.056528868   181.0572   5   8   2.3041   1.6235   4.7871   0.3087   0.7700   2.3465   0.00    0.0
2019/01/19 00:12:30.000   47.480949960   19.056529579   180.8804   5   8   2.3020   1.6247   4.8006   0.2842   0.7696   2.3487   0.00    0.0
2019/01/19 00:13:00.000   47.480950296   19.056531127   180.7216   5   8   2.2998   1.6260   4.8135   0.2575   0.7692   2.3503   0.00    0.0
2019/01/19 00:13:30.000   47.480949756   19.056535018   180.9508   5   8   2.2973   1.6273   4.8257   0.2276   0.7689   2.3512   0.00    0.0
2019/01/19 00:14:00.000   47.480950162   19.056536438   181.1207   5   8   2.2947   1.6287   4.8372   0.1932   0.7687   2.3516   0.00    0.0
2019/01/19 00:14:30.000   47.480951341   19.056536819   181.1975   5   8   2.2919   1.6301   4.8480   0.1512   0.7686   2.3513   0.00    0.0
2019/01/19 00:15:00.000   47.480951944   19.056536442   181.1208   5   8   2.2889   1.6316   4.8580   0.0918   0.7685   2.3504   0.00    0.0
2019/01/19 00:15:30.000   47.480951604   19.056534471   180.8821   5   8   2.2857   1.6331   4.8673  -0.0774   0.7686   2.3489   0.00    0.0
2019/01/19 00:16:00.000   47.480952058   19.056532798   180.7585   5   8   2.2823   1.6347   4.8758  -0.1428   0.7688   2.3468   0.00    0.0
2019/01/19 00:16:30.000   47.480952525   19.056531225   180.0731   5   8   2.2788   1.6363   4.8836  -0.1865   0.7690   2.3440   0.00    0.0
2019/01/19 00:17:00.000   47.480951195   19.056532910   179.6410   5   8   2.2750   1.6379   4.8905  -0.2217   0.7694   2.3405   0.00    0.0
2019/01/19 00:17:30.000   47.480950296   19.056532589   179.6160   5   8   2.2711   1.6396   4.8967  -0.2519   0.7700   2.3365   0.00    0.0
2019/01/19 00:18:00.000   47.480950025   19.056532756   179.6773   5   8   2.2670   1.6414   4.9021  -0.2789   0.7706   2.3317   0.00    0.0
2019/01/19 00:18:30.000   47.480949629   19.056534027   179.7935   5   8   2.2628   1.6431   4.9067  -0.3034   0.7714   2.3264   0.00    0.0
2019/01/19 00:19:00.000   47.480948377   19.056534110   179.9695   5   8   2.2583   1.6450   4.9105  -0.3260   0.7724   2.3204   0.00    0.0
2019/01/19 00:19:30.000   47.480947963   19.056532221   179.9948   5   8   2.2537   1.6469   4.9135  -0.3471   0.7735   2.3138   0.00    0.0
2019/01/19 00:20:00.000   47.480948048   19.056531331   179.9606   5   8   2.2490   1.6488   4.9157  -0.3670   0.7748   2.3065   0.00    0.0
2019/01/19 00:20:30.000   47.480948564   19.056530648   179.8746   5   8   2.2441   1.6508   4.9171  -0.3858   0.7762   2.2986   0.00    0.0
2019/01/19 00:21:00.000   47.480948371   19.056530876   179.9341   5   8   2.2390   1.6528   4.9177  -0.4036   0.7778   2.2901   0.00    0.0
2019/01/19 00:21:30.000   47.480947015   19.056532964   180.3839   5   8   2.2339   1.6548   4.9176  -0.4207   0.7796   2.2810   0.00    0.0
2019/01/19 00:22:00.000   47.480946258   19.056534138   180.7597   5   8   2.2285   1.6569   4.9166  -0.4371   0.7816   2.2713   0.00    0.0
2019/01/19 00:22:30.000   47.480946080   19.056535827   180.8739   5   8   2.2231   1.6591   4.9149  -0.4528   0.7837   2.2609   0.00    0.0
2019/01/19 00:23:00.000   47.480947251   19.056534106   180.7006   5   8   2.2175   1.6613   4.9125  -0.4680   0.7860   2.2500   0.00    0.0
2019/01/19 00:23:30.000   47.480948113   19.056531967   180.4295   5   8   2.2119   1.6635   4.9093  -0.4826   0.7886   2.2384   0.00    0.0
2019/01/19 00:24:00.000   47.480948542   19.056531383   180.3962   5   8   2.2061   1.6658   4.9053  -0.4968   0.7913   2.2263   0.00    0.0
2019/01/19 00:24:30.000   47.480948219   19.056531861   180.3586   5   8   2.2002   1.6681   4.9006  -0.5106   0.7942   2.2137   0.00    0.0
2019/01/19 00:25:00.000   47.480947364   19.056534914   180.5704   5   8   2.1943   1.6705   4.8953  -0.5240   0.7973   2.2004   0.00    0.0
2019/01/19 00:25:30.000   47.480947068   19.056537780   180.8636   5   8   2.1883   1.6729   4.8892  -0.5370   0.8006   2.1867   0.00    0.0
2019/01/19 00:26:00.000   47.480946514   19.056538165   180.8790   5   8   2.1822   1.6754   4.8824  -0.5497   0.8040   2.1723   0.00    0.0
2019/01/19 00:26:30.000   47.480946509   19.056535554   180.5645   5   8   2.1760   1.6779   4.8750  -0.5621   0.8077   2.1575   0.00    0.0
2019/01/19 00:27:00.000   47.480946313   19.056532696   180.4504   5   8   2.1698   1.6805   4.8669  -0.5742   0.8115   2.1421   0.00    0.0
2019/01/19 00:27:30.000   47.480946457   19.056531893   180.6085   5   8   2.1635   1.6831   4.8583  -0.5860   0.8156   2.1263   0.00    0.0
2019/01/19 00:28:00.000   47.480947760   19.056530045   180.6164   5   8   2.1572   1.6857   4.8490  -0.5976   0.8198   2.1099   0.00    0.0
2019/01/19 00:28:30.000   47.480948551   19.056529232   180.5514   5   8   2.1509   1.6884   4.8391  -0.6090   0.8242   2.0931   0.00    0.0
2019/01/19 00:29:00.000   47.480949688   19.056527808   180.2713   5   8   2.1446   1.6911   4.8286  -0.6201   0.8288   2.0758   0.00    0.0
2019/01/19 00:29:30.000   47.480951160   19.056528621   180.1898   5   8   2.1382   1.6939   4.8176  -0.6310   0.8335   2.0580   0.00    0.0
2019/01/19 00:30:00.000   47.480952204   19.056529738   180.1077   5   8   2.1319   1.6967   4.8061  -0.6418   0.8385   2.0399   0.00    0.0
2019/01/19 00:30:30.000   47.480951390   19.056531916   180.1430   5   8   2.1255   1.6996   4.7941  -0.6523   0.8435   2.0212   0.00    0.0
2019/01/19 00:31:00.000   47.480949610   19.056534455   180.3987   5   8   2.1192   1.7025   4.7816  -0.6627   0.8488   2.0022   0.00    0.0
2019/01/19 00:31:30.000   47.480950558   19.056530452   180.2931   5   8   2.1129   1.7054   4.7686  -0.6730   0.8542   1.9828   0.00    0.0
2019/01/19 00:32:00.000   47.480949025   19.056530334   180.2391   5   8   2.1066   1.7084   4.7552  -0.6831   0.8598   1.9629   0.00    0.0
2019/01/19 00:32:30.000   47.480946254   19.056532314   180.0752   5   8   2.1003   1.7114   4.7414  -0.6930   0.8655   1.9427   0.00    0.0
2019/01/19 00:33:00.000   47.480944116   19.056534244   180.0525   5   8   2.0941   1.7145   4.7271  -0.7028   0.8713   1.9221   0.00    0.0
2019/01/19 00:33:30.000   47.480943518   19.056536036   180.2852   5   8   2.0879   1.7177   4.7125  -0.7125   0.8773   1.9012   0.00    0.0
2019/01/19 00:34:00.000   47.480943919   19.056536982   180.4928   5   8   2.0818   1.7208   4.6976  -0.7221   0.8834   1.8799   0.00    0.0
2019/01/19 00:34:30.000   47.480945543   19.056534744   180.3811   5   8   2.0758   1.7240   4.6823  -0.7316   0.8896   1.8582   0.00    0.0
2019/01/19 00:35:00.000   47.480946079   19.056534006   180.6356   5   8   2.0698   1.7273   4.6667  -0.7409   0.8960   1.8363   0.00    0.0
2019/01/19 00:35:30.000   47.480945939   19.056533093   180.6413   5   8   2.0639   1.7306   4.6508  -0.7502   0.9025   1.8140   0.00    0.0
2019/01/19 00:36:00.000   47.480945675   19.056531628   180.4363   5   8   2.0581   1.7340   4.6347  -0.7594   0.9091   1.7914   0.00    0.0
2019/01/19 00:36:30.000   47.480945647   19.056530014   180.2786   5   8   2.0524   1.7373   4.6182  -0.7685   0.9158   1.7684   0.00    0.0
2019/01/19 00:37:00.000   47.480945411   19.056529105   180.2778   5   8   2.0468   1.7408   4.6016  -0.7775   0.9225   1.7452   0.00    0.0
2019/01/19 00:37:30.000   47.480945339   19.056528619   180.3654   5   8   2.0412   1.7443   4.5847  -0.7865   0.9294   1.7217   0.00    0.0
2019/01/19 00:38:00.000   47.480945278   19.056531292   180.6067   5   8   2.0358   1.7478   4.5677  -0.7954   0.9364   1.6979   0.00    0.0
2019/01/19 00:38:30.000   47.480946629   19.056532898   180.7898   5   8   2.0305   1.7514   4.5504  -0.8042   0.9434   1.6739   0.00    0.0
2019/01/19 00:39:00.000   47.480946951   19.056532990   180.8979   5   8   2.0252   1.7550   4.5331  -0.8129   0.9505   1.6495   0.00    0.0
2019/01/19 00:39:30.000   47.480946171   19.056532184   180.8550   5   8   2.0201   1.7586   4.5155  -0.8216   0.9577   1.6249   0.00    0.0
2019/01/19 00:40:00.000   47.480946960   19.056529686   180.6781   5   8   2.0151   1.7623   4.4979  -0.8303   0.9650   1.6000   0.00    0.0
2019/01/19 00:40:30.000   47.480947108   19.056530287   180.8055   5   8   2.0102   1.7661   4.4801  -0.8389   0.9723   1.5748   0.00    0.0
2019/01/19 00:41:00.000   47.480947003   19.056533915   180.9213   5   8   2.0055   1.7699   4.4622  -0.8474   0.9797   1.5494   0.00    0.0
2019/01/19 00:41:30.000   47.480947618   19.056534378   180.5223   5   8   2.0009   1.7737   4.4443  -0.8559   0.9871   1.5237   0.00    0.0
2019/01/19 00:42:00.000   47.480945715   19.056535790   180.4266   5   8   1.9963   1.7776   4.4263  -0.8644   0.9946   1.4977   0.00    0.0
2019/01/19 00:42:30.000   47.480944214   19.056536191   180.5680   5   8   1.9920   1.7815   4.4082  -0.8728   1.0022   1.4714   0.00    0.0
2019/01/19 00:43:00.000   47.480944960   19.056534856   180.7791   5   8   1.9877   1.7855   4.3902  -0.8812   1.0097   1.4449   0.00    0.0
2019/01/19 00:43:30.000   47.480947092   19.056534495   180.9650   5   8   1.9836   1.7895   4.3720  -0.8895   1.0173   1.4181   0.00    0.0
2019/01/19 00:44:00.000   47.480950158   19.056532333   180.9718   5   8   1.9796   1.7935   4.3539  -0.8979   1.0250   1.3910   0.00    0.0
2019/01/19 00:44:30.000   47.480951660   19.056529565   180.6820   5   8   1.9758   1.7976   4.3358  -0.9062   1.0326   1.3636   0.00    0.0
2019/01/19 00:45:00.000   47.480950644   19.056531043   180.5968   5   8   1.9721   1.8018   4.3177  -0.9145   1.0403   1.3359   0.00    0.0
2019/01/19 00:45:30.000   47.480949935   19.056532977   180.6583   5   8   1.9685   1.8059   4.2996  -0.9227   1.0481   1.3078   0.00    0.0
2019/01/19 00:46:00.000   47.480950335   19.056533566   180.8965   5   8   1.9651   1.8102   4.2815  -0.9309   1.0558   1.2795   0.00    0.0
2019/01/19 00:46:30.000   47.480950137   19.056534300   181.0244   5   8   1.9618   1.8144   4.2635  -0.9391   1.0635   1.2508   0.00    0.0
2019/01/19 00:47:00.000   47.480950549   19.056532023   180.8668   5   9   1.9573   1.6371   3.6655  -0.9777  -0.7411   1.1551   0.00    0.0
2019/01/19 00:47:30.000   47.480950011   19.056532060   181.0353   5   9   1.9547   1.6387   3.6574  -0.9803  -0.7278   1.1374   0.00    0.0
2019/01/19 00:48:00.000   47.480950066   19.056531681   181.0883   5   9   1.9522   1.6402   3.6493  -0.9830  -0.7141   1.1194   0.00    0.0
2019/01/19 00:48:30.000   47.480951340   19.056529843   181.1541   5   9   1.9498   1.6418   3.6411  -0.9856  -0.6999   1.1011   0.00    0.0
2019/01/19 00:49:00.000   47.480952121   19.056529900   181.0721   5   9   1.9474   1.6434   3.6328  -0.9882  -0.6853   1.0824   0.00    0.0
2019/01/19 00:49:30.000   47.480952438   19.056531301   181.1508   5   9   1.9450   1.6450   3.6244  -0.9908  -0.6701   1.0635   0.00    0.0
2019/01/19 00:50:00.000   47.480951195   19.056532232   181.1371   5   9   1.9427   1.6467   3.6160  -0.9934  -0.6545   1.0442   0.00    0.0
2019/01/19 00:50:30.000   47.480950427   19.056533707   181.3170   5   9   1.9404   1.6483   3.6075  -0.9961  -0.6383   1.0246   0.00    0.0
2019/01/19 00:51:00.000   47.480950600   19.056534070   181.3220   5   9   1.9382   1.6500   3.5990  -0.9987  -0.6215   1.0046   0.00    0.0
2019/01/19 00:51:30.000   47.480950237   19.056534856   181.4196   5   9   1.9360   1.6518   3.5905  -1.0013  -0.6042   0.9842   0.00    0.0
2019/01/19 00:52:00.000   47.480948359   19.056536420   181.3771   5   9   1.9339   1.6535   3.5819  -1.0040  -0.5861   0.9635   0.00    0.0
2019/01/19 00:52:30.000   47.480947247   19.056536270   181.3176   5   9   1.9319   1.6553   3.5732  -1.0066  -0.5674   0.9424   0.00    0.0
2019/01/19 00:53:00.000   47.480946562   19.056535848   181.2465   5   9   1.9299   1.6570   3.5646  -1.0093  -0.5479   0.9208   0.00    0.0
2019/01/19 00:53:30.000   47.480947573   19.056535701   181.1147   5   9   1.9279   1.6589   3.5559  -1.0119  -0.5275   0.8989   0.00    0.0
2019/01/19 00:54:00.000   47.480948782   19.056536547   180.9995   5   9   1.9260   1.6607   3.5471  -1.0146  -0.5062   0.8764   0.00    0.0
2019/01/19 00:54:30.000   47.480949321   19.056537951   180.9723   5   9   1.9242   1.6626   3.5384  -1.0173  -0.4838   0.8535   0.00    0.0
2019/01/19 00:55:00.000   47.480948451   19.056538291   181.0363   5   9   1.9224   1.6645   3.5297  -1.0200  -0.4603   0.8300   0.00    0.0
2019/01/19 00:55:30.000   47.480947619   19.056536997   180.8865   5   9   1.9207   1.6664   3.5209  -1.0228  -0.4353   0.8060   0.00    0.0
2019/01/19 00:56:00.000   47.480947116   19.056536740   180.9335   5   9   1.9190   1.6683   3.5121  -1.0255  -0.4087   0.7813   0.00    0.0
2019/01/19 00:56:30.000   47.480945708   19.056535833   181.1314   5   9   1.9174   1.6703   3.5033  -1.0283  -0.3802   0.7560   0.00    0.0
2019/01/19 00:57:00.000   47.480945410   19.056535143   181.0348   5   9   1.9159   1.6723   3.4945  -1.0311  -0.3493   0.7300   0.00    0.0
2019/01/19 00:57:30.000   47.480946238   19.056535027   180.6783   5   9   1.9144   1.6743   3.4858  -1.0339  -0.3153   0.7032   0.00    0.0
2019/01/19 00:58:00.000   47.480946743   19.056534479   180.3758   5   9   1.9130   1.6764   3.4770  -1.0367  -0.2770   0.6754   0.00    0.0
2019/01/19 00:58:30.000   47.480946256   19.056534141   180.0052   5   9   1.9116   1.6785   3.4682  -1.0395  -0.2324   0.6467   0.00    0.0
2019/01/19 00:59:00.000   47.480945813   19.056533368   179.8302   5   9   1.9103   1.6806   3.4594  -1.0424  -0.1769   0.6169   0.00    0.0
2019/01/19 00:59:30.000   47.480947608   19.056533370   179.5265   5   9   1.9090   1.6827   3.4507  -1.0453  -0.0923   0.5857   0.00    0.0
2019/01/19 01:00:00.000   47.480950213   19.056535496   180.4813   5   9   1.9020   1.5763   3.2911  -1.0049  -0.7652   0.6756   0.00    0.0
2019/01/19 01:00:30.000   47.480951941   19.056534241   180.8882   5   9   1.9003   1.5767   3.2845  -1.0056  -0.7503   0.6520   0.00    0.0
2019/01/19 01:01:00.000   47.480954171   19.056533044   180.8796   5   9   1.8987   1.5771   3.2779  -1.0062  -0.7351   0.6277   0.00    0.0
2019/01/19 01:01:30.000   47.480955096   19.056531816   180.8779   5   9   1.8971   1.5776   3.2712  -1.0069  -0.7196   0.6024   0.00    0.0
2019/01/19 01:02:00.000   47.480954968   19.056531833   180.9647   5   9   1.8955   1.5781   3.2646  -1.0076  -0.7036   0.5762   0.00    0.0
2019/01/19 01:02:30.000   47.480953987   19.056531806   181.0363   5   9   1.8940   1.5786   3.2580  -1.0084  -0.6873   0.5488   0.00    0.0
2019/01/19 01:03:00.000   47.480953360   19.056532275   181.2758   5   9   1.8925   1.5791   3.2513  -1.0091  -0.6706   0.5202   0.00    0.0
2019/01/19 01:03:30.000   47.480952445   19.056534676   181.6268   5   9   1.8911   1.5796   3.2447  -1.0099  -0.6533   0.4901   0.00    0.0
2019/01/19 01:04:00.000   47.480952973   19.056534860   181.9267   5   9   1.8897   1.5802   3.2381  -1.0107  -0.6357   0.4583   0.00    0.0
2019/01/19 01:04:30.000   47.480952705   19.056534613   182.2985   5   9   1.8883   1.5808   3.2314  -1.0115  -0.6175   0.4242   0.00    0.0
2019/01/19 01:05:00.000   47.480951341   19.056534020   182.3713   5   9   1.8870   1.5815   3.2248  -1.0123  -0.5987   0.3875   0.00    0.0
2019/01/19 01:05:30.000   47.480951424   19.056531837   182.2646   5   9   1.8858   1.5822   3.2182  -1.0132  -0.5794   0.3472   0.00    0.0
2019/01/19 01:06:00.000   47.480952467   19.056528707   182.1476   5   9   1.8845   1.5829   3.2116  -1.0141  -0.5593   0.3019   0.00    0.0
2019/01/19 01:06:30.000   47.480952896   19.056526896   182.0759   5   9   1.8834   1.5836   3.2050  -1.0150  -0.5386   0.2489   0.00    0.0
2019/01/19 01:07:00.000   47.480953871   19.056527036   182.1376   5   9   1.8822   1.5844   3.1985  -1.0160  -0.5170   0.1816   0.00    0.0
2019/01/19 01:07:30.000   47.480953859   19.056527138   182.2999   5   9   1.8811   1.5851   3.1919  -1.0169  -0.4946   0.0651   0.00    0.0
2019/01/19 01:08:00.000   47.480954608   19.056527790   182.1748   5   9   1.8801   1.5860   3.1854  -1.0179  -0.4711  -0.1557   0.00    0.0
2019/01/19 01:08:30.000   47.480955736   19.056527250   181.7967   5   9   1.8791   1.5868   3.1789  -1.0189  -0.4464  -0.2291   0.00    0.0
2019/01/19 01:09:00.000   47.480957801   19.056526390   181.6145   5   9   1.8781   1.5877   3.1724  -1.0200  -0.4203  -0.2837   0.00    0.0
2019/01/19 01:09:30.000   47.480959035   19.056526360   181.4179   5   9   1.8772   1.5886   3.1659  -1.0210  -0.3926  -0.3290   0.00    0.0
2019/01/19 01:10:00.000   47.480959219   19.056527175   181.2836   5   9   1.8763   1.5896   3.1595  -1.0221  -0.3629  -0.3684   0.00    0.0
2019/01/19 01:10:30.000   47.480958918   19.056529112   181.1964   5   9   1.8755   1.5906   3.1531  -1.0232  -0.3306  -0.4037   0.00    0.0
2019/01/19 01:11:00.000   47.480957201   19.056532608   181.3436   5   9   1.8747   1.5916   3.1467  -1.0244  -0.2948  -0.4358   0.00    0.0
2019/01/19 01:11:30.000   47.480955083   19.056533532   181.3427   5   9   1.8740   1.5926   3.1404  -1.0256  -0.2543  -0.4654   0.00    0.0
2019/01/19 01:12:00.000   47.480954295   19.056532451   181.0971   5   9   1.8733   1.5937   3.1340  -1.0268  -0.2061  -0.4929   0.00    0.0
2019/01/19 01:12:30.000   47.480953218   19.056531677   180.6970   5   9   1.8726   1.5948   3.1278  -1.0280  -0.1427  -0.5188   0.00    0.0
2019/01/19 01:13:00.000   47.480952256   19.056530713   180.7091   5   9   1.8720   1.5959   3.1215  -1.0292   0.0406  -0.5431   0.00    0.0
2019/01/19 01:13:30.000   47.480952853   19.056531118   180.7795   5   9   1.8715   1.5971   3.1153  -1.0305   0.1535  -0.5661   0.00    0.0
2019/01/19 01:14:00.000   47.480953333   19.056530917   181.0426   5   9   1.8710   1.5983   3.1091  -1.0318   0.2131  -0.5880   0.00    0.0
2019/01/19 01:14:30.000   47.480955441   19.056529599   181.1773   5   9   1.8705   1.5996   3.1030  -1.0331   0.2591  -0.6089   0.00    0.0
2019/01/19 01:15:00.000   47.480957082   19.056529354   181.3028   5   9   1.8700   1.6008   3.0968  -1.0345   0.2979  -0.6288   0.00    0.0
2019/01/19 01:15:30.000   47.480957476   19.056530833   181.4435   5   9   1.8697   1.6021   3.0908  -1.0359   0.3321  -0.6479   0.00    0.0
2019/01/19 01:16:00.000   47.480957555   19.056532709   181.5416   5   9   1.8693   1.6034   3.0847  -1.0373   0.3629  -0.6662   0.00    0.0
2019/01/19 01:16:30.000   47.480958692   19.056533526   181.5047   5   9   1.8690   1.6048   3.0787  -1.0387   0.3912  -0.6838   0.00    0.0
2019/01/19 01:17:00.000   47.480959168   19.056533327   181.5969   5   9   1.8688   1.6062   3.0728  -1.0401   0.4174  -0.7007   0.00    0.0
2019/01/19 01:17:30.000   47.480960446   19.056534166   181.5611   5   9   1.8685   1.6076   3.0669  -1.0416   0.4419  -0.7170   0.00    0.0
2019/01/19 01:18:00.000   47.480960439   19.056533853   181.5819   5   9   1.8684   1.6091   3.0610  -1.0431   0.4650  -0.7328   0.00    0.0
2019/01/19 01:18:30.000   47.480960713   19.056533939   181.5626   5   9   1.8683   1.6105   3.0552  -1.0446   0.4869  -0.7480   0.00    0.0
2019/01/19 01:19:00.000   47.480960877   19.056534362   181.4240   5   9   1.8682   1.6121   3.0495  -1.0461   0.5077  -0.7627   0.00    0.0
2019/01/19 01:19:30.000   47.480961661   19.056531729   181.3086   5   9   1.8681   1.6136   3.0437  -1.0477   0.5276  -0.7769   0.00    0.0
2019/01/19 01:20:00.000   47.480961103   19.056530330   181.3686   5   9   1.8682   1.6152   3.0381  -1.0492   0.5466  -0.7906   0.00    0.0
2019/01/19 01:20:30.000   47.480953399   19.056535311   180.6633   5  10   1.6644   1.5101   2.8998  -0.7836   0.9118  -1.1828   0.00    0.0
2019/01/19 01:21:00.000   47.480952953   19.056534130   180.8477   5  10   1.6641   1.5113   2.8993  -0.7848   0.9180  -1.1856   0.00    0.0
2019/01/19 01:21:30.000   47.480952368   19.056532800   181.0885   5  10   1.6640   1.5125   2.8987  -0.7860   0.9240  -1.1882   0.00    0.0
2019/01/19 01:22:00.000   47.480951570   19.056531683   181.1216   5  10   1.6638   1.5138   2.8981  -0.7872   0.9299  -1.1908   0.00    0.0
2019/01/19 01:22:30.000   47.480951051   19.056530536   181.2337   5  10   1.6637   1.5151   2.8975  -0.7884   0.9357  -1.1932   0.00    0.0
2019/01/19 01:23:00.000   47.480951087   19.056529345   181.1869   5  10   1.6636   1.5164   2.8967  -0.7895   0.9414  -1.1955   0.00    0.0
2019/01/19 01:23:30.000   47.480951437   19.056527568   181.1448   5  10   1.6635   1.5177   2.8960  -0.7907   0.9470  -1.1976   0.00    0.0
2019/01/19 01:24:00.000   47.480951549   19.056529466   181.2237   5  10   1.6635   1.5191   2.8952  -0.7918   0.9525  -1.1997   0.00    0.0
2019/01/19 01:24:30.000   47.480952673   19.056531828   181.1962   5  10   1.6635   1.5204   2.8943  -0.7929   0.9579  -1.2016   0.00    0.0
2019/01/19 01:25:00.000   47.480953487   19.056534613   181.0741   5  10   1.6635   1.5218   2.8934  -0.7940   0.9631  -1.2034   0.00    0.0
2019/01/19 01:25:30.000   47.480955061   19.056536495   180.6357   5  10   1.6636   1.5232   2.8925  -0.7951   0.9683  -1.2051   0.00    0.0
2019/01/19 01:26:00.000   47.480955662   19.056536791   180.2172   5  10   1.6637   1.5246   2.8915  -0.7962   0.9734  -1.2067   0.00    0.0
2019/01/19 01:26:30.000   47.480956259   19.056536208   180.1102   5  10   1.6638   1.5260   2.8905  -0.7973   0.9784  -1.2081   0.00    0.0
2019/01/19 01:27:00.000   47.480954529   19.056536769   180.2931   5  10   1.6639   1.5275   2.8894  -0.7983   0.9833  -1.2095   0.00    0.0
2019/01/19 01:27:30.000   47.480948741   19.056537052   181.2079   5   9   2.3158   1.5353   3.7498  -0.6434   0.8015  -2.3059   0.00    0.0
2019/01/19 01:28:00.000   47.480946440   19.056536732   180.7845   5   8   2.4828   1.5468   3.8550  -0.5164   0.9104  -2.1362   0.00    0.0
2019/01/19 01:28:30.000   47.480946694   19.056537930   180.9134   5   8   2.4832   1.5478   3.8616  -0.5293   0.9272  -2.1408   0.00    0.0
2019/01/19 01:29:00.000   47.480946947   19.056538191   181.1427   5   8   2.4836   1.5489   3.8680  -0.5419   0.9437  -2.1452   0.00    0.0
2019/01/19 01:29:30.000   47.480947558   19.056537479   181.1860   5   8   2.4839   1.5501   3.8744  -0.5542   0.9600  -2.1494   0.00    0.0
2019/01/19 01:30:00.000   47.480948468   19.056537215   181.1176   5   8   2.4841   1.5513   3.8806  -0.5663   0.9760  -2.1536   0.00    0.0
2019/01/19 01:30:30.000   47.480947931   19.056538826   181.1501   5   8   2.4844   1.5526   3.8867  -0.5781   0.9917  -2.1576   0.00    0.0
2019/01/19 01:31:00.000   47.480949616   19.056536549   180.7907   5   9   2.2141   1.3795   3.1284   0.6771  -0.8014  -1.4355   0.00    0.0
2019/01/19 01:31:30.000   47.480948880   19.056534965   180.8627   5   9   2.2119   1.3781   3.1315   0.6742  -0.7927  -1.4351   0.00    0.0
2019/01/19 01:32:00.000   47.480949772   19.056534198   180.9089   5   9   2.2097   1.3768   3.1347   0.6713  -0.7839  -1.4348   0.00    0.0
2019/01/19 01:32:30.000   47.480950810   19.056533955   180.9661   5   9   2.2075   1.3755   3.1378   0.6684  -0.7749  -1.4344   0.00    0.0
2019/01/19 01:33:00.000   47.480950120   19.056534440   181.1910   5   9   2.2053   1.3743   3.1409   0.6654  -0.7656  -1.4341   0.00    0.0
2019/01/19 01:33:30.000   47.480949736   19.056534364   181.0774   5   9   2.2031   1.3731   3.1440   0.6624  -0.7562  -1.4337   0.00    0.0
2019/01/19 01:34:00.000   47.480948862   19.056533187   180.8879   5   9   2.2009   1.3719   3.1472   0.6593  -0.7466  -1.4333   0.00    0.0
2019/01/19 01:34:30.000   47.480948893   19.056531388   180.7895   5   9   2.1987   1.3708   3.1503   0.6562  -0.7368  -1.4329   0.00    0.0
2019/01/19 01:35:00.000   47.480949286   19.056530801   180.6766   5   9   2.1965   1.3698   3.1534   0.6531  -0.7268  -1.4324   0.00    0.0
2019/01/19 01:35:30.000   47.480951380   19.056530389   180.4094   5   9   2.1944   1.3688   3.1565   0.6499  -0.7166  -1.4319   0.00    0.0
2019/01/19 01:36:00.000   47.480951937   19.056531714   180.3828   5   9   2.1922   1.3678   3.1596   0.6466  -0.7062  -1.4315   0.00    0.0
2019/01/19 01:36:30.000   47.480951428   19.056532584   180.7448   5   9   2.1900   1.3669   3.1626   0.6433  -0.6955  -1.4310   0.00    0.0
2019/01/19 01:37:00.000   47.480949985   19.056534820   180.9969   5   9   2.1879   1.3660   3.1657   0.6400  -0.6845  -1.4304   0.00    0.0
2019/01/19 01:37:30.000   47.480948718   19.056536030   181.1237   5   9   2.1857   1.3651   3.1687   0.6366  -0.6733  -1.4299   0.00    0.0
2019/01/19 01:38:00.000   47.480947924   19.056536202   181.0355   5   9   2.1835   1.3643   3.1716   0.6332  -0.6618  -1.4293   0.00    0.0
2019/01/19 01:38:30.000   47.480947891   19.056535684   180.8873   5   9   2.1814   1.3636   3.1746   0.6298  -0.6501  -1.4288   0.00    0.0
2019/01/19 01:39:00.000   47.480948014   19.056535079   180.9199   5   9   2.1792   1.3629   3.1775   0.6263  -0.6380  -1.4281   0.00    0.0
2019/01/19 01:39:30.000   47.480948554   19.056534748   180.8923   5   9   2.1770   1.3622   3.1804   0.6227  -0.6256  -1.4275   0.00    0.0
2019/01/19 01:40:00.000   47.480949230   19.056534848   180.9892   5   9   2.1749   1.3616   3.1833   0.6192  -0.6129  -1.4269   0.00    0.0
2019/01/19 01:40:30.000   47.480948657   19.056534515   180.9993   5   9   2.1727   1.3611   3.1861   0.6156  -0.5999  -1.4262   0.00    0.0
2019/01/19 01:41:00.000   47.480947400   19.056534466   180.9795   5   9   2.1706   1.3605   3.1889   0.6119  -0.5864  -1.4255   0.00    0.0
2019/01/19 01:41:30.000   47.480945407   19.056534920   181.2744   5   9   2.1684   1.3601   3.1916   0.6082  -0.5726  -1.4248   0.00    0.0
2019/01/19 01:42:00.000   47.480943462   19.056534899   181.5236   5   9   2.1662   1.3596   3.1943   0.6045  -0.5583  -1.4240   0.00    0.0
2019/01/19 01:42:30.000   47.480943716   19.056534874   181.4934   5   9   2.1641   1.3593   3.1969   0.6007  -0.5436  -1.4232   0.00    0.0
2019/01/19 01:43:00.000   47.480944353   19.056534651   181.4042   5   9   2.1619   1.3589   3.1995   0.5968  -0.5284  -1.4225   0.00    0.0
2019/01/19 01:43:30.000   47.480945328   19.056534201   181.1932   5   9   2.1598   1.3586   3.2021   0.5930  -0.5126  -1.4216   0.00    0.0
2019/01/19 01:44:00.000   47.480945593   19.056536107   181.1777   5   9   2.1576   1.3584   3.2045   0.5891  -0.4962  -1.4208   0.00    0.0
2019/01/19 01:44:30.000   47.480945230   19.056537991   181.2214   5   9   2.1555   1.3582   3.2070   0.5851  -0.4792  -1.4199   0.00    0.0
2019/01/19 01:45:00.000   47.480945208   19.056537950   181.2321   5   9   2.1534   1.3581   3.2094   0.5811  -0.4615  -1.4190   0.00    0.0
2019/01/19 01:45:30.000   47.480945779   19.056537223   181.2419   5   9   2.1512   1.3580   3.2117   0.5771  -0.4430  -1.4181   0.00    0.0
2019/01/19 01:46:00.000   47.480947670   19.056535091   181.0452   5   9   2.1491   1.3579   3.2140   0.5730  -0.4236  -1.4172   0.00    0.0
2019/01/19 01:46:30.000   47.480948026   19.056533476   180.8441   5   9   2.1470   1.3579   3.2162   0.5689  -0.4031  -1.4162   0.00    0.0
2019/01/19 01:47:00.000   47.480947965   19.056533296   181.0002   5   9   2.1448   1.3580   3.2183   0.5647  -0.3815  -1.4152   0.00    0.0
2019/01/19 01:47:30.000   47.480948231   19.056533006   181.0225   5   9   2.1427   1.3581   3.2204   0.5605  -0.3585  -1.4142   0.00    0.0
2019/01/19 01:48:00.000   47.480948533   19.056533055   181.0883   5   9   2.1406   1.3582   3.2225   0.5563  -0.3337  -1.4131   0.00    0.0
2019/01/19 01:48:30.000   47.480947845   19.056533311   181.0929   5   9   2.1384   1.3584   3.2245   0.5520  -0.3069  -1.4120   0.00    0.0
2019/01/19 01:49:00.000   47.480947733   19.056534302   180.9066   5   9   2.1363   1.3587   3.2264   0.5477  -0.2774  -1.4109   0.00    0.0
2019/01/19 01:49:30.000   47.480947558   19.056534690   180.7614   5   9   2.1342   1.3589   3.2282   0.5433  -0.2443  -1.4098   0.00    0.0
2019/01/19 01:50:00.000   47.480949083   19.056533587   180.5774   5   9   2.1321   1.3593   3.2300   0.5388  -0.2057  -1.4087   0.00    0.0
2019/01/19 01:50:30.000   47.480950470   19.056534711   180.5550   5   9   2.1300   1.3597   3.2317   0.5344  -0.1578  -1.4075   0.00    0.0
2019/01/19 01:51:00.000   47.480950587   19.056535146   180.5546   5   9   2.1279   1.3601   3.2334   0.5299  -0.0864  -1.4063   0.00    0.0
2019/01/19 01:51:30.000   47.480951508   19.056533814   180.4451   5   9   2.1258   1.3606   3.2350   0.5253   0.1002  -1.4050   0.00    0.0
2019/01/19 01:52:00.000   47.480950637   19.056534038   180.5345   5   9   2.1237   1.3612   3.2365   0.5207   0.1661  -1.4038   0.00    0.0
2019/01/19 01:52:30.000   47.480950594   19.056534865   180.6282   5   9   2.1217   1.3618   3.2380   0.5160   0.2125  -1.4025   0.00    0.0
2019/01/19 01:53:00.000   47.480949524   19.056535460   180.7893   5   9   2.1196   1.3624   3.2394   0.5113   0.2506  -1.4012   0.00    0.0
2019/01/19 01:53:30.000   47.480949777   19.056535860   180.8164   5  10   1.9692   1.3523   3.1377   0.6244   0.4682  -1.6096   0.00    0.0
2019/01/19 01:54:00.000   47.480951622   19.056535077   180.8239   5  10   1.9664   1.3531   3.1409   0.6207   0.4854  -1.6070   0.00    0.0
2019/01/19 01:54:30.000   47.480953046   19.056535173   180.8443   5  10   1.9637   1.3539   3.1441   0.6170   0.5021  -1.6043   0.00    0.0
2019/01/19 01:55:00.000   47.480954421   19.056534005   180.7538   5  10   1.9609   1.3547   3.1472   0.6132   0.5182  -1.6016   0.00    0.0
2019/01/19 01:55:30.000   47.480954259   19.056533858   180.6988   5  10   1.9582   1.3556   3.1502   0.6095   0.5339  -1.5988   0.00    0.0
2019/01/19 01:56:00.000   47.480953394   19.056533863   180.6780   5  10   1.9555   1.3566   3.1532   0.6058   0.5492  -1.5959   0.00    0.0
2019/01/19 01:56:30.000   47.480951940   19.056534180   180.7076   5  10   1.9528   1.3576   3.1561   0.6020   0.5640  -1.5930   0.00    0.0
2019/01/19 01:57:00.000   47.480951063   19.056534959   180.9233   5  10   1.9502   1.3586   3.1590   0.5983   0.5785  -1.5900   0.00    0.0
2019/01/19 01:57:30.000   47.480951489   19.056534754   181.0532   5  10   1.9476   1.3597   3.1619   0.5945   0.5927  -1.5869   0.00    0.0
2019/01/19 01:58:00.000   47.480951637   19.056535219   181.4784   5  10   1.9450   1.3609   3.1646   0.5908   0.6065  -1.5838   0.00    0.0
2019/01/19 01:58:30.000   47.480952417   19.056533788   181.7162   5  10   1.9424   1.3621   3.1674   0.5871   0.6201  -1.5806   0.00    0.0
2019/01/19 01:59:00.000   47.480952542   19.056533995   181.8261   5  10   1.9398   1.3633   3.1700   0.5833   0.6333  -1.5773   0.00    0.0
2019/01/19 01:59:30.000   47.480954164   19.056532649   181.3390   5  11   1.9008   1.2377   2.8653   0.7423  -0.6042  -1.4027   0.00    0.0
2019/01/19 02:00:00.000   47.480954535   19.056533432   181.2008   5  11   1.8981   1.2375   2.8673   0.7405  -0.5953  -1.3984   0.00    0.0
2019/01/19 02:00:30.000   47.480955121   19.056532874   180.9796   5  11   1.8954   1.2374   2.8693   0.7387  -0.5862  -1.3940   0.00    0.0
2019/01/19 02:01:00.000   47.480954236   19.056533844   180.9943   5  11   1.8928   1.2373   2.8712   0.7370  -0.5769  -1.3896   0.00    0.0
2019/01/19 02:01:30.000   47.480953395   19.056533966   180.9633   5  11   1.8902   1.2372   2.8732   0.7353  -0.5675  -1.3852   0.00    0.0
2019/01/19 02:02:00.000   47.480954388   19.056537333   180.4613   5  10   2.0683   1.5149   3.3924   1.1301  -1.3729  -1.8516   0.00    0.0
2019/01/19 02:02:30.000   47.480953648   19.056536957   180.5373   5  10   2.0625   1.5116   3.3943   1.1235  -1.3653  -1.8442   0.00    0.0
2019/01/19 02:03:00.000   47.480953921   19.056535378   180.4182   5  10   2.0568   1.5083   3.3962   1.1170  -1.3576  -1.8367   0.00    0.0
2019/01/19 02:03:30.000   47.480954902   19.056532982   180.2361   5  10   2.0511   1.5051   3.3980   1.1104  -1.3497  -1.8291   0.00    0.0
2019/01/19 02:04:00.000   47.480955758   19.056531210   180.1647   5  10   2.0454   1.5020   3.3997   1.1039  -1.3418  -1.8215   0.00    0.0
2019/01/19 02:04:30.000   47.480954730   19.056532596   180.3239   5  10   2.0398   1.4988   3.4014   1.0973  -1.3337  -1.8137   0.00    0.0
2019/01/19 02:05:00.000   47.480953553   19.056533541   180.7319   5  10   2.0343   1.4958   3.4031   1.0907  -1.3255  -1.8059   0.00    0.0
2019/01/19 02:05:30.000   47.480953069   19.056533476   181.0844   5  10   2.0287   1.4927   3.4047   1.0842  -1.3172  -1.7980   0.00    0.0
2019/01/19 02:06:00.000   47.480953389   19.056533510   181.2890   5  10   2.0232   1.4897   3.4062   1.0776  -1.3087  -1.7899   0.00    0.0
2019/01/19 02:06:30.000   47.480955113   19.056532728   180.8712   5  10   2.0178   1.4867   3.4076   1.0711  -1.3002  -1.7818   0.00    0.0
2019/01/19 02:07:00.000   47.480956016   19.056530079   180.2481   5  10   2.0124   1.4838   3.4090   1.0645  -1.2915  -1.7737   0.00    0.0
2019/01/19 02:07:30.000   47.480954230   19.056529158   179.9923   5  10   2.0071   1.4809   3.4103   1.0580  -1.2826  -1.7654   0.00    0.0
2019/01/19 02:08:00.000   47.480950641   19.056532062   180.4890   5  10   2.0018   1.4781   3.4116   1.0514  -1.2737  -1.7570   0.00    0.0
2019/01/19 02:08:30.000   47.480948026   19.056536449   181.1712   5  10   1.9966   1.4753   3.4128   1.0449  -1.2646  -1.7486   0.00    0.0
2019/01/19 02:09:00.000   47.480946618   19.056538908   181.8051   5  10   1.9914   1.4725   3.4140   1.0383  -1.2554  -1.7400   0.00    0.0
2019/01/19 02:09:30.000   47.480946495   19.056539041   181.9840   5  10   1.9862   1.4698   3.4150   1.0318  -1.2460  -1.7314   0.00    0.0
2019/01/19 02:10:00.000   47.480948907   19.056536214   181.5042   5  10   1.9812   1.4672   3.4161   1.0253  -1.2365  -1.7226   0.00    0.0
2019/01/19 02:10:30.000   47.480950504   19.056533238   181.0407   5  10   1.9761   1.4646   3.4170   1.0188  -1.2269  -1.7138   0.00    0.0
2019/01/19 02:11:00.000   47.480949628   19.056533118   181.0862   5  10   1.9712   1.4620   3.4179   1.0123  -1.2171  -1.7049   0.00    0.0
2019/01/19 02:11:30.000   47.480947658   19.056533539   181.2265   5  10   1.9663   1.4595   3.4188   1.0059  -1.2072  -1.6959   0.00    0.0
2019/01/19 02:12:00.000   47.480945463   19.056535046   181.7255   5  10   1.9614   1.4570   3.4196   0.9994  -1.1971  -1.6868   0.00    0.0
2019/01/19 02:12:30.000   47.480945062   19.056535918   181.9052   5  10   1.9567   1.4546   3.4203   0.9930  -1.1869  -1.6776   0.00    0.0
2019/01/19 02:13:00.000   47.480946259   19.056535116   181.8096   5  10   1.9519   1.4522   3.4210   0.9866  -1.1765  -1.6683   0.00    0.0
2019/01/19 02:13:30.000   47.480947993   19.056534465   181.4939   5  10   1.9473   1.4498   3.4217   0.9802  -1.1659  -1.6589   0.00    0.0
2019/01/19 02:14:00.000   47.480952496   19.056536181   181.3289   5  11   1.8816   1.3897   3.3471   0.8675  -1.2742  -1.7508   0.00    0.0
2019/01/19 02:14:30.000   47.480952773   19.056536687   181.1093   5  11   1.8767   1.3867   3.3472   0.8594  -1.2653  -1.7423   0.00    0.0
2019/01/19 02:15:00.000   47.480951633   19.056537687   181.1033   5  11   1.8718   1.3837   3.3473   0.8513  -1.2564  -1.7336   0.00    0.0
2019/01/19 02:15:30.000   47.480951187   19.056538201   181.0785   5  11   1.8669   1.3807   3.3474   0.8431  -1.2473  -1.7250   0.00    0.0
2019/01/19 02:16:00.000   47.480952081   19.056536431   180.8569   5  11   1.8622   1.3778   3.3474   0.8350  -1.2381  -1.7162   0.00    0.0
2019/01/19 02:16:30.000   47.480952559   19.056535469   180.7909   5  11   1.8575   1.3749   3.3473   0.8269  -1.2288  -1.7073   0.00    0.0
2019/01/19 02:17:00.000   47.480952556   19.056536085   180.7695   5  11   1.8529   1.3721   3.3473   0.8187  -1.2194  -1.6984   0.00    0.0
2019/01/19 02:17:30.000   47.480953182   19.056536815   181.0115   5  10   1.9979   1.3762   3.4398   0.8726  -1.1639  -1.5008   0.00    0.0
2019/01/19 02:18:00.000   47.480952805   19.056536726   180.7922   5  10   1.9916   1.3731   3.4468   0.8630  -1.1534  -1.4844   0.00    0.0
2019/01/19 02:18:30.000   47.480952785   19.056537087   180.5172   5  10   1.9855   1.3701   3.4540   0.8535  -1.1427  -1.4679   0.00    0.0
2019/01/19 02:19:00.000   47.480953718   19.056537087   180.1057   5  10   1.9795   1.3671   3.4614   0.8440  -1.1319  -1.4512   0.00    0.0
2019/01/19 02:19:30.000   47.480953428   19.056538977   179.9718   5  10   1.9737   1.3643   3.4690   0.8347  -1.1210  -1.4343   0.00    0.0
2019/01/19 02:20:00.000   47.480953238   19.056539405   179.9968   5  10   1.9680   1.3614   3.4768   0.8254  -1.1100  -1.4172   0.00    0.0
2019/01/19 02:20:30.000   47.480953832   19.056537848   180.1645   5  10   1.9625   1.3587   3.4849   0.8162  -1.0988  -1.3999   0.00    0.0
2019/01/19 02:21:00.000   47.480955021   19.056535650   180.4405   5  10   1.9571   1.3560   3.4931   0.8070  -1.0875  -1.3824   0.00    0.0
2019/01/19 02:21:30.000   47.480955337   19.056536446   180.7080   5  10   1.9519   1.3534   3.5016   0.7979  -1.0760  -1.3647   0.00    0.0
2019/01/19 02:22:00.000   47.480956032   19.056538060   181.0986   5  10   1.9468   1.3509   3.5103   0.7889  -1.0644  -1.3467   0.00    0.0
2019/01/19 02:22:30.000   47.480956024   19.056539200   181.6578   5  10   1.9419   1.3484   3.5192   0.7800  -1.0526  -1.3285   0.00    0.0
2019/01/19 02:23:00.000   47.480955962   19.056540819   182.2096   5  10   1.9371   1.3460   3.5284   0.7711  -1.0406  -1.3100   0.00    0.0
2019/01/19 02:23:30.000   47.480957012   19.056540954   182.5201   5  10   1.9325   1.3437   3.5377   0.7623  -1.0284  -1.2913   0.00    0.0
2019/01/19 02:24:00.000   47.480957849   19.056540058   182.4255   5  10   1.9280   1.3414   3.5473   0.7536  -1.0160  -1.2722   0.00    0.0
2019/01/19 02:24:30.000   47.480958135   19.056539699   182.2101   5  10   1.9237   1.3392   3.5571   0.7450  -1.0034  -1.2528   0.00    0.0
2019/01/19 02:25:00.000   47.480957864   19.056539287   181.8240   5  10   1.9195   1.3371   3.5670   0.7365  -0.9906  -1.2332   0.00    0.0
2019/01/19 02:25:30.000   47.480957393   19.056539770   181.5720   5  10   1.9155   1.3350   3.5773   0.7280  -0.9775  -1.2131   0.00    0.0
2019/01/19 02:26:00.000   47.480957321   19.056539803   181.1996   5  10   1.9116   1.3330   3.5877   0.7196  -0.9641  -1.1927   0.00    0.0
2019/01/19 02:26:30.000   47.480957194   19.056540112   181.0645   5  10   1.9079   1.3311   3.5983   0.7113  -0.9505  -1.1719   0.00    0.0
2019/01/19 02:27:00.000   47.480957086   19.056539569   180.9676   5  10   1.9043   1.3292   3.6091   0.7030  -0.9366  -1.1507   0.00    0.0
2019/01/19 02:27:30.000   47.480956955   19.056539464   181.3163   5  10   1.9008   1.3274   3.6202   0.6949  -0.9223  -1.1290   0.00    0.0
2019/01/19 02:28:00.000   47.480956901   19.056540401   181.6865   5  10   1.8975   1.3257   3.6314   0.6868  -0.9078  -1.1068   0.00    0.0
2019/01/19 02:28:30.000   47.480958587   19.056540583   181.5962   5  11   1.7086   1.3239   3.3468   0.6709  -0.8823   0.0363   0.00    0.0
2019/01/19 02:29:00.000   47.480959434   19.056540201   181.0988   5  11   1.7085   1.3224   3.3602   0.6667  -0.8717   0.1997   0.00    0.0
2019/01/19 02:29:30.000   47.480959469   19.056538053   180.5007   5  11   1.7085   1.3209   3.3738   0.6625  -0.8608   0.2807   0.00    0.0
2019/01/19 02:30:00.000   47.480958513   19.056537402   180.3686   5  11   1.7086   1.3194   3.3874   0.6584  -0.8497   0.3437   0.00    0.0
2019/01/19 02:30:30.000   47.480957008   19.056538420   180.5450   5  11   1.7088   1.3180   3.4013   0.6544  -0.8382   0.3972   0.00    0.0
2019/01/19 02:31:00.000   47.480956435   19.056539992   181.0055   5  11   1.7091   1.3166   3.4152   0.6505  -0.8263   0.4448   0.00    0.0
2019/01/19 02:31:30.000   47.480956710   19.056541653   181.5775   5  11   1.7095   1.3152   3.4293   0.6467  -0.8141   0.4881   0.00    0.0
2019/01/19 02:32:00.000   47.480957428   19.056541686   182.0106   5  11   1.7101   1.3139   3.4434   0.6430  -0.8015   0.5282   0.00    0.0
2019/01/19 02:32:30.000   47.480958844   19.056540124   181.8320   5  11   1.7107   1.3127   3.4577   0.6394  -0.7885   0.5658   0.00    0.0
2019/01/19 02:33:00.000   47.480959041   19.056539492   181.5068   5  11   1.7114   1.3115   3.4722   0.6359  -0.7751   0.6014   0.00    0.0
2019/01/19 02:33:30.000   47.480958295   19.056539895   181.2701   5  11   1.7122   1.3103   3.4867   0.6325  -0.7613   0.6353   0.00    0.0
2019/01/19 02:34:00.000   47.480957257   19.056540836   181.2095   5  11   1.7132   1.3092   3.5013   0.6293  -0.7469   0.6677   0.00    0.0
2019/01/19 02:34:30.000   47.480957193   19.056541253   181.4420   5  11   1.7142   1.3081   3.5161   0.6261  -0.7320   0.6989   0.00    0.0
2019/01/19 02:35:00.000   47.480957823   19.056540826   181.4661   5  11   1.7153   1.3071   3.5309   0.6231  -0.7166   0.7290   0.00    0.0
2019/01/19 02:35:30.000   47.480958983   19.056539858   181.4765   5  11   1.7165   1.3061   3.5458   0.6202  -0.7006   0.7581   0.00    0.0
2019/01/19 02:36:00.000   47.480960294   19.056539402   181.5901   5  11   1.7179   1.3052   3.5608   0.6174  -0.6839   0.7864   0.00    0.0
2019/01/19 02:36:30.000   47.480960908   19.056539571   181.8472   5  11   1.7193   1.3043   3.5759   0.6147  -0.6666   0.8139   0.00    0.0
2019/01/19 02:37:00.000   47.480961479   19.056539914   181.8466   5  11   1.7208   1.3035   3.5911   0.6122  -0.6485   0.8407   0.00    0.0
2019/01/19 02:37:30.000   47.480960203   19.056540366   182.0124   5  11   1.7224   1.3027   3.6063   0.6097  -0.6296   0.8668   0.00    0.0
2019/01/19 02:38:00.000   47.480957363   19.056540972   182.0025   5  11   1.7241   1.3019   3.6216   0.6075  -0.6098   0.8924   0.00    0.0
2019/01/19 02:38:30.000   47.480954926   19.056542522   181.8868   5  11   1.7259   1.3013   3.6370   0.6053  -0.5890   0.9174   0.00    0.0
2019/01/19 02:39:00.000   47.480954093   19.056543367   181.7197   5  11   1.7278   1.3006   3.6524   0.6033  -0.5671   0.9419   0.00    0.0
2019/01/19 02:39:30.000   47.480955257   19.056544151   181.6397   5  11   1.7298   1.3001   3.6678   0.6015  -0.5439   0.9659   0.00    0.0
2019/01/19 02:40:00.000   47.480956779   19.056543093   181.5906   5  11   1.7319   1.2996   3.6833   0.5998  -0.5194   0.9895   0.00    0.0
2019/01/19 02:40:30.000   47.480957586   19.056541695   181.7531   5  11   1.7340   1.2991   3.6988   0.5982  -0.4932   1.0127   0.00    0.0
2019/01/19 02:41:00.000   47.480957739   19.056540448   182.0499   5  11   1.7363   1.2987   3.7142   0.5968  -0.4652   1.0354   0.00    0.0
2019/01/19 02:41:30.000   47.480957214   19.056540807   182.3372   5  11   1.7386   1.2984   3.7297   0.5955  -0.4349   1.0578   0.00    0.0
2019/01/19 02:42:00.000   47.480956720   19.056541136   182.4392   5  11   1.7410   1.2981   3.7452   0.5944  -0.4018   1.0798   0.00    0.0
2019/01/19 02:42:30.000   47.480956007   19.056542302   182.1966   5  11   1.7435   1.2979   3.7607   0.5934  -0.3652   1.1014   0.00    0.0
2019/01/19 02:43:00.000   47.480956731   19.056542412   181.8518   5  11   1.7461   1.2977   3.7762   0.5926  -0.3240   1.1227   0.00    0.0
2019/01/19 02:43:30.000   47.480958680   19.056542480   181.4640   5  11   1.7487   1.2976   3.7916   0.5919  -0.2759   1.1436   0.00    0.0
2019/01/19 02:44:00.000   47.480959653   19.056542454   181.4776   5  11   1.7514   1.2976   3.8069   0.5914  -0.2165   1.1642   0.00    0.0
2019/01/19 02:44:30.000   47.480958806   19.056541515   181.5544   5  11   1.7542   1.2976   3.8222   0.5910  -0.1314   1.1845   0.00    0.0
2019/01/19 02:45:00.000   47.480956855   19.056538962   181.4174   5  11   1.7571   1.2977   3.8375   0.5908   0.1128   1.2044   0.00    0.0
2019/01/19 02:45:30.000   47.480955505   19.056537699   181.2414   5  11   1.7600   1.2978   3.8526   0.5907   0.2076   1.2240   0.00    0.0
2019/01/19 02:46:00.000   47.480955276   19.056537922   181.2578   5  11   1.7629   1.2980   3.8677   0.5908   0.2717   1.2433   0.00    0.0
2019/01/19 02:46:30.000   47.480956455   19.056539130   181.5109   5  11   1.7660   1.2983   3.8826   0.5910   0.3239   1.2623   0.00    0.0
2019/01/19 02:47:00.000   47.480957367   19.056538812   181.6229   5  11   1.7691   1.2987   3.8974   0.5914   0.3693   1.2810   0.00    0.0
2019/01/19 02:47:30.000   47.480957232   19.056539171   181.8730   5  11   1.7722   1.2991   3.9121   0.5919   0.4101   1.2993   0.00    0.0
2019/01/19 02:48:00.000   47.480956042   19.056540270   181.8312   5  11   1.7754   1.2995   3.9267   0.5925   0.4476   1.3174   0.00    0.0
2019/01/19 02:48:30.000   47.480956217   19.056541576   181.9393   5  11   1.7786   1.3001   3.9410   0.5933   0.4825   1.3351   0.00    0.0
2019/01/19 02:49:00.000   47.480957790   19.056543191   181.9838   5  11   1.7819   1.3007   3.9552   0.5942   0.5153   1.3525   0.00    0.0
2019/01/19 02:49:30.000   47.480959862   19.056543296   181.8648   5  11   1.7852   1.3014   3.9693   0.5953   0.5465   1.3696   0.00    0.0
2019/01/19 02:50:00.000   47.480961996   19.056542548   181.7858   5  11   1.7885   1.3021   3.9831   0.5965   0.5762   1.3863   0.00    0.0
2019/01/19 02:50:30.000   47.480962448   19.056541722   181.9675   5  11   1.7919   1.3029   3.9966   0.5978   0.6047   1.4027   0.00    0.0
2019/01/19 02:51:00.000   47.480962694   19.056539100   182.0079   5  11   1.7952   1.3038   4.0100   0.5992   0.6321   1.4188   0.00    0.0
2019/01/19 02:51:30.000   47.480963309   19.056537951   182.2986   5  11   1.7986   1.3048   4.0231   0.6007   0.6585   1.4345   0.00    0.0
2019/01/19 02:52:00.000   47.480963217   19.056538077   182.5285   5  11   1.8021   1.3058   4.0359   0.6023   0.6841   1.4499   0.00    0.0
2019/01/19 02:52:30.000   47.480962655   19.056538917   182.5533   5  11   1.8055   1.3069   4.0484   0.6041   0.7089   1.4649   0.00    0.0
2019/01/19 02:53:00.000   47.480961757   19.056539976   182.6573   5  11   1.8089   1.3080   4.0607   0.6059   0.7330   1.4796   0.00    0.0
2019/01/19 02:53:30.000   47.480961244   19.056537985   182.3359   5  11   1.8123   1.3093   4.0726   0.6078   0.7564   1.4938   0.00    0.0
2019/01/19 02:54:00.000   47.480960582   19.056536585   182.2211   5  11   1.8158   1.3106   4.0842   0.6098   0.7792   1.5077   0.00    0.0
2019/01/19 02:54:30.000   47.480961149   19.056536272   182.1482   5  11   1.8192   1.3119   4.0955   0.6119   0.8014   1.5213   0.00    0.0
2019/01/19 02:55:00.000   47.480961680   19.056536988   182.3706   5  11   1.8226   1.3134   4.1064   0.6140   0.8231   1.5344   0.00    0.0
2019/01/19 02:55:30.000   47.480962583   19.056537732   182.6955   5  11   1.8260   1.3148   4.1169   0.6162   0.8442   1.5471   0.00    0.0
2019/01/19 02:56:00.000   47.480962574   19.056538109   182.9896   5  11   1.8293   1.3164   4.1271   0.6185   0.8649   1.5595   0.00    0.0
2019/01/19 02:56:30.000   47.480962500   19.056538287   182.8808   5  11   1.8326   1.3180   4.1368   0.6208   0.8850   1.5714   0.00    0.0
2019/01/19 02:57:00.000   47.480963046   19.056538427   182.6228   5  11   1.8359   1.3197   4.1462   0.6231   0.9047   1.5829   0.00    0.0
2019/01/19 02:57:30.000   47.480962651   19.056538836   182.7051   5  11   1.8392   1.3214   4.1551   0.6255   0.9240   1.5939   0.00    0.0
2019/01/19 02:58:00.000   47.480962136   19.056539922   182.6567   5  11   1.8424   1.3233   4.1635   0.6279   0.9428   1.6046   0.00    0.0
2019/01/19 02:58:30.000   47.480961972   19.056541235   182.7157   5  11   1.8456   1.3251   4.1716   0.6303   0.9612   1.6147   0.00    0.0
2019/01/19 02:59:00.000   47.480962503   19.056540626   182.6660   5  11   1.8487   1.3270   4.1791   0.6326   0.9792   1.6245   0.00    0.0
2019/01/19 02:59:30.000   47.480963493   19.056541417   182.9049   5  11   1.8517   1.3290   4.1862   0.6350   0.9967   1.6337   0.00    0.0
2019/01/19 03:00:00.000   47.480964462   19.056543868   183.0667   5  11   1.8547   1.3311   4.1928   0.6374   1.0138   1.6426   0.00    0.0
2019/01/19 03:00:30.000   47.480964165   19.056544771   182.9909   5  11   1.8576   1.3332   4.1989   0.6398   1.0306   1.6509   0.00    0.0
2019/01/19 03:01:00.000   47.480963966   19.056545185   183.1087   5  11   1.8604   1.3353   4.2045   0.6421   1.0469   1.6588   0.00    0.0
2019/01/19 03:01:30.000   47.480963964   19.056543648   183.3167   5  11   1.8632   1.3375   4.2095   0.6444   1.0628   1.6661   0.00    0.0
2019/01/19 03:02:00.000   47.480964279   19.056541101   183.5458   5  11   1.8659   1.3397   4.2141   0.6466   1.0784   1.6730   0.00    0.0
2019/01/19 03:02:30.000   47.480964233   19.056539683   183.6622   5  11   1.8685   1.3420   4.2181   0.6488   1.0935   1.6794   0.00    0.0
2019/01/19 03:03:00.000   47.480963507   19.056539080   183.7920   5  11   1.8710   1.3443   4.2216   0.6509   1.1083   1.6853   0.00    0.0
2019/01/19 03:03:30.000   47.480962086   19.056538915   183.6774   5  11   1.8734   1.3467   4.2246   0.6529   1.1226   1.6907   0.00    0.0
2019/01/19 03:04:00.000   47.480962089   19.056537750   183.6027   5  11   1.8758   1.3491   4.2270   0.6549   1.1366   1.6956   0.00    0.0
2019/01/19 03:04:30.000   47.480961999   19.056537572   183.7132   5  11   1.8780   1.3516   4.2289   0.6568   1.1502   1.6999   0.00    0.0
2019/01/19 03:05:00.000   47.480961281   19.056537192   183.9040   5  11   1.8801   1.3541   4.2302   0.6585   1.1634   1.7038   0.00    0.0
2019/01/19 03:05:30.000   47.480961130   19.056536593   183.9383   5  11   1.8822   1.3566   4.2310   0.6602   1.1762   1.7071   0.00    0.0
2019/01/19 03:06:00.000   47.480961710   19.056535370   184.4936   5  11   1.8841   1.3592   4.2312   0.6617   1.1886   1.7099   0.00    0.0
2019/01/19 03:06:30.000   47.480963376   19.056534662   185.1209   5  11   1.8859   1.3617   4.2309   0.6632   1.2007   1.7122   0.00    0.0
2019/01/19 03:07:00.000   47.480963736   19.056533918   185.1857   5  11   1.8876   1.3644   4.2301   0.6645   1.2123   1.7140   0.00    0.0
2019/01/19 03:07:30.000   47.480964046   19.056536500   185.0869   5  11   1.8893   1.3670   4.2287   0.6657   1.2236   1.7152   0.00    0.0
2019/01/19 03:08:00.000   47.480956870   19.056531322   182.9989   5  12   1.6795   1.2387   3.2757  -0.2511  -0.1935   0.7903   0.00    0.0
2019/01/19 03:08:30.000   47.480960260   19.056539567   181.1696   5  11   1.8066   1.4726   4.0704   0.6781  -1.3952  -0.9839   0.00    0.0
2019/01/19 03:09:00.000   47.480960688   19.056539497   181.0364   5  11   1.8064   1.4702   4.0740   0.6702  -1.3874  -0.9773   0.00    0.0
2019/01/19 03:09:30.000   47.480961984   19.056537247   180.8117   5  11   1.8063   1.4678   4.0773   0.6622  -1.3794  -0.9708   0.00    0.0
2019/01/19 03:10:00.000   47.480961870   19.056535986   180.7066   5  11   1.8062   1.4653   4.0804   0.6542  -1.3712  -0.9644   0.00    0.0
2019/01/19 03:10:30.000   47.480961728   19.056536814   180.5340   5  11   1.8061   1.4630   4.0832   0.6461  -1.3628  -0.9581   0.00    0.0
2019/01/19 03:11:00.000   47.480962175   19.056537011   180.5142   5  11   1.8061   1.4606   4.0857   0.6380  -1.3541  -0.9518   0.00    0.0
2019/01/19 03:11:30.000   47.480963080   19.056536773   180.6344   5  11   1.8061   1.4583   4.0879   0.6299  -1.3453  -0.9457   0.00    0.0
2019/01/19 03:12:00.000   47.480962931   19.056536920   180.4808   5  11   1.8062   1.4560   4.0898   0.6218  -1.3362  -0.9397   0.00    0.0
2019/01/19 03:12:30.000   47.480961934   19.056537228   180.3778   5  11   1.8064   1.4537   4.0915   0.6136  -1.3270  -0.9338   0.00    0.0
2019/01/19 03:13:00.000   47.480960436   19.056537333   180.4272   5  11   1.8065   1.4514   4.0928   0.6054  -1.3175  -0.9280   0.00    0.0
2019/01/19 03:13:30.000   47.480959532   19.056538441   180.6007   5  11   1.8067   1.4492   4.0939   0.5972  -1.3078  -0.9224   0.00    0.0
2019/01/19 03:14:00.000   47.480959904   19.056540138   180.6220   5  11   1.8070   1.4470   4.0946   0.5889  -1.2978  -0.9169   0.00    0.0
2019/01/19 03:14:30.000   47.480960499   19.056540711   180.3925   5  11   1.8073   1.4449   4.0950   0.5805  -1.2877  -0.9116   0.00    0.0
2019/01/19 03:15:00.000   47.480960216   19.056540972   180.2469   5  11   1.8076   1.4427   4.0951   0.5721  -1.2773  -0.9065   0.00    0.0
2019/01/19 03:15:30.000   47.480959359   19.056540446   180.0718   5  11   1.8080   1.4406   4.0949   0.5637  -1.2667  -0.9015   0.00    0.0
2019/01/19 03:16:00.000   47.480958892   19.056540238   179.9421   5  11   1.8084   1.4386   4.0943   0.5552  -1.2559  -0.8968   0.00    0.0
2019/01/19 03:16:30.000   47.480959272   19.056540961   179.3608   5  11   1.8089   1.4366   4.0935   0.5466  -1.2449  -0.8922   0.00    0.0
2019/01/19 03:17:00.000   47.480960952   19.056540413   178.6808   5  11   1.8093   1.4346   4.0923   0.5380  -1.2336  -0.8878   0.00    0.0
2019/01/19 03:17:30.000   47.480962085   19.056540330   178.2601   5  11   1.8099   1.4326   4.0908   0.5293  -1.2222  -0.8836   0.00    0.0
2019/01/19 03:18:00.000   47.480960875   19.056541032   178.3711   5  11   1.8104   1.4307   4.0889   0.5205  -1.2105  -0.8797   0.00    0.0
2019/01/19 03:18:30.000   47.480959545   19.056541752   178.7207   5  11   1.8110   1.4289   4.0868   0.5116  -1.1985  -0.8760   0.00    0.0
2019/01/19 03:19:00.000   47.480958810   19.056542011   179.0565   5  11   1.8116   1.4270   4.0843   0.5027  -1.1864  -0.8725   0.00    0.0
2019/01/19 03:19:30.000   47.480960344   19.056542631   179.2362   5  11   1.8123   1.4253   4.0815   0.4936  -1.1740  -0.8692   0.00    0.0
2019/01/19 03:20:00.000   47.480961264   19.056542466   179.3795   5  11   1.8130   1.4235   4.0783   0.4844  -1.1614  -0.8662   0.00    0.0
2019/01/19 03:20:30.000   47.480961023   19.056541803   179.7614   5  11   1.8137   1.4218   4.0748   0.4752  -1.1486  -0.8635   0.00    0.0
2019/01/19 03:21:00.000   47.480959561   19.056540911   179.9685   5  11   1.8145   1.4202   4.0711   0.4657  -1.1356  -0.8610   0.00    0.0
2019/01/19 03:21:30.000   47.480958027   19.056540506   180.0815   5  11   1.8153   1.4186   4.0669   0.4562  -1.1223  -0.8587   0.00    0.0
2019/01/19 03:22:00.000   47.480957195   19.056540569   180.0878   5  11   1.8161   1.4170   4.0625   0.4465  -1.1088  -0.8567   0.00    0.0
2019/01/19 03:22:30.000   47.480957630   19.056541820   180.0318   5  11   1.8169   1.4155   4.0578   0.4367  -1.0950  -0.8550   0.00    0.0
2019/01/19 03:23:00.000   47.480958172   19.056542891   179.5838   5  11   1.8178   1.4141   4.0527   0.4267  -1.0811  -0.8535   0.00    0.0
2019/01/19 03:23:30.000   47.480958256   19.056541922   178.9689   5  11   1.8187   1.4127   4.0473   0.4165  -1.0669  -0.8523   0.00    0.0
2019/01/19 03:24:00.000   47.480958602   19.056541075   178.8361   5  11   1.8197   1.4113   4.0416   0.4061  -1.0524  -0.8514   0.00    0.0
2019/01/19 03:24:30.000   47.480958902   19.056540221   179.1066   5  11   1.8206   1.4100   4.0357   0.3955  -1.0377  -0.8508   0.00    0.0
2019/01/19 03:25:00.000   47.480959394   19.056540500   179.2799   5  11   1.8216   1.4088   4.0294   0.3846  -1.0228  -0.8504   0.00    0.0
2019/01/19 03:25:30.000   47.480959233   19.056540779   179.5904   5  11   1.8226   1.4076   4.0228   0.3734  -1.0077  -0.8503   0.00    0.0
2019/01/19 03:26:00.000   47.480960659   19.056541466   179.5985   5  11   1.8237   1.4064   4.0160   0.3620  -0.9922  -0.8505   0.00    0.0
2019/01/19 03:26:30.000   47.480961993   19.056541306   179.2984   5  11   1.8248   1.4053   4.0088   0.3502  -0.9766  -0.8509   0.00    0.0
2019/01/19 03:27:00.000   47.480961025   19.056541929   179.4164   5  11   1.8259   1.4043   4.0014   0.3381  -0.9607  -0.8516   0.00    0.0
2019/01/19 03:27:30.000   47.480959700   19.056541659   179.7851   5  11   1.8270   1.4033   3.9937   0.3255  -0.9445  -0.8526   0.00    0.0
2019/01/19 03:28:00.000   47.480958709   19.056543459   180.2012   5  11   1.8281   1.4024   3.9858   0.3124  -0.9280  -0.8538   0.00    0.0
2019/01/19 03:28:30.000   47.480958576   19.056546263   180.3917   5  11   1.8293   1.4015   3.9776   0.2989  -0.9113  -0.8553   0.00    0.0
2019/01/19 03:29:00.000   47.480958908   19.056546750   180.5180   5  11   1.8305   1.4007   3.9691   0.2846  -0.8943  -0.8570   0.00    0.0
2019/01/19 03:29:30.000   47.480959312   19.056545268   180.5392   5  11   1.8317   1.3999   3.9604   0.2697  -0.8770  -0.8590   0.00    0.0
