% program   : GINA 1.0 gpstk's raw solution
% inp file  : C:\Users\lus2bp\Source\Repos\GINA\70_EGNOS_Project\files\PositionComparisonInputFiles\bute0190\bute0190.19o
% inp file  : C:\Users\lus2bp\Source\Repos\GINA\70_EGNOS_Project\files\PositionComparisonInputFiles\bute0190\brdc0190.19n
% obs start : 2019/01/19 00:00:00.0 GPST (week2036 518400.0s)
% obs end   : 2019/01/19 23:59:30.0 GPST (week2036 604770.0s)
% pos mode  : single
% elev mask : 10.0 deg
% ionos opt : Zero
% tropo opt : Saas
% ephemeris : broadcasted
% (lat/lon/height=WGS84/ellipsoidal,Q=1:fix,2:float,3:sbas,4:dgps,5:single,6:ppp,ns=# of satellites)
%  GPST                  latitude(deg) longitude(deg)  height(m)   Q  ns   sdn(m)   sde(m)   sdu(m)  sdne(m)  sdeu(m)  sdun(m) age(s)  ratio
2019/01/19 00:00:00.000   47.480973458   19.056564661   182.0312   5  10   0.7050   0.5181   0.2734   0.2685   0.2685   0.4970   0.00    0.0
2019/01/19 00:00:30.000   47.480969647   19.056568961   184.5892   5   8   0.9666   0.9199   0.4588   0.8464   0.8464   0.9343   0.00    0.0
2019/01/19 00:01:00.000   47.480971326   19.056569787   184.8355   5   8   0.9693   0.9279   0.4625   0.8611   0.8611   0.9395   0.00    0.0
2019/01/19 00:01:30.000   47.480971457   19.056571750   184.8393   5   8   0.9720   0.9358   0.4662   0.8759   0.8759   0.9448   0.00    0.0
2019/01/19 00:02:00.000   47.480971904   19.056570836   184.9518   5   8   0.9748   0.9436   0.4700   0.8906   0.8906   0.9502   0.00    0.0
2019/01/19 00:02:30.000   47.480972742   19.056569756   185.6663   5   8   0.9776   0.9514   0.4737   0.9054   0.9054   0.9557   0.00    0.0
2019/01/19 00:03:00.000   47.480972827   19.056568487   185.7965   5   8   0.9804   0.9592   0.4774   0.9202   0.9202   0.9613   0.00    0.0
2019/01/19 00:03:30.000   47.480973386   19.056564209   185.5123   5   8   0.9833   0.9668   0.4811   0.9349   0.9349   0.9669   0.00    0.0
2019/01/19 00:04:00.000   47.480973174   19.056561449   185.3636   5   8   0.9862   0.9744   0.4847   0.9496   0.9496   0.9726   0.00    0.0
2019/01/19 00:04:30.000   47.480972519   19.056562201   185.3301   5   8   0.9891   0.9819   0.4884   0.9643   0.9643   0.9784   0.00    0.0
2019/01/19 00:05:00.000   47.480970856   19.056561382   185.3139   5   8   0.9921   0.9893   0.4920   0.9788   0.9788   0.9842   0.00    0.0
2019/01/19 00:05:30.000   47.480968721   19.056563780   185.5319   5   8   0.9950   0.9965   0.4957   0.9933   0.9933   0.9901   0.00    0.0
2019/01/19 00:06:00.000   47.480967624   19.056566194   185.8832   5   8   0.9980   1.0037   0.4993   1.0077   1.0077   0.9960   0.00    0.0
2019/01/19 00:06:30.000   47.480967170   19.056566817   185.9615   5   8   1.0010   1.0108   0.5029   1.0219   1.0219   1.0019   0.00    0.0
2019/01/19 00:07:00.000   47.480967791   19.056567192   185.7585   5   8   1.0039   1.0177   0.5064   1.0360   1.0360   1.0079   0.00    0.0
2019/01/19 00:07:30.000   47.480969056   19.056564720   185.7467   5   8   1.0069   1.0246   0.5099   1.0500   1.0500   1.0139   0.00    0.0
2019/01/19 00:08:00.000   47.480969611   19.056562396   185.7534   5   8   1.0099   1.0312   0.5134   1.0637   1.0637   1.0199   0.00    0.0
2019/01/19 00:08:30.000   47.480969047   19.056562930   185.8467   5   8   1.0129   1.0378   0.5169   1.0773   1.0773   1.0259   0.00    0.0
2019/01/19 00:09:00.000   47.480968469   19.056562897   185.9165   5   8   1.0158   1.0442   0.5204   1.0907   1.0907   1.0319   0.00    0.0
2019/01/19 00:09:30.000   47.480968028   19.056563460   186.2219   5   8   1.0188   1.0505   0.5238   1.1038   1.1038   1.0379   0.00    0.0
2019/01/19 00:10:00.000   47.480967633   19.056564819   186.5533   5   8   1.0217   1.0566   0.5272   1.1167   1.1167   1.0439   0.00    0.0
2019/01/19 00:10:30.000   47.480968683   19.056564365   186.7463   5   8   1.0246   1.0625   0.5305   1.1293   1.1293   1.0498   0.00    0.0
2019/01/19 00:11:00.000   47.480969686   19.056562636   186.4104   5   8   1.0275   1.0683   0.5338   1.1416   1.1416   1.0557   0.00    0.0
2019/01/19 00:11:30.000   47.480969822   19.056563062   185.9498   5   8   1.0303   1.0739   0.5371   1.1536   1.1536   1.0616   0.00    0.0
2019/01/19 00:12:00.000   47.480969872   19.056564932   185.8532   5   8   1.0331   1.0793   0.5403   1.1653   1.1653   1.0674   0.00    0.0
2019/01/19 00:12:30.000   47.480969726   19.056565576   185.6565   5   8   1.0359   1.0846   0.5435   1.1766   1.1766   1.0731   0.00    0.0
2019/01/19 00:13:00.000   47.480969839   19.056567165   185.4769   5   8   1.0387   1.0896   0.5466   1.1876   1.1876   1.0788   0.00    0.0
2019/01/19 00:13:30.000   47.480969068   19.056571128   185.6835   5   8   1.0414   1.0945   0.5498   1.1982   1.1982   1.0844   0.00    0.0
2019/01/19 00:14:00.000   47.480969255   19.056572486   185.8303   5   8   1.0440   1.0991   0.5528   1.2084   1.2084   1.0899   0.00    0.0
2019/01/19 00:14:30.000   47.480970212   19.056572806   185.8812   5   8   1.0466   1.1036   0.5559   1.2183   1.2183   1.0953   0.00    0.0
2019/01/19 00:15:00.000   47.480970584   19.056572367   185.7778   5   8   1.0491   1.1078   0.5588   1.2277   1.2277   1.1006   0.00    0.0
2019/01/19 00:15:30.000   47.480970015   19.056570303   185.5091   5   8   1.0516   1.1119   0.5617   1.2367   1.2367   1.1058   0.00    0.0
2019/01/19 00:16:00.000   47.480970235   19.056568536   185.3548   5   8   1.0540   1.1158   0.5646   1.2452   1.2452   1.1108   0.00    0.0
2019/01/19 00:16:30.000   47.480970469   19.056566899   184.6331   5   8   1.0563   1.1194   0.5674   1.2533   1.2533   1.1158   0.00    0.0
2019/01/19 00:17:00.000   47.480968889   19.056568621   184.1601   5   8   1.0586   1.1228   0.5702   1.2609   1.2609   1.1206   0.00    0.0
2019/01/19 00:17:30.000   47.480967738   19.056568277   184.0961   5   8   1.0608   1.1260   0.5729   1.2680   1.2680   1.1253   0.00    0.0
2019/01/19 00:18:00.000   47.480967219   19.056568385   184.1179   5   8   1.0629   1.1289   0.5756   1.2747   1.2747   1.1298   0.00    0.0
2019/01/19 00:18:30.000   47.480966575   19.056569584   184.1930   5   8   1.0650   1.1316   0.5783   1.2808   1.2808   1.1342   0.00    0.0
2019/01/19 00:19:00.000   47.480965069   19.056569660   184.3247   5   8   1.0670   1.1341   0.5808   1.2865   1.2865   1.1384   0.00    0.0
2019/01/19 00:19:30.000   47.480964409   19.056567737   184.3039   5   8   1.0689   1.1364   0.5834   1.2917   1.2917   1.1425   0.00    0.0
2019/01/19 00:20:00.000   47.480964237   19.056566872   184.2172   5   8   1.0707   1.1384   0.5859   1.2963   1.2963   1.1464   0.00    0.0
2019/01/19 00:20:30.000   47.480964489   19.056566188   184.0826   5   8   1.0724   1.1403   0.5883   1.3005   1.3005   1.1501   0.00    0.0
2019/01/19 00:21:00.000   47.480964026   19.056566412   184.0936   5   8   1.0741   1.1419   0.5907   1.3041   1.3041   1.1536   0.00    0.0
2019/01/19 00:21:30.000   47.480962390   19.056568543   184.4897   5   8   1.0756   1.1432   0.5930   1.3072   1.3072   1.1570   0.00    0.0
2019/01/19 00:22:00.000   47.480961353   19.056569771   184.8049   5   8   1.0771   1.1444   0.5953   1.3099   1.3099   1.1602   0.00    0.0
2019/01/19 00:22:30.000   47.480960911   19.056571496   184.8540   5   8   1.0785   1.1453   0.5975   1.3120   1.3120   1.1632   0.00    0.0
2019/01/19 00:23:00.000   47.480961839   19.056569752   184.6143   5   8   1.0798   1.1460   0.5997   1.3136   1.3136   1.1660   0.00    0.0
2019/01/19 00:23:30.000   47.480962456   19.056567564   184.2813   5   8   1.0810   1.1465   0.6019   1.3147   1.3147   1.1686   0.00    0.0
2019/01/19 00:24:00.000   47.480962630   19.056566910   184.1942   5   8   1.0822   1.1468   0.6040   1.3153   1.3153   1.1711   0.00    0.0
2019/01/19 00:24:30.000   47.480962038   19.056567308   184.1064   5   8   1.0832   1.1468   0.6060   1.3154   1.3154   1.1733   0.00    0.0
2019/01/19 00:25:00.000   47.480960908   19.056570351   184.2578   5   8   1.0842   1.1466   0.6081   1.3151   1.3151   1.1754   0.00    0.0
2019/01/19 00:25:30.000   47.480960354   19.056573218   184.4875   5   8   1.0850   1.1463   0.6100   1.3142   1.3142   1.1773   0.00    0.0
2019/01/19 00:26:00.000   47.480959560   19.056573582   184.4423   5   8   1.0858   1.1457   0.6119   1.3129   1.3129   1.1789   0.00    0.0
2019/01/19 00:26:30.000   47.480959336   19.056570864   184.0769   5   8   1.0865   1.1449   0.6138   1.3112   1.3112   1.1804   0.00    0.0
2019/01/19 00:27:00.000   47.480958898   19.056567941   183.9076   5   8   1.0871   1.1440   0.6157   1.3089   1.3089   1.1817   0.00    0.0
2019/01/19 00:27:30.000   47.480958780   19.056567159   183.9978   5   8   1.0876   1.1428   0.6175   1.3063   1.3063   1.1829   0.00    0.0
2019/01/19 00:28:00.000   47.480959819   19.056565290   183.9445   5   8   1.0880   1.1415   0.6192   1.3032   1.3032   1.1838   0.00    0.0
2019/01/19 00:28:30.000   47.480960351   19.056564462   183.8119   5   8   1.0884   1.1400   0.6210   1.2998   1.2998   1.1846   0.00    0.0
2019/01/19 00:29:00.000   47.480961252   19.056562985   183.4666   5   8   1.0887   1.1383   0.6227   1.2959   1.2959   1.1852   0.00    0.0
2019/01/19 00:29:30.000   47.480962509   19.056563714   183.3226   5   8   1.0889   1.1364   0.6243   1.2916   1.2916   1.1856   0.00    0.0
2019/01/19 00:30:00.000   47.480963360   19.056564762   183.1782   5   8   1.0890   1.1344   0.6260   1.2870   1.2870   1.1859   0.00    0.0
2019/01/19 00:30:30.000   47.480962349   19.056566959   183.1429   5   8   1.0890   1.1322   0.6276   1.2820   1.2820   1.1860   0.00    0.0
2019/01/19 00:31:00.000   47.480960356   19.056569516   183.3305   5   8   1.0890   1.1298   0.6291   1.2767   1.2767   1.1860   0.00    0.0
2019/01/19 00:31:30.000   47.480961086   19.056565409   183.1722   5   8   1.0889   1.1273   0.6307   1.2711   1.2711   1.1857   0.00    0.0
2019/01/19 00:32:00.000   47.480959298   19.056565270   183.0582   5   8   1.0887   1.1247   0.6322   1.2651   1.2651   1.1854   0.00    0.0
2019/01/19 00:32:30.000   47.480956287   19.056567258   182.8289   5   8   1.0885   1.1219   0.6337   1.2588   1.2588   1.1849   0.00    0.0
2019/01/19 00:33:00.000   47.480953939   19.056569205   182.7401   5   8   1.0882   1.1190   0.6352   1.2523   1.2523   1.1842   0.00    0.0
2019/01/19 00:33:30.000   47.480953155   19.056571015   182.9034   5   8   1.0879   1.1159   0.6366   1.2454   1.2454   1.1835   0.00    0.0
2019/01/19 00:34:00.000   47.480953385   19.056571963   183.0423   5   8   1.0875   1.1127   0.6381   1.2384   1.2384   1.1825   0.00    0.0
2019/01/19 00:34:30.000   47.480954856   19.056569658   182.8715   5   8   1.0870   1.1094   0.6395   1.2310   1.2310   1.1815   0.00    0.0
2019/01/19 00:35:00.000   47.480955209   19.056568930   183.0558   5   8   1.0864   1.1060   0.6409   1.2235   1.2235   1.1804   0.00    0.0
2019/01/19 00:35:30.000   47.480954876   19.056568001   182.9957   5   8   1.0859   1.1025   0.6423   1.2157   1.2157   1.1791   0.00    0.0
2019/01/19 00:36:00.000   47.480954418   19.056566511   182.7271   5   8   1.0852   1.0989   0.6437   1.2078   1.2078   1.1777   0.00    0.0
2019/01/19 00:36:30.000   47.480954208   19.056564873   182.5073   5   8   1.0845   1.0952   0.6450   1.1996   1.1996   1.1762   0.00    0.0
2019/01/19 00:37:00.000   47.480953812   19.056563958   182.4446   5   8   1.0838   1.0914   0.6464   1.1913   1.1913   1.1747   0.00    0.0
2019/01/19 00:37:30.000   47.480953594   19.056563450   182.4739   5   8   1.0830   1.0875   0.6477   1.1828   1.1828   1.1730   0.00    0.0
2019/01/19 00:38:00.000   47.480953377   19.056566113   182.6529   5   8   1.0822   1.0835   0.6490   1.1742   1.1742   1.1712   0.00    0.0
2019/01/19 00:38:30.000   47.480954563   19.056567690   182.7787   5   8   1.0814   1.0795   0.6504   1.1654   1.1654   1.1694   0.00    0.0
2019/01/19 00:39:00.000   47.480954710   19.056567757   182.8314   5   8   1.0805   1.0753   0.6517   1.1566   1.1566   1.1675   0.00    0.0
2019/01/19 00:39:30.000   47.480953762   19.056566936   182.7346   5   8   1.0796   1.0712   0.6530   1.1476   1.1476   1.1654   0.00    0.0
2019/01/19 00:40:00.000   47.480954403   19.056564348   182.5095   5   8   1.0786   1.0669   0.6543   1.1385   1.1385   1.1634   0.00    0.0
2019/01/19 00:40:30.000   47.480954403   19.056564888   182.5808   5   8   1.0776   1.0626   0.6556   1.1293   1.1293   1.1612   0.00    0.0
2019/01/19 00:41:00.000   47.480954143   19.056568465   182.6389   5   8   1.0766   1.0582   0.6569   1.1200   1.1200   1.1590   0.00    0.0
2019/01/19 00:41:30.000   47.480954630   19.056568792   182.1953   5   8   1.0755   1.0538   0.6582   1.1107   1.1107   1.1567   0.00    0.0
2019/01/19 00:42:00.000   47.480952631   19.056570142   182.0501   5   8   1.0744   1.0494   0.6595   1.1013   1.1013   1.1544   0.00    0.0
2019/01/19 00:42:30.000   47.480951063   19.056570515   182.1392   5   8   1.0734   1.0449   0.6608   1.0919   1.0919   1.1521   0.00    0.0
2019/01/19 00:43:00.000   47.480951720   19.056569149   182.2976   5   8   1.0722   1.0403   0.6621   1.0824   1.0824   1.1497   0.00    0.0
2019/01/19 00:43:30.000   47.480955526   19.056569174   182.7568   5   8   1.0711   1.0357   0.6634   1.0729   1.0729   1.1472   0.00    0.0
2019/01/19 00:44:00.000   47.480958423   19.056566980   182.7123   5   8   1.0699   1.0311   0.6646   1.0634   1.0634   1.1447   0.00    0.0
2019/01/19 00:44:30.000   47.480959780   19.056564158   182.3752   5   8   1.0687   1.0265   0.6659   1.0539   1.0539   1.1422   0.00    0.0
2019/01/19 00:45:00.000   47.480958662   19.056565622   182.2355   5   8   1.0675   1.0218   0.6672   1.0443   1.0443   1.1396   0.00    0.0
2019/01/19 00:45:30.000   47.480957864   19.056567505   182.2496   5   8   1.0663   1.0172   0.6685   1.0348   1.0348   1.1371   0.00    0.0
2019/01/19 00:46:00.000   47.480958179   19.056568020   182.4431   5   8   1.0651   1.0124   0.6698   1.0252   1.0252   1.1344   0.00    0.0
2019/01/19 00:46:30.000   47.480957905   19.056568673   182.5288   5   8   1.0639   1.0077   0.6711   1.0157   1.0157   1.1318   0.00    0.0
2019/01/19 00:47:00.000   47.480957712   19.056557627   180.6013   5   9   0.9394   0.7897   0.4056   0.6237   0.6237   0.8825   0.00    0.0
2019/01/19 00:47:30.000   47.480957180   19.056557387   180.6951   5   9   0.9396   0.7890   0.4085   0.6226   0.6226   0.8829   0.00    0.0
2019/01/19 00:48:00.000   47.480957204   19.056556655   180.6754   5   9   0.9398   0.7883   0.4114   0.6215   0.6215   0.8833   0.00    0.0
2019/01/19 00:48:30.000   47.480958439   19.056554742   180.7231   5   9   0.9400   0.7875   0.4143   0.6202   0.6202   0.8836   0.00    0.0
2019/01/19 00:49:00.000   47.480959225   19.056555107   180.6732   5   9   0.9402   0.7867   0.4172   0.6189   0.6189   0.8839   0.00    0.0
2019/01/19 00:49:30.000   47.480959573   19.056556868   180.8007   5   9   0.9403   0.7857   0.4201   0.6174   0.6174   0.8841   0.00    0.0
2019/01/19 00:50:00.000   47.480958359   19.056557877   180.7957   5   9   0.9404   0.7848   0.4230   0.6159   0.6159   0.8843   0.00    0.0
2019/01/19 00:50:30.000   47.480957609   19.056559357   180.9706   5   9   0.9405   0.7837   0.4259   0.6143   0.6143   0.8845   0.00    0.0
2019/01/19 00:51:00.000   47.480957801   19.056559671   180.9675   5   9   0.9405   0.7827   0.4287   0.6126   0.6126   0.8846   0.00    0.0
2019/01/19 00:51:30.000   47.480957475   19.056560602   181.0850   5   9   0.9406   0.7815   0.4316   0.6109   0.6109   0.8847   0.00    0.0
2019/01/19 00:52:00.000   47.480955675   19.056561770   180.9681   5   9   0.9406   0.7803   0.4344   0.6090   0.6090   0.8848   0.00    0.0
2019/01/19 00:52:30.000   47.480954606   19.056561221   180.8446   5   9   0.9406   0.7791   0.4373   0.6071   0.6071   0.8848   0.00    0.0
2019/01/19 00:53:00.000   47.480953955   19.056560315   180.7057   5   9   0.9406   0.7778   0.4401   0.6051   0.6051   0.8848   0.00    0.0
2019/01/19 00:53:30.000   47.480955011   19.056559576   180.4896   5   9   0.9406   0.7765   0.4429   0.6030   0.6030   0.8847   0.00    0.0
2019/01/19 00:54:00.000   47.480956249   19.056560177   180.3360   5   9   0.9405   0.7751   0.4457   0.6009   0.6009   0.8846   0.00    0.0
2019/01/19 00:54:30.000   47.480956798   19.056561424   180.2836   5   9   0.9404   0.7737   0.4485   0.5987   0.5987   0.8844   0.00    0.0
2019/01/19 00:55:00.000   47.480955952   19.056561345   180.2957   5   9   0.9404   0.7722   0.4513   0.5965   0.5965   0.8843   0.00    0.0
2019/01/19 00:55:30.000   47.480955200   19.056559835   180.1169   5   9   0.9402   0.7708   0.4540   0.5941   0.5941   0.8841   0.00    0.0
2019/01/19 00:56:00.000   47.480954797   19.056559732   180.1781   5   9   0.9401   0.7692   0.4568   0.5918   0.5918   0.8838   0.00    0.0
2019/01/19 00:56:30.000   47.480953481   19.056558897   180.3843   5   9   0.9400   0.7677   0.4595   0.5894   0.5894   0.8835   0.00    0.0
2019/01/19 00:57:00.000   47.480953245   19.056558082   180.2732   5   9   0.9398   0.7660   0.4622   0.5869   0.5869   0.8832   0.00    0.0
2019/01/19 00:57:30.000   47.480954055   19.056558136   179.9405   5   9   0.9396   0.7644   0.4649   0.5844   0.5844   0.8829   0.00    0.0
2019/01/19 00:58:00.000   47.480954577   19.056557477   179.6274   5   9   0.9394   0.7627   0.4676   0.5818   0.5818   0.8825   0.00    0.0
2019/01/19 00:58:30.000   47.480954212   19.056556464   179.1723   5   9   0.9392   0.7610   0.4703   0.5792   0.5792   0.8821   0.00    0.0
2019/01/19 00:59:00.000   47.480953862   19.056555150   178.9284   5   9   0.9390   0.7593   0.4729   0.5765   0.5765   0.8816   0.00    0.0
2019/01/19 00:59:30.000   47.480955684   19.056555256   178.6192   5   9   0.9387   0.7575   0.4755   0.5738   0.5738   0.8812   0.00    0.0
2019/01/19 01:00:00.000   47.480956966   19.056554769   178.9295   5   9   0.9384   0.7557   0.4781   0.5711   0.5711   0.8807   0.00    0.0
2019/01/19 01:00:30.000   47.480958712   19.056553285   179.3242   5   9   0.9382   0.7538   0.4807   0.5683   0.5683   0.8801   0.00    0.0
2019/01/19 01:01:00.000   47.480961005   19.056551893   179.2975   5   9   0.9379   0.7520   0.4833   0.5655   0.5655   0.8796   0.00    0.0
2019/01/19 01:01:30.000   47.480961989   19.056550455   179.2850   5   9   0.9376   0.7501   0.4858   0.5627   0.5627   0.8790   0.00    0.0
2019/01/19 01:02:00.000   47.480961930   19.056550361   179.3661   5   9   0.9372   0.7482   0.4883   0.5598   0.5598   0.8784   0.00    0.0
2019/01/19 01:02:30.000   47.480961086   19.056550212   179.4285   5   9   0.9369   0.7462   0.4909   0.5569   0.5569   0.8777   0.00    0.0
2019/01/19 01:03:00.000   47.480960588   19.056550741   179.6627   5   9   0.9365   0.7443   0.4933   0.5540   0.5540   0.8771   0.00    0.0
2019/01/19 01:03:30.000   47.480959763   19.056553116   180.0054   5   9   0.9361   0.7423   0.4958   0.5511   0.5511   0.8764   0.00    0.0
2019/01/19 01:04:00.000   47.480960360   19.056553246   180.2943   5   9   0.9358   0.7403   0.4982   0.5481   0.5481   0.8756   0.00    0.0
2019/01/19 01:04:30.000   47.480960188   19.056552956   180.6540   5   9   0.9354   0.7383   0.5006   0.5451   0.5451   0.8749   0.00    0.0
2019/01/19 01:05:00.000   47.480958942   19.056552218   180.7070   5   9   0.9349   0.7362   0.5030   0.5421   0.5421   0.8741   0.00    0.0
2019/01/19 01:05:30.000   47.480959111   19.056549845   180.5860   5   9   0.9345   0.7342   0.5054   0.5391   0.5391   0.8733   0.00    0.0
2019/01/19 01:06:00.000   47.480960192   19.056546498   180.4606   5   9   0.9341   0.7321   0.5077   0.5360   0.5360   0.8725   0.00    0.0
2019/01/19 01:06:30.000   47.480960682   19.056544475   180.3808   5   9   0.9336   0.7300   0.5101   0.5330   0.5330   0.8716   0.00    0.0
2019/01/19 01:07:00.000   47.480961744   19.056544475   180.4303   5   9   0.9331   0.7279   0.5124   0.5299   0.5299   0.8707   0.00    0.0
2019/01/19 01:07:30.000   47.480961799   19.056544406   180.5858   5   9   0.9326   0.7258   0.5146   0.5268   0.5268   0.8698   0.00    0.0
2019/01/19 01:08:00.000   47.480962678   19.056544893   180.4515   5   9   0.9321   0.7237   0.5169   0.5238   0.5238   0.8688   0.00    0.0
2019/01/19 01:08:30.000   47.480963961   19.056544168   180.0667   5   9   0.9316   0.7215   0.5191   0.5207   0.5207   0.8678   0.00    0.0
2019/01/19 01:09:00.000   47.480966142   19.056543147   179.8780   5   9   0.9310   0.7194   0.5213   0.5176   0.5176   0.8668   0.00    0.0
2019/01/19 01:09:30.000   47.480967474   19.056542991   179.6738   5   9   0.9305   0.7172   0.5234   0.5144   0.5144   0.8658   0.00    0.0
2019/01/19 01:10:00.000   47.480967773   19.056543740   179.5300   5   9   0.9299   0.7150   0.5256   0.5113   0.5113   0.8648   0.00    0.0
2019/01/19 01:10:30.000   47.480967576   19.056545627   179.4328   5   9   0.9294   0.7128   0.5277   0.5082   0.5082   0.8637   0.00    0.0
2019/01/19 01:11:00.000   47.480965954   19.056549085   179.5718   5   9   0.9288   0.7107   0.5298   0.5051   0.5051   0.8626   0.00    0.0
2019/01/19 01:11:30.000   47.480963968   19.056549873   179.5672   5   9   0.9282   0.7084   0.5318   0.5019   0.5019   0.8615   0.00    0.0
2019/01/19 01:12:00.000   47.480963276   19.056548654   179.3245   5   9   0.9275   0.7062   0.5339   0.4988   0.4988   0.8603   0.00    0.0
2019/01/19 01:12:30.000   47.480962310   19.056547738   178.9206   5   9   0.9269   0.7040   0.5359   0.4957   0.4957   0.8591   0.00    0.0
2019/01/19 01:13:00.000   47.480961396   19.056546625   178.9359   5   9   0.9262   0.7018   0.5379   0.4926   0.4926   0.8579   0.00    0.0
2019/01/19 01:13:30.000   47.480962037   19.056546952   178.9970   5   9   0.9256   0.6996   0.5398   0.4894   0.4894   0.8567   0.00    0.0
2019/01/19 01:14:00.000   47.480962568   19.056546574   179.2527   5   9   0.9249   0.6973   0.5417   0.4863   0.4863   0.8555   0.00    0.0
2019/01/19 01:14:30.000   47.480964755   19.056545067   179.3885   5   9   0.9242   0.6951   0.5436   0.4832   0.4832   0.8542   0.00    0.0
2019/01/19 01:15:00.000   47.480966473   19.056544716   179.5171   5   9   0.9235   0.6928   0.5455   0.4800   0.4800   0.8529   0.00    0.0
2019/01/19 01:15:30.000   47.480966997   19.056546111   179.6564   5   9   0.9228   0.6906   0.5473   0.4769   0.4769   0.8515   0.00    0.0
2019/01/19 01:16:00.000   47.480967266   19.056547889   179.7541   5   9   0.9221   0.6883   0.5491   0.4738   0.4738   0.8502   0.00    0.0
2019/01/19 01:16:30.000   47.480968648   19.056548611   179.7105   5   9   0.9213   0.6860   0.5509   0.4707   0.4707   0.8488   0.00    0.0
2019/01/19 01:17:00.000   47.480969251   19.056548248   179.8057   5   9   0.9205   0.6838   0.5527   0.4676   0.4676   0.8474   0.00    0.0
2019/01/19 01:17:30.000   47.480970706   19.056548946   179.7666   5   9   0.9198   0.6815   0.5544   0.4645   0.4645   0.8460   0.00    0.0
2019/01/19 01:18:00.000   47.480970845   19.056548463   179.7921   5   9   0.9190   0.6792   0.5561   0.4614   0.4614   0.8445   0.00    0.0
2019/01/19 01:18:30.000   47.480971183   19.056548438   179.7753   5   9   0.9182   0.6769   0.5577   0.4583   0.4583   0.8430   0.00    0.0
2019/01/19 01:19:00.000   47.480971412   19.056548755   179.6301   5   9   0.9174   0.6746   0.5594   0.4552   0.4552   0.8415   0.00    0.0
2019/01/19 01:19:30.000   47.480972218   19.056545934   179.5205   5   9   0.9165   0.6724   0.5610   0.4521   0.4521   0.8400   0.00    0.0
2019/01/19 01:20:00.000   47.480969622   19.056546489   179.3363   5  10   0.9134   0.6461   0.5756   0.4175   0.4175   0.8343   0.00    0.0
2019/01/19 01:20:30.000   47.480968529   19.056544672   179.3972   5  10   0.9129   0.6458   0.5762   0.4171   0.4171   0.8333   0.00    0.0
2019/01/19 01:21:00.000   47.480968065   19.056543309   179.5639   5  10   0.9123   0.6455   0.5769   0.4167   0.4167   0.8322   0.00    0.0
2019/01/19 01:21:30.000   47.480967458   19.056541799   179.7918   5  10   0.9116   0.6451   0.5775   0.4162   0.4162   0.8311   0.00    0.0
2019/01/19 01:22:00.000   47.480966723   19.056540506   179.8005   5  10   0.9110   0.6447   0.5780   0.4157   0.4157   0.8299   0.00    0.0
2019/01/19 01:22:30.000   47.480966222   19.056539348   179.8949   5  10   0.9103   0.6442   0.5785   0.4151   0.4151   0.8286   0.00    0.0
2019/01/19 01:23:00.000   47.480966270   19.056538192   179.8352   5  10   0.9095   0.6437   0.5790   0.4144   0.4144   0.8272   0.00    0.0
2019/01/19 01:23:30.000   47.480966650   19.056536408   179.7843   5  10   0.9087   0.6432   0.5794   0.4137   0.4137   0.8258   0.00    0.0
2019/01/19 01:24:00.000   47.480966787   19.056538298   179.8428   5  10   0.9079   0.6426   0.5798   0.4130   0.4130   0.8243   0.00    0.0
2019/01/19 01:24:30.000   47.480967951   19.056540648   179.7946   5  10   0.9071   0.6420   0.5802   0.4121   0.4121   0.8228   0.00    0.0
2019/01/19 01:25:00.000   47.480968711   19.056543456   179.6657   5  10   0.9062   0.6413   0.5805   0.4113   0.4113   0.8211   0.00    0.0
2019/01/19 01:25:30.000   47.480970307   19.056545345   179.2235   5  10   0.9052   0.6405   0.5807   0.4103   0.4103   0.8194   0.00    0.0
2019/01/19 01:26:00.000   47.480971041   19.056545549   178.8039   5  10   0.9042   0.6398   0.5810   0.4093   0.4093   0.8177   0.00    0.0
2019/01/19 01:26:30.000   47.480967306   19.056544270   179.4423   5   9   1.4209   0.8431   0.8282   0.7110   0.7110   2.0189   0.00    0.0
2019/01/19 01:27:00.000   47.480966493   19.056544860   179.5043   5   9   1.4223   0.8436   0.8317   0.7118   0.7118   2.0230   0.00    0.0
2019/01/19 01:27:30.000   47.480965748   19.056545728   179.5986   5   9   1.4237   0.8440   0.8351   0.7125   0.7125   2.0268   0.00    0.0
2019/01/19 01:28:00.000   47.480967306   19.056546495   179.5670   5   9   1.4249   0.8444   0.8385   0.7131   0.7131   2.0304   0.00    0.0
2019/01/19 01:28:30.000   47.480952107   19.056542094   177.9150   5   8   1.4268   0.8312   0.8398   0.6909   0.6909   2.0357   0.00    0.0
2019/01/19 01:29:00.000   47.480952542   19.056542176   178.0709   5   8   1.4277   0.8333   0.8433   0.6945   0.6945   2.0382   0.00    0.0
2019/01/19 01:29:30.000   47.480953226   19.056541349   178.0409   5   8   1.4285   0.8354   0.8467   0.6979   0.6979   2.0406   0.00    0.0
2019/01/19 01:30:00.000   47.480954212   19.056540986   177.9002   5   8   1.4293   0.8374   0.8501   0.7012   0.7012   2.0429   0.00    0.0
2019/01/19 01:30:30.000   47.480953770   19.056542472   177.8635   5   8   1.4300   0.8393   0.8535   0.7045   0.7045   2.0449   0.00    0.0
2019/01/19 01:31:00.000   47.480957366   19.056538356   177.0309   5   9   1.1594   0.6159   0.4779   0.3794   0.3794   1.3442   0.00    0.0
2019/01/19 01:31:30.000   47.480956716   19.056536661   177.0534   5   9   1.1593   0.6179   0.4807   0.3818   0.3818   1.3440   0.00    0.0
2019/01/19 01:32:00.000   47.480957768   19.056535701   177.0346   5   9   1.1592   0.6199   0.4834   0.3843   0.3843   1.3438   0.00    0.0
2019/01/19 01:32:30.000   47.480958905   19.056535295   177.0383   5   9   1.1591   0.6218   0.4861   0.3867   0.3867   1.3435   0.00    0.0
2019/01/19 01:33:00.000   47.480958204   19.056535755   177.2372   5   9   1.1590   0.6237   0.4888   0.3890   0.3890   1.3432   0.00    0.0
2019/01/19 01:33:30.000   47.480957879   19.056535594   177.0778   5   9   1.1588   0.6256   0.4914   0.3914   0.3914   1.3429   0.00    0.0
2019/01/19 01:34:00.000   47.480957031   19.056534292   176.8395   5   9   1.1587   0.6275   0.4941   0.3937   0.3937   1.3425   0.00    0.0
2019/01/19 01:34:30.000   47.480957113   19.056532341   176.6906   5   9   1.1585   0.6293   0.4967   0.3960   0.3960   1.3421   0.00    0.0
2019/01/19 01:35:00.000   47.480957584   19.056531587   176.5207   5   9   1.1583   0.6311   0.4993   0.3983   0.3983   1.3417   0.00    0.0
2019/01/19 01:35:30.000   47.480959754   19.056531037   176.2018   5   9   1.1581   0.6329   0.5019   0.4005   0.4005   1.3411   0.00    0.0
2019/01/19 01:36:00.000   47.480960387   19.056532220   176.1244   5   9   1.1578   0.6346   0.5045   0.4027   0.4027   1.3406   0.00    0.0
2019/01/19 01:36:30.000   47.480959937   19.056532964   176.4475   5   9   1.1576   0.6363   0.5070   0.4049   0.4049   1.3400   0.00    0.0
2019/01/19 01:37:00.000   47.480958596   19.056535052   176.6497   5   9   1.1573   0.6380   0.5096   0.4070   0.4070   1.3394   0.00    0.0
2019/01/19 01:37:30.000   47.480957420   19.056536106   176.7287   5   9   1.1570   0.6396   0.5121   0.4091   0.4091   1.3387   0.00    0.0
2019/01/19 01:38:00.000   47.480956764   19.056536076   176.5882   5   9   1.1567   0.6412   0.5146   0.4111   0.4111   1.3379   0.00    0.0
2019/01/19 01:38:30.000   47.480956886   19.056535372   176.3831   5   9   1.1564   0.6428   0.5170   0.4132   0.4132   1.3371   0.00    0.0
2019/01/19 01:39:00.000   47.480957101   19.056534668   176.3751   5   9   1.1560   0.6443   0.5195   0.4151   0.4151   1.3363   0.00    0.0
2019/01/19 01:39:30.000   47.480957747   19.056534184   176.2991   5   9   1.1556   0.6458   0.5219   0.4171   0.4171   1.3354   0.00    0.0
2019/01/19 01:40:00.000   47.480958498   19.056534134   176.3559   5   9   1.1552   0.6473   0.5243   0.4189   0.4189   1.3345   0.00    0.0
2019/01/19 01:40:30.000   47.480958000   19.056533654   176.3205   5   9   1.1548   0.6487   0.5267   0.4208   0.4208   1.3335   0.00    0.0
2019/01/19 01:41:00.000   47.480956864   19.056533447   176.2502   5   9   1.1543   0.6501   0.5290   0.4226   0.4226   1.3324   0.00    0.0
2019/01/19 01:41:30.000   47.480954874   19.056533876   176.5190   5   9   1.1538   0.6514   0.5314   0.4243   0.4243   1.3314   0.00    0.0
2019/01/19 01:42:00.000   47.480952974   19.056533769   176.7384   5   9   1.1533   0.6527   0.5337   0.4260   0.4260   1.3302   0.00    0.0
2019/01/19 01:42:30.000   47.480953350   19.056533518   176.6547   5   9   1.1528   0.6540   0.5360   0.4277   0.4277   1.3290   0.00    0.0
2019/01/19 01:43:00.000   47.480954095   19.056533078   176.5145   5   9   1.1523   0.6552   0.5383   0.4293   0.4293   1.3277   0.00    0.0
2019/01/19 01:43:30.000   47.480955203   19.056532385   176.2505   5   9   1.1517   0.6564   0.5405   0.4309   0.4309   1.3264   0.00    0.0
2019/01/19 01:44:00.000   47.480955528   19.056534124   176.2007   5   9   1.1511   0.6576   0.5428   0.4324   0.4324   1.3250   0.00    0.0
2019/01/19 01:44:30.000   47.480955196   19.056535882   176.2242   5   9   1.1505   0.6587   0.5450   0.4339   0.4339   1.3236   0.00    0.0
2019/01/19 01:45:00.000   47.480955234   19.056535687   176.2054   5   9   1.1498   0.6597   0.5472   0.4353   0.4353   1.3221   0.00    0.0
2019/01/19 01:45:30.000   47.480955880   19.056534802   176.1793   5   9   1.1492   0.6608   0.5493   0.4366   0.4366   1.3206   0.00    0.0
2019/01/19 01:46:00.000   47.480957854   19.056532516   175.9436   5   9   1.1485   0.6618   0.5515   0.4380   0.4380   1.3190   0.00    0.0
2019/01/19 01:46:30.000   47.480958269   19.056530733   175.7092   5   9   1.1477   0.6627   0.5536   0.4392   0.4392   1.3173   0.00    0.0
2019/01/19 01:47:00.000   47.480958158   19.056530483   175.8554   5   9   1.1470   0.6636   0.5557   0.4404   0.4404   1.3156   0.00    0.0
2019/01/19 01:47:30.000   47.480958410   19.056530031   175.8612   5   9   1.1462   0.6645   0.5578   0.4416   0.4416   1.3138   0.00    0.0
2019/01/19 01:48:00.000   47.480958750   19.056529884   175.8970   5   9   1.1454   0.6653   0.5598   0.4427   0.4427   1.3120   0.00    0.0
2019/01/19 01:48:30.000   47.480958095   19.056530098   175.8775   5   9   1.1446   0.6661   0.5618   0.4437   0.4437   1.3101   0.00    0.0
2019/01/19 01:49:00.000   47.480958111   19.056530903   175.6492   5   9   1.1438   0.6668   0.5639   0.4447   0.4447   1.3082   0.00    0.0
2019/01/19 01:49:30.000   47.480958060   19.056531006   175.4634   5   9   1.1429   0.6675   0.5658   0.4456   0.4456   1.3062   0.00    0.0
2019/01/19 01:50:00.000   47.480959673   19.056529609   175.2484   5   9   1.1420   0.6682   0.5678   0.4465   0.4465   1.3041   0.00    0.0
2019/01/19 01:50:30.000   47.480961072   19.056530396   175.2072   5   9   1.1410   0.6688   0.5697   0.4473   0.4473   1.3020   0.00    0.0
2019/01/19 01:51:00.000   47.480961167   19.056530566   175.1968   5   9   1.1401   0.6694   0.5716   0.4480   0.4480   1.2998   0.00    0.0
2019/01/19 01:51:30.000   47.480962122   19.056529002   175.0717   5   9   1.1391   0.6699   0.5735   0.4487   0.4487   1.2976   0.00    0.0
2019/01/19 01:52:00.000   47.480961309   19.056529044   175.1401   5   9   1.1381   0.6703   0.5754   0.4494   0.4494   1.2953   0.00    0.0
2019/01/19 01:52:30.000   47.480961333   19.056529771   175.2108   5   9   1.1371   0.6708   0.5772   0.4499   0.4499   1.2929   0.00    0.0
2019/01/19 01:53:00.000   47.480960930   19.056530078   175.4206   5  10   1.1360   0.6691   0.5794   0.4476   0.4476   1.2905   0.00    0.0
2019/01/19 01:53:30.000   47.480961046   19.056530351   175.3870   5  10   1.1349   0.6703   0.5811   0.4494   0.4494   1.2881   0.00    0.0
2019/01/19 01:54:00.000   47.480962868   19.056529389   175.3465   5  10   1.1338   0.6716   0.5827   0.4510   0.4510   1.2856   0.00    0.0
2019/01/19 01:54:30.000   47.480964352   19.056529284   175.3267   5  10   1.1327   0.6728   0.5842   0.4526   0.4526   1.2830   0.00    0.0
2019/01/19 01:55:00.000   47.480965698   19.056527890   175.2090   5  10   1.1315   0.6739   0.5858   0.4542   0.4542   1.2803   0.00    0.0
2019/01/19 01:55:30.000   47.480965425   19.056527517   175.1404   5  10   1.1303   0.6750   0.5873   0.4556   0.4556   1.2776   0.00    0.0
2019/01/19 01:56:00.000   47.480964426   19.056527279   175.1071   5  10   1.1291   0.6760   0.5888   0.4570   0.4570   1.2748   0.00    0.0
2019/01/19 01:56:30.000   47.480962763   19.056527412   175.1218   5  10   1.1278   0.6770   0.5903   0.4584   0.4584   1.2720   0.00    0.0
2019/01/19 01:57:00.000   47.480961767   19.056527993   175.3229   5  10   1.1265   0.6780   0.5917   0.4596   0.4596   1.2690   0.00    0.0
2019/01/19 01:57:30.000   47.480962086   19.056527597   175.4307   5  10   1.1252   0.6788   0.5931   0.4608   0.4608   1.2660   0.00    0.0
2019/01/19 01:58:00.000   47.480962215   19.056527906   175.8287   5  10   1.1238   0.6797   0.5945   0.4620   0.4620   1.2630   0.00    0.0
2019/01/19 01:58:30.000   47.480963001   19.056526371   176.0501   5  10   1.1224   0.6805   0.5958   0.4630   0.4630   1.2598   0.00    0.0
2019/01/19 01:59:00.000   47.480963089   19.056526448   176.1500   5  10   1.1210   0.6812   0.5972   0.4640   0.4640   1.2566   0.00    0.0
2019/01/19 01:59:30.000   47.480957850   19.056540453   178.3793   5  11   1.0507   0.5888   0.4566   0.3467   0.3467   1.1039   0.00    0.0
2019/01/19 02:00:00.000   47.480958101   19.056541141   178.2367   5  11   1.0492   0.5897   0.4579   0.3478   0.3478   1.1008   0.00    0.0
2019/01/19 02:00:30.000   47.480958107   19.056543348   178.0566   5  11   1.0477   0.5905   0.4591   0.3487   0.3487   1.0977   0.00    0.0
2019/01/19 02:01:00.000   47.480957154   19.056543943   178.0471   5  11   1.0462   0.5913   0.4603   0.3497   0.3497   1.0945   0.00    0.0
2019/01/19 02:01:30.000   47.480956298   19.056543678   177.9997   5  11   1.0447   0.5920   0.4615   0.3505   0.3505   1.0913   0.00    0.0
2019/01/19 02:02:00.000   47.480959235   19.056549611   177.0625   5  10   1.3407   0.7794   0.3658   0.6075   0.6075   1.7976   0.00    0.0
2019/01/19 02:02:30.000   47.480958576   19.056549029   177.1109   5  10   1.3384   0.7814   0.3691   0.6105   0.6105   1.7913   0.00    0.0
2019/01/19 02:03:00.000   47.480958983   19.056547196   176.9430   5  10   1.3360   0.7833   0.3724   0.6135   0.6135   1.7850   0.00    0.0
2019/01/19 02:03:30.000   47.480960126   19.056544570   176.7010   5  10   1.3336   0.7851   0.3756   0.6164   0.6164   1.7786   0.00    0.0
2019/01/19 02:04:00.000   47.480961140   19.056542632   176.5703   5  10   1.3312   0.7869   0.3787   0.6192   0.6192   1.7721   0.00    0.0
2019/01/19 02:04:30.000   47.480960220   19.056543887   176.6758   5  10   1.3287   0.7886   0.3818   0.6219   0.6219   1.7656   0.00    0.0
2019/01/19 02:05:00.000   47.480959069   19.056544765   177.0573   5  10   1.3262   0.7903   0.3849   0.6246   0.6246   1.7589   0.00    0.0
2019/01/19 02:05:30.000   47.480958494   19.056544629   177.4099   5  10   1.3237   0.7919   0.3879   0.6271   0.6271   1.7522   0.00    0.0
2019/01/19 02:06:00.000   47.480958774   19.056544481   177.5999   5  10   1.3211   0.7934   0.3908   0.6295   0.6295   1.7454   0.00    0.0
2019/01/19 02:06:30.000   47.480960650   19.056543388   177.1237   5  10   1.3186   0.7949   0.3937   0.6318   0.6318   1.7386   0.00    0.0
2019/01/19 02:07:00.000   47.480961818   19.056540435   176.4309   5  10   1.3159   0.7963   0.3965   0.6341   0.6341   1.7317   0.00    0.0
2019/01/19 02:07:30.000   47.480960253   19.056539352   176.1270   5  10   1.3133   0.7976   0.3993   0.6362   0.6362   1.7247   0.00    0.0
2019/01/19 02:08:00.000   47.480956732   19.056542262   176.6114   5  10   1.3106   0.7989   0.4021   0.6382   0.6382   1.7176   0.00    0.0
2019/01/19 02:08:30.000   47.480954095   19.056546671   177.2894   5  10   1.3079   0.8001   0.4048   0.6401   0.6401   1.7105   0.00    0.0
2019/01/19 02:09:00.000   47.480952577   19.056549069   177.9209   5  10   1.3051   0.8012   0.4075   0.6419   0.6419   1.7033   0.00    0.0
2019/01/19 02:09:30.000   47.480952401   19.056549041   178.0827   5  10   1.3023   0.8022   0.4101   0.6436   0.6436   1.6961   0.00    0.0
2019/01/19 02:10:00.000   47.480954925   19.056546011   177.5701   5  10   1.2995   0.8033   0.4126   0.6452   0.6452   1.6888   0.00    0.0
2019/01/19 02:10:30.000   47.480956728   19.056542826   177.0638   5  10   1.2967   0.8042   0.4152   0.6468   0.6468   1.6814   0.00    0.0
2019/01/19 02:11:00.000   47.480955948   19.056542563   177.0851   5  10   1.2938   0.8051   0.4176   0.6481   0.6481   1.6739   0.00    0.0
2019/01/19 02:11:30.000   47.480954013   19.056542906   177.2147   5  10   1.2909   0.8059   0.4201   0.6494   0.6494   1.6664   0.00    0.0
2019/01/19 02:12:00.000   47.480951816   19.056544342   177.7104   5  10   1.2880   0.8066   0.4225   0.6506   0.6506   1.6588   0.00    0.0
2019/01/19 02:12:30.000   47.480951476   19.056545077   177.8806   5  10   1.2850   0.8072   0.4248   0.6517   0.6517   1.6512   0.00    0.0
2019/01/19 02:13:00.000   47.480952759   19.056544120   177.7787   5  10   1.2820   0.8078   0.4271   0.6526   0.6526   1.6435   0.00    0.0
2019/01/19 02:13:30.000   47.480952781   19.056541052   177.1712   5  11   1.2789   0.8107   0.4316   0.6572   0.6572   1.6356   0.00    0.0
2019/01/19 02:14:00.000   47.480955352   19.056540146   176.6776   5  11   1.2758   0.8111   0.4338   0.6580   0.6580   1.6277   0.00    0.0
2019/01/19 02:14:30.000   47.480955597   19.056540399   176.4428   5  11   1.2727   0.8116   0.4360   0.6586   0.6586   1.6199   0.00    0.0
2019/01/19 02:15:00.000   47.480954440   19.056541180   176.4241   5  11   1.2696   0.8119   0.4382   0.6592   0.6592   1.6119   0.00    0.0
2019/01/19 02:15:30.000   47.480954055   19.056541486   176.3855   5  11   1.2665   0.8122   0.4403   0.6597   0.6597   1.6039   0.00    0.0
2019/01/19 02:16:00.000   47.480955084   19.056539538   176.1480   5  11   1.2633   0.8124   0.4424   0.6600   0.6600   1.5959   0.00    0.0
2019/01/19 02:16:30.000   47.480955577   19.056538426   176.0763   5  11   1.2601   0.8126   0.4445   0.6603   0.6603   1.5878   0.00    0.0
2019/01/19 02:17:00.000   47.480955561   19.056538917   176.0533   5  11   1.2568   0.8127   0.4465   0.6604   0.6604   1.5797   0.00    0.0
2019/01/19 02:17:30.000   47.480954989   19.056539252   176.1720   5  11   1.2536   0.8127   0.4485   0.6605   0.6605   1.5715   0.00    0.0
2019/01/19 02:18:00.000   47.480954058   19.056538903   175.8895   5  10   1.2505   0.8067   0.4494   0.6508   0.6508   1.5637   0.00    0.0
2019/01/19 02:18:30.000   47.480953871   19.056539027   175.5809   5  10   1.2470   0.8094   0.4518   0.6551   0.6551   1.5551   0.00    0.0
2019/01/19 02:19:00.000   47.480954707   19.056538809   175.1421   5  10   1.2436   0.8121   0.4542   0.6596   0.6596   1.5466   0.00    0.0
2019/01/19 02:19:30.000   47.480954292   19.056540456   174.9784   5  10   1.2403   0.8149   0.4567   0.6640   0.6640   1.5383   0.00    0.0
2019/01/19 02:20:00.000   47.480953982   19.056540692   174.9806   5  10   1.2370   0.8177   0.4591   0.6686   0.6686   1.5302   0.00    0.0
2019/01/19 02:20:30.000   47.480954491   19.056538968   175.1247   5  10   1.2338   0.8205   0.4616   0.6732   0.6732   1.5223   0.00    0.0
2019/01/19 02:21:00.000   47.480955558   19.056536623   175.3762   5  10   1.2306   0.8233   0.4640   0.6779   0.6779   1.5145   0.00    0.0
2019/01/19 02:21:30.000   47.480955734   19.056537258   175.6152   5  10   1.2275   0.8262   0.4665   0.6826   0.6826   1.5069   0.00    0.0
2019/01/19 02:22:00.000   47.480956320   19.056538729   175.9783   5  10   1.2245   0.8291   0.4690   0.6874   0.6874   1.4994   0.00    0.0
2019/01/19 02:22:30.000   47.480956202   19.056539729   176.5102   5  10   1.2215   0.8320   0.4715   0.6923   0.6923   1.4921   0.00    0.0
2019/01/19 02:23:00.000   47.480956050   19.056541243   177.0394   5  10   1.2186   0.8350   0.4740   0.6972   0.6972   1.4850   0.00    0.0
2019/01/19 02:23:30.000   47.480957007   19.056541234   177.3259   5  10   1.2157   0.8380   0.4765   0.7022   0.7022   1.4780   0.00    0.0
2019/01/19 02:24:00.000   47.480957688   19.056540154   177.2046   5  10   1.2129   0.8410   0.4791   0.7073   0.7073   1.4711   0.00    0.0
2019/01/19 02:24:30.000   47.480957787   19.056539551   176.9576   5  10   1.2101   0.8440   0.4816   0.7124   0.7124   1.4644   0.00    0.0
2019/01/19 02:25:00.000   47.480957324   19.056538902   176.5435   5  10   1.2074   0.8471   0.4842   0.7176   0.7176   1.4579   0.00    0.0
2019/01/19 02:25:30.000   47.480956686   19.056539157   176.2659   5  10   1.2048   0.8502   0.4868   0.7228   0.7228   1.4515   0.00    0.0
2019/01/19 02:26:00.000   47.480956521   19.056538970   175.8641   5  10   1.2022   0.8533   0.4894   0.7282   0.7282   1.4453   0.00    0.0
2019/01/19 02:26:30.000   47.480956283   19.056539075   175.6951   5  10   1.1996   0.8565   0.4920   0.7336   0.7336   1.4391   0.00    0.0
2019/01/19 02:27:00.000   47.480956056   19.056538343   175.5615   5  10   1.1972   0.8597   0.4946   0.7390   0.7390   1.4332   0.00    0.0
2019/01/19 02:27:30.000   47.480955753   19.056538067   175.8754   5  10   1.1947   0.8629   0.4973   0.7445   0.7445   1.4273   0.00    0.0
2019/01/19 02:28:00.000   47.480955520   19.056538832   176.2131   5  10   1.1923   0.8661   0.4999   0.7501   0.7501   1.4216   0.00    0.0
2019/01/19 02:28:30.000   47.480955638   19.056538799   176.3635   5  10   1.1900   0.8693   0.5026   0.7558   0.7558   1.4161   0.00    0.0
2019/01/19 02:29:00.000   47.480958358   19.056538306   175.4343   5  11   0.9367   0.7619   0.2751   0.5805   0.5805   0.8775   0.00    0.0
2019/01/19 02:29:30.000   47.480958895   19.056535970   174.6788   5  11   0.9370   0.7656   0.2793   0.5861   0.5861   0.8779   0.00    0.0
2019/01/19 02:30:00.000   47.480957361   19.056535112   174.6102   5  11   0.9372   0.7692   0.2835   0.5917   0.5917   0.8783   0.00    0.0
2019/01/19 02:30:30.000   47.480954909   19.056535903   174.9205   5  11   0.9374   0.7729   0.2876   0.5974   0.5974   0.8787   0.00    0.0
2019/01/19 02:31:00.000   47.480953680   19.056537279   175.4528   5  11   0.9376   0.7766   0.2917   0.6031   0.6031   0.8791   0.00    0.0
2019/01/19 02:31:30.000   47.480953547   19.056538770   176.0385   5  11   0.9378   0.7803   0.2958   0.6088   0.6088   0.8795   0.00    0.0
2019/01/19 02:32:00.000   47.480954227   19.056538629   176.4182   5  11   0.9381   0.7840   0.2999   0.6146   0.6146   0.8799   0.00    0.0
2019/01/19 02:32:30.000   47.480955989   19.056536888   176.1240   5  11   0.9383   0.7877   0.3039   0.6204   0.6204   0.8803   0.00    0.0
2019/01/19 02:33:00.000   47.480956397   19.056536073   175.7090   5  11   0.9385   0.7914   0.3079   0.6263   0.6263   0.8807   0.00    0.0
2019/01/19 02:33:30.000   47.480955642   19.056536296   175.4154   5  11   0.9387   0.7951   0.3119   0.6321   0.6321   0.8811   0.00    0.0
2019/01/19 02:34:00.000   47.480954376   19.056537063   175.3372   5  11   0.9389   0.7987   0.3159   0.6380   0.6380   0.8815   0.00    0.0
2019/01/19 02:34:30.000   47.480953779   19.056537335   175.6191   5  11   0.9391   0.8024   0.3199   0.6439   0.6439   0.8819   0.00    0.0
2019/01/19 02:35:00.000   47.480954273   19.056536707   175.6162   5  11   0.9393   0.8061   0.3238   0.6498   0.6498   0.8823   0.00    0.0
2019/01/19 02:35:30.000   47.480955483   19.056535553   175.5712   5  11   0.9395   0.8098   0.3277   0.6557   0.6557   0.8826   0.00    0.0
2019/01/19 02:36:00.000   47.480957062   19.056534892   175.5817   5  11   0.9397   0.8134   0.3317   0.6617   0.6617   0.8830   0.00    0.0
2019/01/19 02:36:30.000   47.480957623   19.056534897   175.8003   5  11   0.9399   0.8171   0.3355   0.6676   0.6676   0.8833   0.00    0.0
2019/01/19 02:37:00.000   47.480958059   19.056535058   175.7740   5  11   0.9400   0.8207   0.3394   0.6736   0.6736   0.8837   0.00    0.0
2019/01/19 02:37:30.000   47.480956344   19.056535348   175.9738   5  11   0.9402   0.8243   0.3433   0.6795   0.6795   0.8840   0.00    0.0
2019/01/19 02:38:00.000   47.480953108   19.056535783   175.9941   5  11   0.9404   0.8279   0.3471   0.6855   0.6855   0.8843   0.00    0.0
2019/01/19 02:38:30.000   47.480950284   19.056537198   175.9126   5  11   0.9405   0.8315   0.3509   0.6914   0.6914   0.8846   0.00    0.0
2019/01/19 02:39:00.000   47.480949450   19.056537823   175.6893   5  11   0.9407   0.8351   0.3547   0.6974   0.6974   0.8848   0.00    0.0
2019/01/19 02:39:30.000   47.480950905   19.056538304   175.4809   5  11   0.9408   0.8386   0.3585   0.7033   0.7033   0.8851   0.00    0.0
2019/01/19 02:40:00.000   47.480952579   19.056536960   175.3388   5  11   0.9409   0.8421   0.3623   0.7092   0.7092   0.8853   0.00    0.0
2019/01/19 02:40:30.000   47.480953175   19.056535400   175.4942   5  11   0.9410   0.8456   0.3660   0.7151   0.7151   0.8855   0.00    0.0
2019/01/19 02:41:00.000   47.480952733   19.056534133   175.8821   5  11   0.9411   0.8491   0.3697   0.7210   0.7210   0.8857   0.00    0.0
2019/01/19 02:41:30.000   47.480951780   19.056534449   176.2173   5  11   0.9412   0.8525   0.3734   0.7268   0.7268   0.8858   0.00    0.0
2019/01/19 02:42:00.000   47.480951286   19.056534585   176.2723   5  11   0.9412   0.8559   0.3771   0.7326   0.7326   0.8859   0.00    0.0
2019/01/19 02:42:30.000   47.480950898   19.056535388   175.8990   5  11   0.9413   0.8593   0.3807   0.7384   0.7384   0.8860   0.00    0.0
2019/01/19 02:43:00.000   47.480951745   19.056535161   175.4710   5  11   0.9413   0.8626   0.3844   0.7441   0.7441   0.8861   0.00    0.0
2019/01/19 02:43:30.000   47.480953751   19.056534893   175.0161   5  11   0.9413   0.8659   0.3879   0.7498   0.7498   0.8861   0.00    0.0
2019/01/19 02:44:00.000   47.480954447   19.056534689   175.0367   5  11   0.9413   0.8691   0.3915   0.7554   0.7554   0.8860   0.00    0.0
2019/01/19 02:44:30.000   47.480953391   19.056533572   175.0976   5  11   0.9412   0.8723   0.3950   0.7609   0.7609   0.8859   0.00    0.0
2019/01/19 02:45:00.000   47.480951008   19.056530975   175.0102   5  11   0.9412   0.8754   0.3985   0.7664   0.7664   0.8858   0.00    0.0
2019/01/19 02:45:30.000   47.480949459   19.056529556   174.8265   5  11   0.9411   0.8785   0.4020   0.7718   0.7718   0.8857   0.00    0.0
2019/01/19 02:46:00.000   47.480949061   19.056529599   174.8361   5  11   0.9410   0.8815   0.4055   0.7771   0.7771   0.8855   0.00    0.0
2019/01/19 02:46:30.000   47.480950228   19.056530534   175.0445   5  11   0.9409   0.8845   0.4089   0.7823   0.7823   0.8852   0.00    0.0
2019/01/19 02:47:00.000   47.480950975   19.056530017   175.1555   5  11   0.9407   0.8874   0.4123   0.7874   0.7874   0.8849   0.00    0.0
2019/01/19 02:47:30.000   47.480950625   19.056530246   175.4277   5  11   0.9405   0.8902   0.4156   0.7924   0.7924   0.8845   0.00    0.0
2019/01/19 02:48:00.000   47.480949190   19.056531253   175.4218   5  11   0.9403   0.8929   0.4189   0.7973   0.7973   0.8841   0.00    0.0
2019/01/19 02:48:30.000   47.480949319   19.056532332   175.5132   5  11   0.9400   0.8956   0.4222   0.8021   0.8021   0.8836   0.00    0.0
2019/01/19 02:49:00.000   47.480951028   19.056533550   175.4739   5  11   0.9397   0.8982   0.4254   0.8067   0.8067   0.8831   0.00    0.0
2019/01/19 02:49:30.000   47.480953197   19.056533262   175.2868   5  11   0.9394   0.9007   0.4286   0.8112   0.8112   0.8824   0.00    0.0
2019/01/19 02:50:00.000   47.480955456   19.056532113   175.1418   5  11   0.9390   0.9031   0.4317   0.8156   0.8156   0.8818   0.00    0.0
2019/01/19 02:50:30.000   47.480955483   19.056531302   175.4095   5  11   0.9386   0.9054   0.4348   0.8198   0.8198   0.8810   0.00    0.0
2019/01/19 02:51:00.000   47.480955351   19.056528682   175.5289   5  11   0.9382   0.9077   0.4379   0.8239   0.8239   0.8802   0.00    0.0
2019/01/19 02:51:30.000   47.480955861   19.056527365   175.8167   5  11   0.9377   0.9098   0.4409   0.8277   0.8277   0.8793   0.00    0.0
2019/01/19 02:52:00.000   47.480955857   19.056527191   175.9828   5  11   0.9372   0.9118   0.4439   0.8314   0.8314   0.8783   0.00    0.0
2019/01/19 02:52:30.000   47.480955117   19.056527929   176.0370   5  11   0.9366   0.9138   0.4468   0.8350   0.8350   0.8772   0.00    0.0
2019/01/19 02:53:00.000   47.480953820   19.056529086   176.2361   5  11   0.9360   0.9156   0.4496   0.8383   0.8383   0.8761   0.00    0.0
2019/01/19 02:53:30.000   47.480953274   19.056526848   175.9136   5  11   0.9353   0.9173   0.4525   0.8414   0.8414   0.8749   0.00    0.0
2019/01/19 02:54:00.000   47.480952470   19.056525325   175.8260   5  11   0.9346   0.9189   0.4552   0.8443   0.8443   0.8735   0.00    0.0
2019/01/19 02:54:30.000   47.480953055   19.056524795   175.7379   5  11   0.9339   0.9203   0.4579   0.8470   0.8470   0.8721   0.00    0.0
2019/01/19 02:55:00.000   47.480953734   19.056525176   175.9015   5  11   0.9331   0.9217   0.4605   0.8495   0.8495   0.8706   0.00    0.0
2019/01/19 02:55:30.000   47.480954501   19.056525858   176.2688   5  11   0.9322   0.9229   0.4631   0.8518   0.8518   0.8690   0.00    0.0
2019/01/19 02:56:00.000   47.480954215   19.056526327   176.6534   5  11   0.9313   0.9240   0.4656   0.8538   0.8538   0.8674   0.00    0.0
2019/01/19 02:56:30.000   47.480954182   19.056526279   176.5331   5  11   0.9304   0.9249   0.4681   0.8555   0.8555   0.8656   0.00    0.0
2019/01/19 02:57:00.000   47.480954982   19.056525938   176.2069   5  11   0.9294   0.9258   0.4704   0.8571   0.8571   0.8637   0.00    0.0
2019/01/19 02:57:30.000   47.480954519   19.056526182   176.3263   5  11   0.9283   0.9264   0.4728   0.8583   0.8583   0.8617   0.00    0.0
2019/01/19 02:58:00.000   47.480954079   19.056526933   176.2718   5  11   0.9272   0.9270   0.4750   0.8593   0.8593   0.8597   0.00    0.0
2019/01/19 02:58:30.000   47.480953977   19.056527925   176.3345   5  11   0.9260   0.9274   0.4772   0.8600   0.8600   0.8575   0.00    0.0
2019/01/19 02:59:00.000   47.480954544   19.056527030   176.3022   5  11   0.9248   0.9276   0.4793   0.8605   0.8605   0.8552   0.00    0.0
2019/01/19 02:59:30.000   47.480955495   19.056527660   176.5802   5  11   0.9235   0.9277   0.4813   0.8607   0.8607   0.8528   0.00    0.0
2019/01/19 03:00:00.000   47.480956142   19.056529206   176.7208   5  11   0.9221   0.9276   0.4833   0.8606   0.8606   0.8503   0.00    0.0
2019/01/19 03:00:30.000   47.480955842   19.056529930   176.7160   5  11   0.9207   0.9274   0.4851   0.8602   0.8602   0.8478   0.00    0.0
2019/01/19 03:01:00.000   47.480955551   19.056530402   176.9334   5  11   0.9193   0.9271   0.4870   0.8595   0.8595   0.8451   0.00    0.0
2019/01/19 03:01:30.000   47.480955332   19.056529124   177.2902   5  11   0.9178   0.9266   0.4887   0.8585   0.8585   0.8423   0.00    0.0
2019/01/19 03:02:00.000   47.480955429   19.056526841   177.6840   5  11   0.9162   0.9259   0.4903   0.8573   0.8573   0.8394   0.00    0.0
2019/01/19 03:02:30.000   47.480955356   19.056525427   177.9099   5  11   0.9146   0.9250   0.4919   0.8557   0.8557   0.8364   0.00    0.0
2019/01/19 03:03:00.000   47.480954851   19.056524412   178.0645   5  11   0.9129   0.9240   0.4934   0.8539   0.8539   0.8334   0.00    0.0
2019/01/19 03:03:30.000   47.480953731   19.056523744   177.9358   5  11   0.9112   0.9229   0.4949   0.8517   0.8517   0.8302   0.00    0.0
2019/01/19 03:04:00.000   47.480954101   19.056521977   177.8339   5  11   0.9094   0.9215   0.4962   0.8493   0.8493   0.8269   0.00    0.0
2019/01/19 03:04:30.000   47.480954372   19.056521248   177.9179   5  11   0.9075   0.9200   0.4975   0.8465   0.8465   0.8236   0.00    0.0
2019/01/19 03:05:00.000   47.480953823   19.056520599   178.1730   5  11   0.9056   0.9184   0.4987   0.8435   0.8435   0.8201   0.00    0.0
2019/01/19 03:05:30.000   47.480953830   19.056519798   178.2702   5  11   0.9037   0.9166   0.4998   0.8402   0.8402   0.8166   0.00    0.0
2019/01/19 03:06:00.000   47.480954513   19.056518471   178.9117   5  11   0.9017   0.9146   0.5008   0.8366   0.8366   0.8130   0.00    0.0
2019/01/19 03:06:30.000   47.480956481   19.056517358   179.5441   5  11   0.8996   0.9125   0.5018   0.8327   0.8327   0.8093   0.00    0.0
2019/01/19 03:07:00.000   47.480957080   19.056516259   179.6640   5  11   0.8975   0.9102   0.5027   0.8285   0.8285   0.8055   0.00    0.0
2019/01/19 03:07:30.000   47.480966779   19.056526314   182.2729   5  12   0.8429   0.7175   0.3889   0.5149   0.5149   0.7105   0.00    0.0
2019/01/19 03:08:00.000   47.480965471   19.056527257   182.4007   5  12   0.8415   0.7166   0.3906   0.5136   0.5136   0.7082   0.00    0.0
2019/01/19 03:08:30.000   47.480964733   19.056530041   182.0440   5  11   1.1758   0.9616   0.2882   0.9249   0.9249   1.3826   0.00    0.0
2019/01/19 03:09:00.000   47.480965048   19.056529840   181.9539   5  11   1.1755   0.9630   0.2931   0.9274   0.9274   1.3819   0.00    0.0
2019/01/19 03:09:30.000   47.480966827   19.056527518   181.7176   5  11   1.1751   0.9642   0.2978   0.9298   0.9298   1.3810   0.00    0.0
2019/01/19 03:10:00.000   47.480966824   19.056526153   181.6392   5  11   1.1747   0.9653   0.3025   0.9319   0.9319   1.3799   0.00    0.0
2019/01/19 03:10:30.000   47.480966905   19.056526856   181.4492   5  11   1.1742   0.9663   0.3070   0.9339   0.9339   1.3787   0.00    0.0
2019/01/19 03:11:00.000   47.480967298   19.056526935   181.4771   5  11   1.1736   0.9672   0.3115   0.9356   0.9356   1.3774   0.00    0.0
2019/01/19 03:11:30.000   47.480968118   19.056526624   181.6957   5  11   1.1730   0.9680   0.3159   0.9372   0.9372   1.3760   0.00    0.0
2019/01/19 03:12:00.000   47.480968315   19.056526700   181.5621   5  11   1.1723   0.9687   0.3203   0.9385   0.9385   1.3744   0.00    0.0
2019/01/19 03:12:30.000   47.480967926   19.056526925   181.4261   5  11   1.1716   0.9692   0.3245   0.9396   0.9396   1.3726   0.00    0.0
2019/01/19 03:13:00.000   47.480966572   19.056526952   181.5148   5  11   1.1708   0.9697   0.3287   0.9404   0.9404   1.3707   0.00    0.0
2019/01/19 03:13:30.000   47.480965519   19.056527953   181.7377   5  11   1.1699   0.9700   0.3327   0.9411   0.9411   1.3687   0.00    0.0
2019/01/19 03:14:00.000   47.480965881   19.056529536   181.7887   5  11   1.1690   0.9702   0.3368   0.9415   0.9415   1.3665   0.00    0.0
2019/01/19 03:14:30.000   47.480966121   19.056530016   181.6505   5  11   1.1680   0.9704   0.3407   0.9418   0.9418   1.3642   0.00    0.0
2019/01/19 03:15:00.000   47.480965465   19.056530180   181.5868   5  11   1.1669   0.9703   0.3446   0.9417   0.9417   1.3618   0.00    0.0
2019/01/19 03:15:30.000   47.480964365   19.056529574   181.4911   5  11   1.1658   0.9702   0.3483   0.9415   0.9415   1.3591   0.00    0.0
2019/01/19 03:16:00.000   47.480963780   19.056529324   181.4523   5  11   1.1646   0.9700   0.3520   0.9410   0.9410   1.3564   0.00    0.0
2019/01/19 03:16:30.000   47.480964326   19.056529980   180.9078   5  11   1.1634   0.9696   0.3557   0.9403   0.9403   1.3535   0.00    0.0
2019/01/19 03:17:00.000   47.480966342   19.056529336   180.2335   5  11   1.1621   0.9692   0.3592   0.9394   0.9394   1.3505   0.00    0.0
2019/01/19 03:17:30.000   47.480967707   19.056529181   179.8445   5  11   1.1607   0.9686   0.3627   0.9383   0.9383   1.3473   0.00    0.0
2019/01/19 03:18:00.000   47.480966782   19.056529824   179.9836   5  11   1.1593   0.9679   0.3662   0.9369   0.9369   1.3440   0.00    0.0
2019/01/19 03:18:30.000   47.480965653   19.056530491   180.3612   5  11   1.1578   0.9670   0.3695   0.9353   0.9353   1.3406   0.00    0.0
2019/01/19 03:19:00.000   47.480964976   19.056530713   180.7452   5  11   1.1563   0.9661   0.3728   0.9335   0.9335   1.3370   0.00    0.0
2019/01/19 03:19:30.000   47.480967056   19.056531146   180.8494   5  11   1.1547   0.9650   0.3761   0.9314   0.9314   1.3333   0.00    0.0
2019/01/19 03:20:00.000   47.480968148   19.056530857   180.9962   5  11   1.1530   0.9638   0.3792   0.9291   0.9291   1.3295   0.00    0.0
2019/01/19 03:20:30.000   47.480967760   19.056530157   181.4525   5  11   1.1513   0.9625   0.3823   0.9266   0.9266   1.3255   0.00    0.0
2019/01/19 03:21:00.000   47.480966330   19.056529223   181.7146   5  11   1.1495   0.9611   0.3853   0.9239   0.9239   1.3214   0.00    0.0
2019/01/19 03:21:30.000   47.480964665   19.056528787   181.8932   5  11   1.1477   0.9596   0.3883   0.9210   0.9210   1.3172   0.00    0.0
2019/01/19 03:22:00.000   47.480963915   19.056528748   181.9189   5  11   1.1458   0.9579   0.3912   0.9178   0.9178   1.3129   0.00    0.0
2019/01/19 03:22:30.000   47.480964342   19.056529921   181.8988   5  11   1.1439   0.9562   0.3941   0.9145   0.9145   1.3085   0.00    0.0
2019/01/19 03:23:00.000   47.480964796   19.056530957   181.5122   5  11   1.1419   0.9543   0.3968   0.9109   0.9109   1.3039   0.00    0.0
2019/01/19 03:23:30.000   47.480964709   19.056530002   180.9817   5  11   1.1399   0.9524   0.3995   0.9072   0.9072   1.2993   0.00    0.0
2019/01/19 03:24:00.000   47.480964980   19.056529174   180.9160   5  11   1.1378   0.9503   0.4022   0.9032   0.9032   1.2945   0.00    0.0
2019/01/19 03:24:30.000   47.480965489   19.056528279   181.2072   5  11   1.1356   0.9481   0.4048   0.8990   0.8990   1.2897   0.00    0.0
2019/01/19 03:25:00.000   47.480966253   19.056528460   181.3758   5  11   1.1335   0.9458   0.4073   0.8947   0.8947   1.2848   0.00    0.0
2019/01/19 03:25:30.000   47.480966027   19.056528776   181.7592   5  11   1.1312   0.9434   0.4098   0.8902   0.8902   1.2797   0.00    0.0
2019/01/19 03:26:00.000   47.480967441   19.056529479   181.8249   5  11   1.1290   0.9409   0.4122   0.8854   0.8854   1.2746   0.00    0.0
2019/01/19 03:26:30.000   47.480969075   19.056529219   181.5183   5  11   1.1267   0.9383   0.4146   0.8806   0.8806   1.2694   0.00    0.0
2019/01/19 03:27:00.000   47.480968425   19.056529750   181.6259   5  11   1.1243   0.9356   0.4169   0.8755   0.8755   1.2641   0.00    0.0
2019/01/19 03:27:30.000   47.480967347   19.056529391   181.9902   5  11   1.1219   0.9328   0.4192   0.8703   0.8703   1.2587   0.00    0.0
2019/01/19 03:28:00.000   47.480966360   19.056531179   182.4464   5  11   1.1195   0.9299   0.4214   0.8649   0.8649   1.2533   0.00    0.0
2019/01/19 03:28:30.000   47.480966241   19.056533940   182.6621   5  11   1.1170   0.9269   0.4235   0.8593   0.8593   1.2478   0.00    0.0
2019/01/19 03:29:00.000   47.480966815   19.056534316   182.7757   5  11   1.1145   0.9238   0.4256   0.8537   0.8537   1.2422   0.00    0.0
2019/01/19 03:29:30.000   47.480967814   19.056532573   182.7096   5  11   1.1120   0.9207   0.4277   0.8478   0.8478   1.2366   0.00    0.0
