% program   : GINA 1.0
% inp file  : C:\Users\lus2bp\Source\Repos\GINA\70_EGNOS_Project\files\PositionComparisonInputFiles\bute0190\bute0190.19o
% inp file  : C:\Users\lus2bp\Source\Repos\GINA\70_EGNOS_Project\files\PositionComparisonInputFiles\bute0190\brdc0190.19n
% obs start : 2019/01/19 00:00:00.0 GPST (week2036 518400.0s)
% obs end   : 2019/01/19 23:59:30.0 GPST (week2036 604770.0s)
% pos mode  : single
% elev mask : 10.0 deg
% ionos opt : ems
% tropo opt : Neill
% ephemeris : broadcasted
% (lat/lon/height=WGS84/ellipsoidal,Q=1:fix,2:float,3:sbas,4:dgps,5:single,6:ppp,ns=# of satellites)
%  GPST                  latitude(deg) longitude(deg)  height(m)   Q  ns   sdn(m)   sde(m)   sdu(m)  sdne(m)  sdeu(m)  sdun(m) age(s)  ratio
2019/01/19 00:00:00.000   47.480967749   19.056569186   184.5661   5   8   1.2716   1.3180   0.8544   1.0729  -0.6494  -0.6409   0.00    0.0
2019/01/19 00:00:30.000   47.480969507   19.056569021   184.5424   5   8   1.2781   1.3231   0.8572   1.0897  -0.6552  -0.6499   0.00    0.0
2019/01/19 00:01:00.000   47.480971187   19.056569844   184.7893   5   8   1.2846   1.3281   0.8601   1.1064  -0.6610  -0.6589   0.00    0.0
2019/01/19 00:01:30.000   47.480971318   19.056571804   184.7934   5   8   1.2910   1.3330   0.8629   1.1230  -0.6666  -0.6678   0.00    0.0
2019/01/19 00:02:00.000   47.480971765   19.056570889   184.9064   5   8   1.2975   1.3377   0.8657   1.1395  -0.6722  -0.6768   0.00    0.0
2019/01/19 00:02:30.000   47.480972602   19.056569806   185.6220   5   8   1.3039   1.3424   0.8686   1.1558  -0.6777  -0.6858   0.00    0.0
2019/01/19 00:03:00.000   47.480972687   19.056568535   185.7526   5   8   1.3103   1.3470   0.8714   1.1721  -0.6832  -0.6947   0.00    0.0
2019/01/19 00:03:30.000   47.480973247   19.056564255   185.4685   5   8   1.3167   1.3515   0.8742   1.1882  -0.6885  -0.7036   0.00    0.0
2019/01/19 00:04:00.000   47.480973035   19.056561493   185.3199   5   8   1.3230   1.3558   0.8769   1.2041  -0.6937  -0.7125   0.00    0.0
2019/01/19 00:04:30.000   47.480972380   19.056562242   185.2867   5   8   1.3293   1.3600   0.8797   1.2198  -0.6988  -0.7213   0.00    0.0
2019/01/19 00:05:00.000   47.480970717   19.056561422   185.2707   5   8   1.3356   1.3641   0.8824   1.2353  -0.7037  -0.7301   0.00    0.0
2019/01/19 00:05:30.000   47.480968583   19.056563817   185.4893   5   8   1.3418   1.3681   0.8852   1.2506  -0.7086  -0.7388   0.00    0.0
2019/01/19 00:06:00.000   47.480967486   19.056566230   185.8412   5   8   1.3479   1.3718   0.8879   1.2656  -0.7132  -0.7474   0.00    0.0
2019/01/19 00:06:30.000   47.480967032   19.056566850   185.9199   5   8   1.3539   1.3755   0.8905   1.2803  -0.7178  -0.7560   0.00    0.0
2019/01/19 00:07:00.000   47.480967652   19.056567224   185.7170   5   8   1.3599   1.3790   0.8932   1.2947  -0.7221  -0.7644   0.00    0.0
2019/01/19 00:07:30.000   47.480968917   19.056564750   185.7055   5   8   1.3658   1.3823   0.8958   1.3088  -0.7263  -0.7728   0.00    0.0
2019/01/19 00:08:00.000   47.480969472   19.056562423   185.7124   5   8   1.3716   1.3854   0.8984   1.3225  -0.7302  -0.7810   0.00    0.0
2019/01/19 00:08:30.000   47.480968908   19.056562956   185.8061   5   8   1.3773   1.3884   0.9009   1.3359  -0.7340  -0.7892   0.00    0.0
2019/01/19 00:09:00.000   47.480968330   19.056562922   185.8762   5   8   1.3829   1.3911   0.9034   1.3489  -0.7376  -0.7971   0.00    0.0
2019/01/19 00:09:30.000   47.480967889   19.056563483   186.1823   5   8   1.3884   1.3937   0.9059   1.3614  -0.7410  -0.8050   0.00    0.0
2019/01/19 00:10:00.000   47.480967493   19.056564840   186.5142   5   8   1.3937   1.3961   0.9084   1.3735  -0.7441  -0.8127   0.00    0.0
2019/01/19 00:10:30.000   47.480968543   19.056564384   186.7077   5   8   1.3990   1.3983   0.9108   1.3852  -0.7470  -0.8202   0.00    0.0
2019/01/19 00:11:00.000   47.480969546   19.056562653   186.3716   5   8   1.4041   1.4003   0.9131   1.3964  -0.7497  -0.8276   0.00    0.0
2019/01/19 00:11:30.000   47.480969682   19.056563078   185.9109   5   8   1.4090   1.4020   0.9154   1.4071  -0.7521  -0.8348   0.00    0.0
2019/01/19 00:12:00.000   47.480969731   19.056564946   185.8144   5   8   1.4139   1.4036   0.9177   1.4173  -0.7542  -0.8418   0.00    0.0
2019/01/19 00:12:30.000   47.480969585   19.056565589   185.6177   5   8   1.4185   1.4049   0.9199   1.4269  -0.7561  -0.8486   0.00    0.0
2019/01/19 00:13:00.000   47.480969698   19.056567176   185.4381   5   8   1.4230   1.4061   0.9221   1.4360  -0.7577  -0.8552   0.00    0.0
2019/01/19 00:13:30.000   47.480968926   19.056571138   185.6451   5   8   1.4274   1.4069   0.9242   1.4446  -0.7591  -0.8616   0.00    0.0
2019/01/19 00:14:00.000   47.480969113   19.056572494   185.7923   5   8   1.4316   1.4076   0.9263   1.4525  -0.7602  -0.8678   0.00    0.0
2019/01/19 00:14:30.000   47.480970070   19.056572812   185.8434   5   8   1.4356   1.4080   0.9283   1.4599  -0.7609  -0.8737   0.00    0.0
2019/01/19 00:15:00.000   47.480970440   19.056572373   185.7401   5   8   1.4394   1.4082   0.9303   1.4666  -0.7614  -0.8794   0.00    0.0
2019/01/19 00:15:30.000   47.480969872   19.056570307   185.4713   5   8   1.4430   1.4082   0.9322   1.4728  -0.7616  -0.8849   0.00    0.0
2019/01/19 00:16:00.000   47.480970091   19.056568539   185.3170   5   8   1.4465   1.4079   0.9341   1.4783  -0.7615  -0.8901   0.00    0.0
2019/01/19 00:16:30.000   47.480970325   19.056566901   184.5948   5   8   1.4498   1.4074   0.9359   1.4831  -0.7611  -0.8951   0.00    0.0
2019/01/19 00:17:00.000   47.480968744   19.056568622   184.1214   5   8   1.4528   1.4066   0.9376   1.4873  -0.7603  -0.8998   0.00    0.0
2019/01/19 00:17:30.000   47.480967592   19.056568277   184.0575   5   8   1.4557   1.4056   0.9393   1.4909  -0.7593  -0.9042   0.00    0.0
2019/01/19 00:18:00.000   47.480967072   19.056568383   184.0795   5   8   1.4584   1.4044   0.9410   1.4938  -0.7580  -0.9084   0.00    0.0
2019/01/19 00:18:30.000   47.480966428   19.056569580   184.1548   5   8   1.4609   1.4029   0.9426   1.4960  -0.7563  -0.9123   0.00    0.0
2019/01/19 00:19:00.000   47.480964920   19.056569655   184.2867   5   8   1.4631   1.4012   0.9441   1.4976  -0.7544  -0.9160   0.00    0.0
2019/01/19 00:19:30.000   47.480964259   19.056567731   184.2660   5   8   1.4652   1.3993   0.9456   1.4985  -0.7522  -0.9193   0.00    0.0
2019/01/19 00:20:00.000   47.480964086   19.056566865   184.1793   5   8   1.4671   1.3971   0.9470   1.4987  -0.7496  -0.9224   0.00    0.0
2019/01/19 00:20:30.000   47.480964337   19.056566180   184.0447   5   8   1.4687   1.3947   0.9484   1.4983  -0.7468  -0.9253   0.00    0.0
2019/01/19 00:21:00.000   47.480963873   19.056566403   184.0558   5   8   1.4702   1.3921   0.9497   1.4972  -0.7436  -0.9278   0.00    0.0
2019/01/19 00:21:30.000   47.480962236   19.056568532   184.4523   5   8   1.4714   1.3892   0.9510   1.4955  -0.7402  -0.9301   0.00    0.0
2019/01/19 00:22:00.000   47.480961198   19.056569758   184.7678   5   8   1.4724   1.3861   0.9522   1.4931  -0.7365  -0.9322   0.00    0.0
2019/01/19 00:22:30.000   47.480960755   19.056571482   184.8171   5   8   1.4733   1.3828   0.9534   1.4901  -0.7325  -0.9339   0.00    0.0
2019/01/19 00:23:00.000   47.480961682   19.056569737   184.5772   5   8   1.4739   1.3793   0.9545   1.4865  -0.7282  -0.9354   0.00    0.0
2019/01/19 00:23:30.000   47.480962297   19.056567548   184.2439   5   8   1.4743   1.3756   0.9556   1.4822  -0.7236  -0.9366   0.00    0.0
2019/01/19 00:24:00.000   47.480962470   19.056566892   184.1567   5   8   1.4746   1.3716   0.9566   1.4773  -0.7188  -0.9376   0.00    0.0
2019/01/19 00:24:30.000   47.480961876   19.056567290   184.0689   5   8   1.4746   1.3675   0.9576   1.4719  -0.7137  -0.9383   0.00    0.0
2019/01/19 00:25:00.000   47.480960745   19.056570331   184.2203   5   8   1.4744   1.3632   0.9586   1.4659  -0.7084  -0.9388   0.00    0.0
2019/01/19 00:25:30.000   47.480960189   19.056573197   184.4503   5   8   1.4740   1.3587   0.9595   1.4593  -0.7028  -0.9391   0.00    0.0
2019/01/19 00:26:00.000   47.480959393   19.056573559   184.4050   5   8   1.4735   1.3540   0.9604   1.4522  -0.6970  -0.9391   0.00    0.0
2019/01/19 00:26:30.000   47.480959168   19.056570841   184.0393   5   8   1.4727   1.3492   0.9612   1.4445  -0.6910  -0.9389   0.00    0.0
2019/01/19 00:27:00.000   47.480958728   19.056567917   183.8697   5   8   1.4718   1.3441   0.9620   1.4364  -0.6848  -0.9384   0.00    0.0
2019/01/19 00:27:30.000   47.480958609   19.056567134   183.9600   5   8   1.4707   1.3390   0.9628   1.4277  -0.6783  -0.9378   0.00    0.0
2019/01/19 00:28:00.000   47.480959646   19.056565263   183.9066   5   8   1.4695   1.3336   0.9635   1.4186  -0.6717  -0.9369   0.00    0.0
2019/01/19 00:28:30.000   47.480960177   19.056564435   183.7738   5   8   1.4680   1.3281   0.9643   1.4090  -0.6648  -0.9358   0.00    0.0
2019/01/19 00:29:00.000   47.480961075   19.056562956   183.4281   5   8   1.4664   1.3225   0.9649   1.3990  -0.6578  -0.9346   0.00    0.0
2019/01/19 00:29:30.000   47.480962331   19.056563685   183.2839   5   8   1.4647   1.3167   0.9656   1.3885  -0.6506  -0.9331   0.00    0.0
2019/01/19 00:30:00.000   47.480963180   19.056564732   183.1393   5   8   1.4627   1.3108   0.9663   1.3777  -0.6433  -0.9315   0.00    0.0
2019/01/19 00:30:30.000   47.480962167   19.056566928   183.1038   5   8   1.4607   1.3048   0.9669   1.3665  -0.6358  -0.9297   0.00    0.0
2019/01/19 00:31:00.000   47.480960172   19.056569484   183.2915   5   8   1.4585   1.2987   0.9675   1.3550  -0.6282  -0.9278   0.00    0.0
2019/01/19 00:31:30.000   47.480960900   19.056565375   183.1330   5   8   1.4561   1.2925   0.9681   1.3431  -0.6204  -0.9257   0.00    0.0
2019/01/19 00:32:00.000   47.480959110   19.056565235   183.0187   5   8   1.4536   1.2861   0.9687   1.3309  -0.6125  -0.9234   0.00    0.0
2019/01/19 00:32:30.000   47.480956096   19.056567223   182.7891   5   8   1.4510   1.2797   0.9693   1.3184  -0.6045  -0.9210   0.00    0.0
2019/01/19 00:33:00.000   47.480953746   19.056569169   182.7001   5   8   1.4483   1.2732   0.9699   1.3057  -0.5964  -0.9185   0.00    0.0
2019/01/19 00:33:30.000   47.480952959   19.056570978   182.8634   5   8   1.4454   1.2666   0.9705   1.2927  -0.5882  -0.9159   0.00    0.0
2019/01/19 00:34:00.000   47.480953187   19.056571925   183.0023   5   8   1.4424   1.2600   0.9710   1.2794  -0.5800  -0.9132   0.00    0.0
2019/01/19 00:34:30.000   47.480954656   19.056569619   182.8311   5   8   1.4394   1.2533   0.9716   1.2660  -0.5716  -0.9104   0.00    0.0
2019/01/19 00:35:00.000   47.480955007   19.056568890   183.0154   5   8   1.4362   1.2465   0.9721   1.2523  -0.5632  -0.9074   0.00    0.0
2019/01/19 00:35:30.000   47.480954672   19.056567960   182.9551   5   8   1.4329   1.2397   0.9727   1.2385  -0.5547  -0.9044   0.00    0.0
2019/01/19 00:36:00.000   47.480954210   19.056566469   182.6861   5   8   1.4295   1.2328   0.9733   1.2245  -0.5461  -0.9013   0.00    0.0
2019/01/19 00:36:30.000   47.480953998   19.056564830   182.4659   5   8   1.4261   1.2259   0.9739   1.2104  -0.5375  -0.8982   0.00    0.0
2019/01/19 00:37:00.000   47.480953599   19.056563914   182.4030   5   8   1.4226   1.2189   0.9744   1.1961  -0.5289  -0.8949   0.00    0.0
2019/01/19 00:37:30.000   47.480953379   19.056563405   182.4321   5   8   1.4189   1.2119   0.9750   1.1818  -0.5202  -0.8916   0.00    0.0
2019/01/19 00:38:00.000   47.480953159   19.056566067   182.6111   5   8   1.4153   1.2049   0.9757   1.1673  -0.5115  -0.8883   0.00    0.0
2019/01/19 00:38:30.000   47.480954342   19.056567643   182.7367   5   8   1.4115   1.1979   0.9763   1.1528  -0.5028  -0.8849   0.00    0.0
2019/01/19 00:39:00.000   47.480954487   19.056567709   182.7892   5   8   1.4077   1.1909   0.9769   1.1382  -0.4940  -0.8815   0.00    0.0
2019/01/19 00:39:30.000   47.480953536   19.056566887   182.6921   5   8   1.4038   1.1838   0.9775   1.1236  -0.4853  -0.8781   0.00    0.0
2019/01/19 00:40:00.000   47.480954174   19.056564298   182.4667   5   8   1.3999   1.1768   0.9782   1.1089  -0.4765  -0.8746   0.00    0.0
2019/01/19 00:40:30.000   47.480954171   19.056564838   182.5377   5   8   1.3959   1.1698   0.9789   1.0942  -0.4678  -0.8711   0.00    0.0
2019/01/19 00:41:00.000   47.480953908   19.056568413   182.5957   5   8   1.3919   1.1627   0.9796   1.0795  -0.4591  -0.8676   0.00    0.0
2019/01/19 00:41:30.000   47.480954392   19.056568740   182.1514   5   8   1.3879   1.1557   0.9803   1.0648  -0.4503  -0.8641   0.00    0.0
2019/01/19 00:42:00.000   47.480952389   19.056570089   182.0059   5   8   1.3838   1.1487   0.9811   1.0501  -0.4416  -0.8605   0.00    0.0
2019/01/19 00:42:30.000   47.480950818   19.056570461   182.0948   5   8   1.3796   1.1418   0.9818   1.0355  -0.4329  -0.8570   0.00    0.0
2019/01/19 00:43:00.000   47.480951714   19.056569144   182.2976   5   8   1.3755   1.1348   0.9826   1.0208  -0.4243  -0.8535   0.00    0.0
2019/01/19 00:43:30.000   47.480955274   19.056569118   182.7124   5   8   1.3713   1.1279   0.9834   1.0062  -0.4156  -0.8500   0.00    0.0
2019/01/19 00:44:00.000   47.480958168   19.056566923   182.6676   5   8   1.3671   1.1210   0.9842   0.9917  -0.4070  -0.8465   0.00    0.0
2019/01/19 00:44:30.000   47.480959522   19.056564101   182.3299   5   8   1.3629   1.1141   0.9851   0.9772  -0.3985  -0.8430   0.00    0.0
2019/01/19 00:45:00.000   47.480958400   19.056565564   182.1899   5   8   1.3586   1.1073   0.9860   0.9628  -0.3899  -0.8395   0.00    0.0
2019/01/19 00:45:30.000   47.480957598   19.056567446   182.2037   5   8   1.3544   1.1005   0.9869   0.9485  -0.3814  -0.8361   0.00    0.0
2019/01/19 00:46:00.000   47.480957910   19.056567960   182.3970   5   8   1.3501   1.0937   0.9878   0.9342  -0.3730  -0.8326   0.00    0.0
2019/01/19 00:46:30.000   47.480957631   19.056568613   182.4825   5   8   1.3458   1.0870   0.9888   0.9201  -0.3646  -0.8292   0.00    0.0
2019/01/19 00:47:00.000   47.480957414   19.056557216   180.4835   5   9   1.1522   0.9949   0.6736   0.6166  -0.0508  -0.3276   0.00    0.0
2019/01/19 00:47:30.000   47.480956882   19.056556985   180.5804   5   9   1.1516   0.9922   0.6752   0.6130  -0.0502  -0.3296   0.00    0.0
2019/01/19 00:48:00.000   47.480956908   19.056556263   180.5635   5   9   1.1508   0.9895   0.6769   0.6092  -0.0496  -0.3316   0.00    0.0
2019/01/19 00:48:30.000   47.480958142   19.056554358   180.6139   5   9   1.1501   0.9866   0.6785   0.6053  -0.0490  -0.3336   0.00    0.0
2019/01/19 00:49:00.000   47.480958928   19.056554732   180.5665   5   9   1.1492   0.9838   0.6802   0.6012  -0.0484  -0.3356   0.00    0.0
2019/01/19 00:49:30.000   47.480959275   19.056556501   180.6965   5   9   1.1484   0.9809   0.6818   0.5971  -0.0478  -0.3376   0.00    0.0
2019/01/19 00:50:00.000   47.480958060   19.056557519   180.6938   5   9   1.1474   0.9779   0.6835   0.5929  -0.0471  -0.3396   0.00    0.0
2019/01/19 00:50:30.000   47.480957308   19.056559007   180.8710   5   9   1.1465   0.9749   0.6852   0.5886  -0.0464  -0.3415   0.00    0.0
2019/01/19 00:51:00.000   47.480957498   19.056559329   180.8700   5   9   1.1455   0.9719   0.6868   0.5842  -0.0457  -0.3434   0.00    0.0
2019/01/19 00:51:30.000   47.480957171   19.056560267   180.9896   5   9   1.1444   0.9689   0.6885   0.5797  -0.0450  -0.3453   0.00    0.0
2019/01/19 00:52:00.000   47.480955368   19.056561443   180.8744   5   9   1.1433   0.9658   0.6902   0.5751  -0.0443  -0.3472   0.00    0.0
2019/01/19 00:52:30.000   47.480954296   19.056560902   180.7525   5   9   1.1422   0.9626   0.6919   0.5705  -0.0436  -0.3491   0.00    0.0
2019/01/19 00:53:00.000   47.480953642   19.056560002   180.6151   5   9   1.1410   0.9595   0.6936   0.5658  -0.0428  -0.3510   0.00    0.0
2019/01/19 00:53:30.000   47.480954694   19.056559271   180.4004   5   9   1.1397   0.9563   0.6953   0.5610  -0.0420  -0.3528   0.00    0.0
2019/01/19 00:54:00.000   47.480955928   19.056559878   180.2481   5   9   1.1385   0.9531   0.6969   0.5562  -0.0412  -0.3547   0.00    0.0
2019/01/19 00:54:30.000   47.480956473   19.056561132   180.1970   5   9   1.1372   0.9498   0.6987   0.5512  -0.0404  -0.3565   0.00    0.0
2019/01/19 00:55:00.000   47.480955624   19.056561060   180.2104   5   9   1.1358   0.9465   0.7004   0.5463  -0.0396  -0.3583   0.00    0.0
2019/01/19 00:55:30.000   47.480954867   19.056559557   180.0326   5   9   1.1345   0.9432   0.7021   0.5413  -0.0387  -0.3601   0.00    0.0
2019/01/19 00:56:00.000   47.480954458   19.056559461   180.0952   5   9   1.1331   0.9399   0.7038   0.5362  -0.0378  -0.3618   0.00    0.0
2019/01/19 00:56:30.000   47.480953138   19.056558632   180.3027   5   9   1.1316   0.9366   0.7055   0.5311  -0.0370  -0.3636   0.00    0.0
2019/01/19 00:57:00.000   47.480952896   19.056557824   180.1924   5   9   1.1302   0.9333   0.7072   0.5259  -0.0361  -0.3653   0.00    0.0
2019/01/19 00:57:30.000   47.480953700   19.056557885   179.8604   5   9   1.1287   0.9299   0.7089   0.5207  -0.0352  -0.3671   0.00    0.0
2019/01/19 00:58:00.000   47.480954217   19.056557231   179.5478   5   9   1.1271   0.9265   0.7106   0.5155  -0.0342  -0.3688   0.00    0.0
2019/01/19 00:58:30.000   47.480953846   19.056556225   179.0932   5   9   1.1256   0.9232   0.7124   0.5103  -0.0333  -0.3704   0.00    0.0
2019/01/19 00:59:00.000   47.480953489   19.056554917   178.8498   5   9   1.1240   0.9198   0.7141   0.5050  -0.0324  -0.3721   0.00    0.0
2019/01/19 00:59:30.000   47.480955305   19.056555029   178.5410   5   9   1.1224   0.9164   0.7158   0.4997  -0.0314  -0.3738   0.00    0.0
2019/01/19 01:00:00.000   47.480956579   19.056554548   178.8524   5   9   1.1207   0.9130   0.7176   0.4944  -0.0304  -0.3754   0.00    0.0
2019/01/19 01:00:30.000   47.480958317   19.056553070   179.2481   5   9   1.1191   0.9095   0.7193   0.4890  -0.0295  -0.3770   0.00    0.0
2019/01/19 01:01:00.000   47.480960603   19.056551684   179.2220   5   9   1.1174   0.9061   0.7210   0.4837  -0.0285  -0.3786   0.00    0.0
2019/01/19 01:01:30.000   47.480961579   19.056550253   179.2099   5   9   1.1157   0.9027   0.7227   0.4783  -0.0275  -0.3802   0.00    0.0
2019/01/19 01:02:00.000   47.480961512   19.056550165   179.2916   5   9   1.1139   0.8993   0.7245   0.4729  -0.0265  -0.3817   0.00    0.0
2019/01/19 01:02:30.000   47.480960660   19.056550021   179.3545   5   9   1.1122   0.8959   0.7262   0.4675  -0.0254  -0.3833   0.00    0.0
2019/01/19 01:03:00.000   47.480960153   19.056550557   179.5893   5   9   1.1104   0.8925   0.7279   0.4622  -0.0244  -0.3848   0.00    0.0
2019/01/19 01:03:30.000   47.480959318   19.056552938   179.9327   5   9   1.1086   0.8891   0.7297   0.4568  -0.0234  -0.3863   0.00    0.0
2019/01/19 01:04:00.000   47.480959906   19.056553073   180.2222   5   9   1.1068   0.8856   0.7314   0.4514  -0.0223  -0.3878   0.00    0.0
2019/01/19 01:04:30.000   47.480959724   19.056552789   180.5826   5   9   1.1050   0.8822   0.7331   0.4460  -0.0212  -0.3893   0.00    0.0
2019/01/19 01:05:00.000   47.480958469   19.056552056   180.6358   5   9   1.1032   0.8788   0.7349   0.4406  -0.0202  -0.3907   0.00    0.0
2019/01/19 01:05:30.000   47.480958627   19.056549690   180.5148   5   9   1.1013   0.8755   0.7366   0.4353  -0.0191  -0.3922   0.00    0.0
2019/01/19 01:06:00.000   47.480959698   19.056546348   180.3894   5   9   1.0994   0.8721   0.7383   0.4299  -0.0180  -0.3936   0.00    0.0
2019/01/19 01:06:30.000   47.480960177   19.056544331   180.3097   5   9   1.0975   0.8687   0.7401   0.4246  -0.0169  -0.3949   0.00    0.0
2019/01/19 01:07:00.000   47.480961228   19.056544337   180.3593   5   9   1.0956   0.8653   0.7418   0.4193  -0.0158  -0.3963   0.00    0.0
2019/01/19 01:07:30.000   47.480961272   19.056544273   180.5149   5   9   1.0937   0.8620   0.7435   0.4140  -0.0147  -0.3977   0.00    0.0
2019/01/19 01:08:00.000   47.480962139   19.056544766   180.3805   5   9   1.0918   0.8587   0.7452   0.4087  -0.0136  -0.3990   0.00    0.0
2019/01/19 01:08:30.000   47.480963410   19.056544046   179.9953   5   9   1.0898   0.8553   0.7470   0.4034  -0.0125  -0.4003   0.00    0.0
2019/01/19 01:09:00.000   47.480965579   19.056543031   179.8063   5   9   1.0879   0.8520   0.7487   0.3982  -0.0114  -0.4016   0.00    0.0
2019/01/19 01:09:30.000   47.480966898   19.056542881   179.6016   5   9   1.0859   0.8487   0.7504   0.3929  -0.0103  -0.4028   0.00    0.0
2019/01/19 01:10:00.000   47.480967184   19.056543635   179.4576   5   9   1.0839   0.8454   0.7521   0.3877  -0.0092  -0.4041   0.00    0.0
2019/01/19 01:10:30.000   47.480966974   19.056545528   179.3600   5   9   1.0819   0.8422   0.7538   0.3826  -0.0080  -0.4053   0.00    0.0
2019/01/19 01:11:00.000   47.480965337   19.056548991   179.4990   5   9   1.0799   0.8389   0.7555   0.3774  -0.0069  -0.4065   0.00    0.0
2019/01/19 01:11:30.000   47.480963337   19.056549785   179.4941   5   9   1.0779   0.8357   0.7572   0.3723  -0.0058  -0.4077   0.00    0.0
2019/01/19 01:12:00.000   47.480962630   19.056548572   179.2507   5   9   1.0759   0.8325   0.7589   0.3672  -0.0046  -0.4088   0.00    0.0
2019/01/19 01:12:30.000   47.480961649   19.056547662   178.8460   5   9   1.0739   0.8293   0.7606   0.3622  -0.0035  -0.4100   0.00    0.0
2019/01/19 01:13:00.000   47.480960719   19.056546554   178.8609   5   9   1.0718   0.8261   0.7623   0.3572  -0.0024  -0.4111   0.00    0.0
2019/01/19 01:13:30.000   47.480961345   19.056546887   178.9216   5   9   1.0698   0.8230   0.7640   0.3522  -0.0012  -0.4122   0.00    0.0
2019/01/19 01:14:00.000   47.480961858   19.056546514   179.1771   5   9   1.0677   0.8199   0.7656   0.3473  -0.0001  -0.4132   0.00    0.0
2019/01/19 01:14:30.000   47.480964028   19.056545013   179.3125   5   9   1.0656   0.8167   0.7673   0.3423   0.0011  -0.4142   0.00    0.0
2019/01/19 01:15:00.000   47.480965728   19.056544668   179.4407   5   9   1.0636   0.8136   0.7690   0.3375   0.0022  -0.4153   0.00    0.0
2019/01/19 01:15:30.000   47.480966234   19.056546069   179.5796   5   9   1.0615   0.8106   0.7706   0.3326   0.0034  -0.4162   0.00    0.0
2019/01/19 01:16:00.000   47.480966484   19.056547852   179.6767   5   9   1.0594   0.8075   0.7723   0.3278   0.0045  -0.4172   0.00    0.0
2019/01/19 01:16:30.000   47.480967847   19.056548580   179.6323   5   9   1.0573   0.8045   0.7739   0.3231   0.0056  -0.4181   0.00    0.0
2019/01/19 01:17:00.000   47.480968430   19.056548223   179.7268   5   9   1.0552   0.8015   0.7756   0.3184   0.0068  -0.4190   0.00    0.0
2019/01/19 01:17:30.000   47.480969864   19.056548927   179.6868   5   9   1.0531   0.7985   0.7772   0.3137   0.0079  -0.4199   0.00    0.0
2019/01/19 01:18:00.000   47.480969982   19.056548449   179.7115   5   9   1.0510   0.7956   0.7788   0.3091   0.0091  -0.4208   0.00    0.0
2019/01/19 01:18:30.000   47.480970298   19.056548430   179.6938   5   9   1.0488   0.7926   0.7804   0.3045   0.0102  -0.4216   0.00    0.0
2019/01/19 01:19:00.000   47.480970504   19.056548754   179.5474   5   9   1.0467   0.7897   0.7821   0.2999   0.0113  -0.4224   0.00    0.0
2019/01/19 01:19:30.000   47.480971287   19.056545938   179.4367   5   9   1.0446   0.7868   0.7837   0.2954   0.0125  -0.4232   0.00    0.0
2019/01/19 01:20:00.000   47.480968297   19.056546880   179.2090   5  10   1.0133   0.6259   0.7752   0.1754  -0.0454  -0.4545   0.00    0.0
2019/01/19 01:20:30.000   47.480967208   19.056545042   179.2729   5  10   1.0126   0.6254   0.7763   0.1750  -0.0453  -0.4552   0.00    0.0
2019/01/19 01:21:00.000   47.480966745   19.056543657   179.4424   5  10   1.0119   0.6248   0.7774   0.1746  -0.0451  -0.4558   0.00    0.0
2019/01/19 01:21:30.000   47.480966137   19.056542126   179.6729   5  10   1.0112   0.6243   0.7784   0.1742  -0.0450  -0.4564   0.00    0.0
2019/01/19 01:22:00.000   47.480965400   19.056540814   179.6837   5  10   1.0104   0.6237   0.7794   0.1737  -0.0448  -0.4569   0.00    0.0
2019/01/19 01:22:30.000   47.480964897   19.056539636   179.7800   5  10   1.0095   0.6232   0.7804   0.1733  -0.0446  -0.4573   0.00    0.0
2019/01/19 01:23:00.000   47.480964940   19.056538461   179.7219   5  10   1.0086   0.6226   0.7814   0.1728  -0.0444  -0.4576   0.00    0.0
2019/01/19 01:23:30.000   47.480965313   19.056536658   179.6723   5  10   1.0076   0.6221   0.7823   0.1722  -0.0442  -0.4579   0.00    0.0
2019/01/19 01:24:00.000   47.480965443   19.056538530   179.7320   5  10   1.0066   0.6215   0.7833   0.1717  -0.0440  -0.4581   0.00    0.0
2019/01/19 01:24:30.000   47.480966597   19.056540861   179.6846   5  10   1.0056   0.6210   0.7842   0.1711  -0.0438  -0.4583   0.00    0.0
2019/01/19 01:25:00.000   47.480967347   19.056543651   179.5561   5  10   1.0045   0.6204   0.7850   0.1705  -0.0435  -0.4584   0.00    0.0
2019/01/19 01:25:30.000   47.480968930   19.056545522   179.1138   5  10   1.0034   0.6199   0.7859   0.1699  -0.0433  -0.4584   0.00    0.0
2019/01/19 01:26:00.000   47.480969650   19.056545709   178.6937   5  10   1.0022   0.6193   0.7867   0.1693  -0.0430  -0.4584   0.00    0.0
2019/01/19 01:26:30.000   47.480966192   19.056544450   179.2843   5   9   1.4867   0.6476   0.8690  -0.0417   0.0276  -0.8621   0.00    0.0
2019/01/19 01:27:00.000   47.480965366   19.056545020   179.3454   5   9   1.4878   0.6473   0.8716  -0.0438   0.0290  -0.8678   0.00    0.0
2019/01/19 01:27:30.000   47.480964608   19.056545868   179.4385   5   9   1.4887   0.6470   0.8742  -0.0459   0.0305  -0.8734   0.00    0.0
2019/01/19 01:28:00.000   47.480966150   19.056546614   179.4051   5   9   1.4896   0.6467   0.8767  -0.0480   0.0320  -0.8789   0.00    0.0
2019/01/19 01:28:30.000   47.480951420   19.056542368   177.8046   5   8   1.4956   0.7955   0.8969   0.0080  -0.0486  -0.9064   0.00    0.0
2019/01/19 01:29:00.000   47.480951868   19.056542442   177.9632   5   8   1.4969   0.7956   0.9001   0.0093  -0.0489  -0.9134   0.00    0.0
2019/01/19 01:29:30.000   47.480952563   19.056541609   177.9357   5   8   1.4981   0.7958   0.9033   0.0107  -0.0492  -0.9203   0.00    0.0
2019/01/19 01:30:00.000   47.480953561   19.056541239   177.7971   5   8   1.4993   0.7959   0.9065   0.0120  -0.0495  -0.9272   0.00    0.0
2019/01/19 01:30:30.000   47.480953130   19.056542719   177.7626   5   8   1.5004   0.7960   0.9096   0.0133  -0.0498  -0.9339   0.00    0.0
2019/01/19 01:31:00.000   47.480956790   19.056538546   176.9189   5   9   1.2194   0.7945   0.6190   0.0584  -0.0837  -0.3530   0.00    0.0
2019/01/19 01:31:30.000   47.480956151   19.056536846   176.9435   5   9   1.2199   0.7945   0.6208   0.0603  -0.0846  -0.3566   0.00    0.0
2019/01/19 01:32:00.000   47.480957212   19.056535881   176.9266   5   9   1.2204   0.7946   0.6225   0.0623  -0.0855  -0.3602   0.00    0.0
2019/01/19 01:32:30.000   47.480958358   19.056535469   176.9323   5   9   1.2209   0.7946   0.6243   0.0642  -0.0864  -0.3638   0.00    0.0
2019/01/19 01:33:00.000   47.480957665   19.056535925   177.1332   5   9   1.2213   0.7946   0.6261   0.0661  -0.0873  -0.3675   0.00    0.0
2019/01/19 01:33:30.000   47.480957348   19.056535759   176.9753   5   9   1.2217   0.7946   0.6279   0.0680  -0.0883  -0.3710   0.00    0.0
2019/01/19 01:34:00.000   47.480956508   19.056534452   176.7384   5   9   1.2221   0.7946   0.6297   0.0699  -0.0892  -0.3746   0.00    0.0
2019/01/19 01:34:30.000   47.480956597   19.056532497   176.5909   5   9   1.2225   0.7945   0.6315   0.0717  -0.0901  -0.3782   0.00    0.0
2019/01/19 01:35:00.000   47.480957076   19.056531739   176.4222   5   9   1.2229   0.7945   0.6333   0.0735  -0.0910  -0.3817   0.00    0.0
2019/01/19 01:35:30.000   47.480959252   19.056531186   176.1044   5   9   1.2232   0.7944   0.6351   0.0753  -0.0920  -0.3853   0.00    0.0
2019/01/19 01:36:00.000   47.480959892   19.056532365   176.0282   5   9   1.2235   0.7944   0.6369   0.0771  -0.0929  -0.3888   0.00    0.0
2019/01/19 01:36:30.000   47.480959447   19.056533106   176.3530   5   9   1.2237   0.7943   0.6388   0.0789  -0.0938  -0.3923   0.00    0.0
2019/01/19 01:37:00.000   47.480958112   19.056535191   176.5565   5   9   1.2240   0.7942   0.6406   0.0806  -0.0947  -0.3958   0.00    0.0
2019/01/19 01:37:30.000   47.480956941   19.056536242   176.6368   5   9   1.2242   0.7941   0.6425   0.0823  -0.0956  -0.3993   0.00    0.0
2019/01/19 01:38:00.000   47.480956290   19.056536210   176.4971   5   9   1.2244   0.7940   0.6444   0.0840  -0.0965  -0.4027   0.00    0.0
2019/01/19 01:38:30.000   47.480956416   19.056535503   176.2927   5   9   1.2245   0.7938   0.6462   0.0857  -0.0974  -0.4062   0.00    0.0
2019/01/19 01:39:00.000   47.480956636   19.056534797   176.2856   5   9   1.2246   0.7937   0.6481   0.0873  -0.0983  -0.4096   0.00    0.0
2019/01/19 01:39:30.000   47.480957286   19.056534310   176.2104   5   9   1.2247   0.7936   0.6500   0.0889  -0.0992  -0.4130   0.00    0.0
2019/01/19 01:40:00.000   47.480958040   19.056534258   176.2680   5   9   1.2248   0.7934   0.6519   0.0905  -0.1001  -0.4164   0.00    0.0
2019/01/19 01:40:30.000   47.480957546   19.056533776   176.2332   5   9   1.2248   0.7932   0.6538   0.0921  -0.1010  -0.4197   0.00    0.0
2019/01/19 01:41:00.000   47.480956414   19.056533567   176.1634   5   9   1.2248   0.7930   0.6557   0.0936  -0.1019  -0.4230   0.00    0.0
2019/01/19 01:41:30.000   47.480954426   19.056533995   176.4330   5   9   1.2248   0.7928   0.6576   0.0951  -0.1027  -0.4263   0.00    0.0
2019/01/19 01:42:00.000   47.480952529   19.056533886   176.6531   5   9   1.2247   0.7926   0.6595   0.0966  -0.1036  -0.4296   0.00    0.0
2019/01/19 01:42:30.000   47.480952908   19.056533634   176.5698   5   9   1.2246   0.7924   0.6614   0.0980  -0.1044  -0.4329   0.00    0.0
2019/01/19 01:43:00.000   47.480953655   19.056533192   176.4297   5   9   1.2245   0.7921   0.6633   0.0994  -0.1053  -0.4361   0.00    0.0
2019/01/19 01:43:30.000   47.480954765   19.056532498   176.1658   5   9   1.2243   0.7919   0.6653   0.1008  -0.1061  -0.4393   0.00    0.0
2019/01/19 01:44:00.000   47.480955092   19.056534236   176.1161   5   9   1.2241   0.7916   0.6672   0.1021  -0.1070  -0.4425   0.00    0.0
2019/01/19 01:44:30.000   47.480954761   19.056535993   176.1398   5   9   1.2239   0.7913   0.6691   0.1034  -0.1078  -0.4456   0.00    0.0
2019/01/19 01:45:00.000   47.480954800   19.056535797   176.1211   5   9   1.2236   0.7910   0.6710   0.1047  -0.1086  -0.4487   0.00    0.0
2019/01/19 01:45:30.000   47.480955447   19.056534911   176.0949   5   9   1.2233   0.7907   0.6730   0.1059  -0.1094  -0.4518   0.00    0.0
2019/01/19 01:46:00.000   47.480957423   19.056532625   175.8589   5   9   1.2229   0.7904   0.6749   0.1071  -0.1101  -0.4548   0.00    0.0
2019/01/19 01:46:30.000   47.480957839   19.056530841   175.6242   5   9   1.2225   0.7900   0.6768   0.1083  -0.1109  -0.4578   0.00    0.0
2019/01/19 01:47:00.000   47.480957728   19.056530590   175.7703   5   9   1.2221   0.7897   0.6788   0.1094  -0.1117  -0.4608   0.00    0.0
2019/01/19 01:47:30.000   47.480957980   19.056530137   175.7759   5   9   1.2216   0.7893   0.6807   0.1105  -0.1124  -0.4638   0.00    0.0
2019/01/19 01:48:00.000   47.480958320   19.056529990   175.8113   5   9   1.2211   0.7889   0.6827   0.1116  -0.1132  -0.4667   0.00    0.0
2019/01/19 01:48:30.000   47.480957665   19.056530203   175.7914   5   9   1.2206   0.7885   0.6846   0.1126  -0.1139  -0.4695   0.00    0.0
2019/01/19 01:49:00.000   47.480957681   19.056531008   175.5624   5   9   1.2200   0.7881   0.6865   0.1136  -0.1146  -0.4724   0.00    0.0
2019/01/19 01:49:30.000   47.480957629   19.056531111   175.3759   5   9   1.2194   0.7877   0.6885   0.1145  -0.1153  -0.4752   0.00    0.0
2019/01/19 01:50:00.000   47.480959241   19.056529713   175.1600   5   9   1.2188   0.7872   0.6904   0.1154  -0.1159  -0.4779   0.00    0.0
2019/01/19 01:50:30.000   47.480960638   19.056530500   175.1182   5   9   1.2181   0.7868   0.6924   0.1163  -0.1166  -0.4807   0.00    0.0
2019/01/19 01:51:00.000   47.480960733   19.056530670   175.1069   5   9   1.2174   0.7863   0.6943   0.1171  -0.1172  -0.4833   0.00    0.0
2019/01/19 01:51:30.000   47.480961686   19.056529106   174.9808   5   9   1.2166   0.7858   0.6962   0.1179  -0.1179  -0.4860   0.00    0.0
2019/01/19 01:52:00.000   47.480960871   19.056529148   175.0484   5   9   1.2158   0.7853   0.6982   0.1186  -0.1185  -0.4886   0.00    0.0
2019/01/19 01:52:30.000   47.480960893   19.056529874   175.1182   5   9   1.2150   0.7848   0.7001   0.1193  -0.1191  -0.4912   0.00    0.0
2019/01/19 01:53:00.000   47.480960018   19.056530323   175.2739   5  10   1.2025   0.6546   0.7014   0.0476  -0.1074  -0.4889   0.00    0.0
2019/01/19 01:53:30.000   47.480960154   19.056530588   175.2424   5  10   1.2020   0.6550   0.7034   0.0500  -0.1086  -0.4917   0.00    0.0
2019/01/19 01:54:00.000   47.480961995   19.056529620   175.2035   5  10   1.2015   0.6554   0.7054   0.0523  -0.1098  -0.4945   0.00    0.0
2019/01/19 01:54:30.000   47.480963498   19.056529508   175.1854   5  10   1.2010   0.6558   0.7074   0.0546  -0.1110  -0.4972   0.00    0.0
2019/01/19 01:55:00.000   47.480964861   19.056528108   175.0689   5  10   1.2004   0.6562   0.7093   0.0569  -0.1122  -0.4999   0.00    0.0
2019/01/19 01:55:30.000   47.480964604   19.056527728   175.0014   5  10   1.1998   0.6566   0.7113   0.0592  -0.1134  -0.5025   0.00    0.0
2019/01/19 01:56:00.000   47.480963621   19.056527485   174.9690   5  10   1.1992   0.6570   0.7133   0.0615  -0.1145  -0.5051   0.00    0.0
2019/01/19 01:56:30.000   47.480961973   19.056527612   174.9845   5  10   1.1985   0.6574   0.7152   0.0637  -0.1157  -0.5076   0.00    0.0
2019/01/19 01:57:00.000   47.480960991   19.056528187   175.1864   5  10   1.1977   0.6577   0.7171   0.0658  -0.1168  -0.5101   0.00    0.0
2019/01/19 01:57:30.000   47.480961324   19.056527786   175.2946   5  10   1.1969   0.6581   0.7191   0.0680  -0.1180  -0.5126   0.00    0.0
2019/01/19 01:58:00.000   47.480961466   19.056528088   175.6932   5  10   1.1961   0.6585   0.7210   0.0701  -0.1191  -0.5149   0.00    0.0
2019/01/19 01:58:30.000   47.480962265   19.056526549   175.9149   5  10   1.1952   0.6589   0.7229   0.0721  -0.1202  -0.5173   0.00    0.0
2019/01/19 01:59:00.000   47.480962365   19.056526620   176.0147   5  10   1.1943   0.6592   0.7248   0.0742  -0.1213  -0.5195   0.00    0.0
2019/01/19 01:59:30.000   47.480957167   19.056540551   178.2342   5  11   1.1097   0.6558   0.5771   0.0451  -0.0912  -0.3279   0.00    0.0
2019/01/19 02:00:00.000   47.480957634   19.056542471   178.0815   5  11   1.1088   0.6562   0.5786   0.0472  -0.0924  -0.3297   0.00    0.0
2019/01/19 02:00:30.000   47.480957439   19.056543449   177.9120   5  11   1.1078   0.6566   0.5801   0.0493  -0.0935  -0.3315   0.00    0.0
2019/01/19 02:01:00.000   47.480956492   19.056544045   177.9026   5  11   1.1068   0.6569   0.5816   0.0514  -0.0946  -0.3333   0.00    0.0
2019/01/19 02:01:30.000   47.480955642   19.056543782   177.8552   5  11   1.1058   0.6573   0.5831   0.0534  -0.0957  -0.3351   0.00    0.0
2019/01/19 02:02:00.000   47.480958535   19.056549642   176.9281   5  10   1.4250   0.6577   0.5854   0.0578  -0.0968  -0.3091   0.00    0.0
2019/01/19 02:02:30.000   47.480957870   19.056549047   176.9785   5  10   1.4238   0.6581   0.5867   0.0628  -0.0978  -0.3127   0.00    0.0
2019/01/19 02:03:00.000   47.480958273   19.056547201   176.8122   5  10   1.4225   0.6585   0.5881   0.0678  -0.0988  -0.3163   0.00    0.0
2019/01/19 02:03:30.000   47.480959410   19.056544563   176.5715   5  10   1.4212   0.6589   0.5895   0.0728  -0.0998  -0.3198   0.00    0.0
2019/01/19 02:04:00.000   47.480960418   19.056542613   176.4421   5  10   1.4199   0.6594   0.5909   0.0777  -0.1009  -0.3233   0.00    0.0
2019/01/19 02:04:30.000   47.480959491   19.056543856   176.5489   5  10   1.4185   0.6598   0.5923   0.0825  -0.1019  -0.3267   0.00    0.0
2019/01/19 02:05:00.000   47.480958334   19.056544723   176.9318   5  10   1.4171   0.6603   0.5938   0.0873  -0.1030  -0.3301   0.00    0.0
2019/01/19 02:05:30.000   47.480957753   19.056544577   177.2856   5  10   1.4156   0.6607   0.5952   0.0920  -0.1040  -0.3335   0.00    0.0
2019/01/19 02:06:00.000   47.480958026   19.056544417   177.4765   5  10   1.4141   0.6612   0.5966   0.0967  -0.1051  -0.3368   0.00    0.0
2019/01/19 02:06:30.000   47.480959894   19.056543312   177.0001   5  10   1.4125   0.6617   0.5981   0.1013  -0.1062  -0.3401   0.00    0.0
2019/01/19 02:07:00.000   47.480961054   19.056540347   176.3070   5  10   1.4109   0.6622   0.5995   0.1058  -0.1072  -0.3433   0.00    0.0
2019/01/19 02:07:30.000   47.480959479   19.056539254   176.0028   5  10   1.4092   0.6627   0.6010   0.1103  -0.1083  -0.3465   0.00    0.0
2019/01/19 02:08:00.000   47.480955950   19.056542153   176.4875   5  10   1.4075   0.6632   0.6024   0.1147  -0.1094  -0.3497   0.00    0.0
2019/01/19 02:08:30.000   47.480953304   19.056546552   177.1658   5  10   1.4057   0.6637   0.6039   0.1190  -0.1104  -0.3528   0.00    0.0
2019/01/19 02:09:00.000   47.480951778   19.056548940   177.7973   5  10   1.4039   0.6642   0.6054   0.1233  -0.1115  -0.3558   0.00    0.0
2019/01/19 02:09:30.000   47.480951591   19.056548901   177.9585   5  10   1.4020   0.6647   0.6068   0.1275  -0.1126  -0.3588   0.00    0.0
2019/01/19 02:10:00.000   47.480954104   19.056545860   177.4444   5  10   1.4001   0.6653   0.6083   0.1316  -0.1137  -0.3618   0.00    0.0
2019/01/19 02:10:30.000   47.480955894   19.056542663   176.9364   5  10   1.3982   0.6658   0.6098   0.1357  -0.1147  -0.3647   0.00    0.0
2019/01/19 02:11:00.000   47.480955103   19.056542389   176.9562   5  10   1.3962   0.6663   0.6113   0.1397  -0.1158  -0.3675   0.00    0.0
2019/01/19 02:11:30.000   47.480953154   19.056542722   177.0842   5  10   1.3941   0.6668   0.6127   0.1436  -0.1169  -0.3704   0.00    0.0
2019/01/19 02:12:00.000   47.480950946   19.056544147   177.5784   5  10   1.3920   0.6674   0.6142   0.1474  -0.1179  -0.3731   0.00    0.0
2019/01/19 02:12:30.000   47.480950591   19.056544870   177.7466   5  10   1.3898   0.6679   0.6157   0.1511  -0.1190  -0.3758   0.00    0.0
2019/01/19 02:13:00.000   47.480951860   19.056543901   177.6420   5  10   1.3876   0.6684   0.6172   0.1548  -0.1200  -0.3785   0.00    0.0
2019/01/19 02:13:30.000   47.480951718   19.056540634   177.0076   5  11   1.3824   0.6100   0.5725   0.1336  -0.0566  -0.3598   0.00    0.0
2019/01/19 02:14:00.000   47.480954288   19.056539734   176.5129   5  11   1.3801   0.6108   0.5738   0.1372  -0.0576  -0.3624   0.00    0.0
2019/01/19 02:14:30.000   47.480954531   19.056539994   176.2771   5  11   1.3778   0.6116   0.5752   0.1407  -0.0586  -0.3649   0.00    0.0
2019/01/19 02:15:00.000   47.480953371   19.056540782   176.2571   5  11   1.3754   0.6123   0.5766   0.1442  -0.0596  -0.3674   0.00    0.0
2019/01/19 02:15:30.000   47.480952983   19.056541094   176.2169   5  11   1.3729   0.6131   0.5780   0.1476  -0.0605  -0.3698   0.00    0.0
2019/01/19 02:16:00.000   47.480954006   19.056539151   175.9772   5  11   1.3705   0.6139   0.5793   0.1510  -0.0615  -0.3722   0.00    0.0
2019/01/19 02:16:30.000   47.480954492   19.056538044   175.9031   5  11   1.3679   0.6147   0.5807   0.1542  -0.0625  -0.3745   0.00    0.0
2019/01/19 02:17:00.000   47.480954469   19.056538541   175.8773   5  11   1.3654   0.6155   0.5821   0.1574  -0.0634  -0.3768   0.00    0.0
2019/01/19 02:17:30.000   47.480953889   19.056538881   175.9929   5  11   1.3627   0.6163   0.5835   0.1605  -0.0644  -0.3790   0.00    0.0
2019/01/19 02:18:00.000   47.480953355   19.056538632   175.7547   5  10   1.3661   0.7388   0.6001   0.2156  -0.1200  -0.3985   0.00    0.0
2019/01/19 02:18:30.000   47.480953185   19.056538764   175.4476   5  10   1.3647   0.7419   0.6024   0.2244  -0.1232  -0.4029   0.00    0.0
2019/01/19 02:19:00.000   47.480954036   19.056538553   175.0101   5  10   1.3633   0.7450   0.6047   0.2332  -0.1264  -0.4074   0.00    0.0
2019/01/19 02:19:30.000   47.480953637   19.056540207   174.8480   5  10   1.3620   0.7482   0.6070   0.2420  -0.1297  -0.4119   0.00    0.0
2019/01/19 02:20:00.000   47.480953342   19.056540450   174.8518   5  10   1.3608   0.7515   0.6094   0.2508  -0.1331  -0.4165   0.00    0.0
2019/01/19 02:20:30.000   47.480953866   19.056538734   174.9977   5  10   1.3596   0.7549   0.6118   0.2597  -0.1366  -0.4211   0.00    0.0
2019/01/19 02:21:00.000   47.480954947   19.056536396   175.2510   5  10   1.3586   0.7582   0.6143   0.2687  -0.1401  -0.4259   0.00    0.0
2019/01/19 02:21:30.000   47.480955136   19.056537037   175.4917   5  10   1.3576   0.7617   0.6168   0.2776  -0.1437  -0.4306   0.00    0.0
2019/01/19 02:22:00.000   47.480955736   19.056538515   175.8566   5  10   1.3566   0.7652   0.6193   0.2866  -0.1473  -0.4355   0.00    0.0
2019/01/19 02:22:30.000   47.480955631   19.056539520   176.3905   5  10   1.3558   0.7688   0.6219   0.2957  -0.1511  -0.4404   0.00    0.0
2019/01/19 02:23:00.000   47.480955491   19.056541040   176.9216   5  10   1.3550   0.7724   0.6245   0.3048  -0.1549  -0.4454   0.00    0.0
2019/01/19 02:23:30.000   47.480956460   19.056541037   177.2097   5  10   1.3543   0.7761   0.6271   0.3139  -0.1587  -0.4504   0.00    0.0
2019/01/19 02:24:00.000   47.480957152   19.056539962   177.0896   5  10   1.3536   0.7799   0.6298   0.3231  -0.1627  -0.4555   0.00    0.0
2019/01/19 02:24:30.000   47.480957262   19.056539363   176.8437   5  10   1.3530   0.7837   0.6325   0.3323  -0.1667  -0.4607   0.00    0.0
2019/01/19 02:25:00.000   47.480956809   19.056538718   176.4306   5  10   1.3525   0.7875   0.6353   0.3416  -0.1708  -0.4660   0.00    0.0
2019/01/19 02:25:30.000   47.480956180   19.056538977   176.1540   5  10   1.3521   0.7915   0.6381   0.3509  -0.1750  -0.4713   0.00    0.0
2019/01/19 02:26:00.000   47.480956024   19.056538794   175.7532   5  10   1.3517   0.7954   0.6410   0.3603  -0.1793  -0.4767   0.00    0.0
2019/01/19 02:26:30.000   47.480955795   19.056538903   175.5852   5  10   1.3514   0.7995   0.6438   0.3697  -0.1836  -0.4822   0.00    0.0
2019/01/19 02:27:00.000   47.480955577   19.056538174   175.4527   5  10   1.3512   0.8036   0.6468   0.3792  -0.1880  -0.4878   0.00    0.0
2019/01/19 02:27:30.000   47.480955283   19.056537902   175.7681   5  10   1.3510   0.8077   0.6498   0.3888  -0.1925  -0.4934   0.00    0.0
2019/01/19 02:28:00.000   47.480955059   19.056538670   176.1072   5  10   1.3509   0.8119   0.6528   0.3983  -0.1971  -0.4991   0.00    0.0
2019/01/19 02:28:30.000   47.480955185   19.056538641   176.2589   5  10   1.3509   0.8162   0.6558   0.4080  -0.2018  -0.5049   0.00    0.0
2019/01/19 02:29:00.000   47.480957643   19.056538144   175.3827   5  11   1.1227   0.8170   0.5908   0.4742  -0.2285  -0.2916   0.00    0.0
2019/01/19 02:29:30.000   47.480958198   19.056535814   174.6261   5  11   1.1250   0.8216   0.5933   0.4819  -0.2328  -0.2969   0.00    0.0
2019/01/19 02:30:00.000   47.480956680   19.056534962   174.5572   5  11   1.1273   0.8263   0.5957   0.4896  -0.2371  -0.3022   0.00    0.0
2019/01/19 02:30:30.000   47.480954243   19.056535759   174.8677   5  11   1.1296   0.8310   0.5982   0.4974  -0.2416  -0.3075   0.00    0.0
2019/01/19 02:31:00.000   47.480953028   19.056537141   175.4004   5  11   1.1319   0.8357   0.6007   0.5053  -0.2461  -0.3130   0.00    0.0
2019/01/19 02:31:30.000   47.480952909   19.056538637   175.9866   5  11   1.1343   0.8405   0.6033   0.5133  -0.2507  -0.3184   0.00    0.0
2019/01/19 02:32:00.000   47.480953602   19.056538502   176.3666   5  11   1.1366   0.8453   0.6059   0.5213  -0.2553  -0.3240   0.00    0.0
2019/01/19 02:32:30.000   47.480955378   19.056536765   176.0721   5  11   1.1390   0.8501   0.6086   0.5294  -0.2601  -0.3296   0.00    0.0
2019/01/19 02:33:00.000   47.480955799   19.056535954   175.6565   5  11   1.1413   0.8550   0.6112   0.5376  -0.2649  -0.3352   0.00    0.0
2019/01/19 02:33:30.000   47.480955057   19.056536182   175.3626   5  11   1.1437   0.8600   0.6140   0.5458  -0.2698  -0.3409   0.00    0.0
2019/01/19 02:34:00.000   47.480953803   19.056536953   175.2843   5  11   1.1461   0.8649   0.6167   0.5541  -0.2748  -0.3467   0.00    0.0
2019/01/19 02:34:30.000   47.480953218   19.056537229   175.5665   5  11   1.1484   0.8699   0.6195   0.5624  -0.2798  -0.3525   0.00    0.0
2019/01/19 02:35:00.000   47.480953723   19.056536605   175.5636   5  11   1.1508   0.8749   0.6223   0.5708  -0.2850  -0.3584   0.00    0.0
2019/01/19 02:35:30.000   47.480954944   19.056535454   175.5186   5  11   1.1532   0.8800   0.6252   0.5793  -0.2902  -0.3643   0.00    0.0
2019/01/19 02:36:00.000   47.480956534   19.056534797   175.5292   5  11   1.1556   0.8851   0.6281   0.5878  -0.2954  -0.3702   0.00    0.0
2019/01/19 02:36:30.000   47.480957105   19.056534806   175.7481   5  11   1.1580   0.8902   0.6310   0.5963  -0.3008  -0.3762   0.00    0.0
2019/01/19 02:37:00.000   47.480957551   19.056534969   175.7219   5  11   1.1603   0.8953   0.6340   0.6049  -0.3062  -0.3823   0.00    0.0
2019/01/19 02:37:30.000   47.480955846   19.056535263   175.9220   5  11   1.1627   0.9005   0.6370   0.6136  -0.3117  -0.3884   0.00    0.0
2019/01/19 02:38:00.000   47.480952619   19.056535701   175.9424   5  11   1.1651   0.9057   0.6400   0.6222  -0.3173  -0.3946   0.00    0.0
2019/01/19 02:38:30.000   47.480949805   19.056537118   175.8610   5  11   1.1674   0.9109   0.6431   0.6309  -0.3229  -0.4008   0.00    0.0
2019/01/19 02:39:00.000   47.480948980   19.056537747   175.6376   5  11   1.1698   0.9161   0.6462   0.6397  -0.3286  -0.4070   0.00    0.0
2019/01/19 02:39:30.000   47.480950444   19.056538231   175.4292   5  11   1.1721   0.9214   0.6493   0.6484  -0.3344  -0.4133   0.00    0.0
2019/01/19 02:40:00.000   47.480952126   19.056536889   175.2871   5  11   1.1744   0.9266   0.6524   0.6572  -0.3402  -0.4196   0.00    0.0
2019/01/19 02:40:30.000   47.480952730   19.056535331   175.4428   5  11   1.1768   0.9319   0.6556   0.6660  -0.3461  -0.4259   0.00    0.0
2019/01/19 02:41:00.000   47.480952296   19.056534067   175.8314   5  11   1.1790   0.9372   0.6588   0.6748  -0.3521  -0.4323   0.00    0.0
2019/01/19 02:41:30.000   47.480951351   19.056534385   176.1671   5  11   1.1813   0.9425   0.6621   0.6836  -0.3581  -0.4387   0.00    0.0
2019/01/19 02:42:00.000   47.480950864   19.056534524   176.2224   5  11   1.1835   0.9478   0.6653   0.6924  -0.3642  -0.4451   0.00    0.0
2019/01/19 02:42:30.000   47.480950484   19.056535328   175.8489   5  11   1.1858   0.9531   0.6686   0.7012  -0.3703  -0.4515   0.00    0.0
2019/01/19 02:43:00.000   47.480951338   19.056535103   175.4208   5  11   1.1879   0.9583   0.6719   0.7100  -0.3765  -0.4580   0.00    0.0
2019/01/19 02:43:30.000   47.480953352   19.056534837   174.9657   5  11   1.1901   0.9636   0.6752   0.7187  -0.3827  -0.4644   0.00    0.0
2019/01/19 02:44:00.000   47.480954054   19.056534636   174.9866   5  11   1.1922   0.9689   0.6785   0.7274  -0.3890  -0.4709   0.00    0.0
2019/01/19 02:44:30.000   47.480953006   19.056533521   175.0478   5  11   1.1943   0.9741   0.6819   0.7361  -0.3953  -0.4774   0.00    0.0
2019/01/19 02:45:00.000   47.480950628   19.056530925   174.9606   5  11   1.1964   0.9794   0.6853   0.7448  -0.4016  -0.4838   0.00    0.0
2019/01/19 02:45:30.000   47.480949086   19.056529508   174.7770   5  11   1.1984   0.9846   0.6886   0.7533  -0.4080  -0.4903   0.00    0.0
2019/01/19 02:46:00.000   47.480948695   19.056529553   174.7869   5  11   1.2003   0.9898   0.6920   0.7619  -0.4144  -0.4967   0.00    0.0
2019/01/19 02:46:30.000   47.480949867   19.056530489   174.9957   5  11   1.2022   0.9950   0.6954   0.7703  -0.4208  -0.5032   0.00    0.0
2019/01/19 02:47:00.000   47.480950620   19.056529974   175.1072   5  11   1.2041   1.0001   0.6989   0.7787  -0.4272  -0.5096   0.00    0.0
2019/01/19 02:47:30.000   47.480950276   19.056530205   175.3799   5  11   1.2059   1.0052   0.7023   0.7870  -0.4337  -0.5160   0.00    0.0
2019/01/19 02:48:00.000   47.480948846   19.056531214   175.3743   5  11   1.2076   1.0102   0.7057   0.7951  -0.4401  -0.5224   0.00    0.0
2019/01/19 02:48:30.000   47.480948980   19.056532294   175.4662   5  11   1.2093   1.0153   0.7091   0.8032  -0.4465  -0.5287   0.00    0.0
2019/01/19 02:49:00.000   47.480950695   19.056533513   175.4272   5  11   1.2109   1.0202   0.7125   0.8112  -0.4530  -0.5350   0.00    0.0
2019/01/19 02:49:30.000   47.480952869   19.056533226   175.2402   5  11   1.2125   1.0251   0.7159   0.8190  -0.4594  -0.5412   0.00    0.0
2019/01/19 02:50:00.000   47.480955133   19.056532078   175.0954   5  11   1.2139   1.0300   0.7193   0.8267  -0.4658  -0.5474   0.00    0.0
2019/01/19 02:50:30.000   47.480955165   19.056531269   175.3637   5  11   1.2153   1.0348   0.7227   0.8342  -0.4722  -0.5535   0.00    0.0
2019/01/19 02:51:00.000   47.480955038   19.056528650   175.4835   5  11   1.2166   1.0395   0.7261   0.8416  -0.4785  -0.5595   0.00    0.0
2019/01/19 02:51:30.000   47.480955552   19.056527334   175.7720   5  11   1.2179   1.0441   0.7295   0.8488  -0.4848  -0.5655   0.00    0.0
2019/01/19 02:52:00.000   47.480955553   19.056527162   175.9385   5  11   1.2190   1.0487   0.7328   0.8558  -0.4910  -0.5714   0.00    0.0
2019/01/19 02:52:30.000   47.480954817   19.056527901   175.9931   5  11   1.2201   1.0532   0.7361   0.8627  -0.4972  -0.5772   0.00    0.0
2019/01/19 02:53:00.000   47.480953524   19.056529058   176.1928   5  11   1.2210   1.0576   0.7394   0.8693  -0.5034  -0.5828   0.00    0.0
2019/01/19 02:53:30.000   47.480952982   19.056526822   175.8703   5  11   1.2219   1.0619   0.7427   0.8757  -0.5094  -0.5884   0.00    0.0
2019/01/19 02:54:00.000   47.480952183   19.056525299   175.7830   5  11   1.2227   1.0662   0.7460   0.8819  -0.5154  -0.5939   0.00    0.0
2019/01/19 02:54:30.000   47.480952771   19.056524771   175.6952   5  11   1.2233   1.0703   0.7492   0.8878  -0.5213  -0.5992   0.00    0.0
2019/01/19 02:55:00.000   47.480953454   19.056525152   175.8594   5  11   1.2239   1.0743   0.7523   0.8935  -0.5271  -0.6045   0.00    0.0
2019/01/19 02:55:30.000   47.480954225   19.056525835   176.2273   5  11   1.2243   1.0782   0.7555   0.8990  -0.5328  -0.6096   0.00    0.0
2019/01/19 02:56:00.000   47.480953942   19.056526305   176.6127   5  11   1.2246   1.0820   0.7586   0.9041  -0.5383  -0.6145   0.00    0.0
2019/01/19 02:56:30.000   47.480953912   19.056526257   176.4927   5  11   1.2248   1.0856   0.7616   0.9090  -0.5438  -0.6193   0.00    0.0
2019/01/19 02:57:00.000   47.480954716   19.056525917   176.1665   5  11   1.2249   1.0892   0.7646   0.9136  -0.5491  -0.6240   0.00    0.0
2019/01/19 02:57:30.000   47.480954257   19.056526162   176.2865   5  11   1.2249   1.0926   0.7676   0.9179  -0.5543  -0.6285   0.00    0.0
2019/01/19 02:58:00.000   47.480953820   19.056526914   176.2323   5  11   1.2247   1.0958   0.7705   0.9219  -0.5593  -0.6328   0.00    0.0
2019/01/19 02:58:30.000   47.480953721   19.056527906   176.2954   5  11   1.2245   1.0990   0.7733   0.9256  -0.5642  -0.6369   0.00    0.0
2019/01/19 02:59:00.000   47.480954291   19.056527011   176.2635   5  11   1.2240   1.1020   0.7761   0.9289  -0.5689  -0.6409   0.00    0.0
2019/01/19 02:59:30.000   47.480955245   19.056527642   176.5421   5  11   1.2235   1.1048   0.7788   0.9319  -0.5734  -0.6446   0.00    0.0
2019/01/19 03:00:00.000   47.480955894   19.056529188   176.6833   5  11   1.2228   1.1075   0.7815   0.9346  -0.5778  -0.6482   0.00    0.0
2019/01/19 03:00:30.000   47.480955597   19.056529912   176.6789   5  11   1.2220   1.1101   0.7841   0.9369  -0.5820  -0.6516   0.00    0.0
2019/01/19 03:01:00.000   47.480955308   19.056530384   176.8970   5  11   1.2210   1.1125   0.7866   0.9389  -0.5860  -0.6548   0.00    0.0
2019/01/19 03:01:30.000   47.480955092   19.056529106   177.2546   5  11   1.2199   1.1147   0.7890   0.9405  -0.5897  -0.6577   0.00    0.0
2019/01/19 03:02:00.000   47.480955191   19.056526823   177.6492   5  11   1.2187   1.1168   0.7914   0.9417  -0.5933  -0.6605   0.00    0.0
2019/01/19 03:02:30.000   47.480955120   19.056525408   177.8758   5  11   1.2173   1.1187   0.7937   0.9425  -0.5967  -0.6630   0.00    0.0
2019/01/19 03:03:00.000   47.480954617   19.056524394   178.0310   5  11   1.2158   1.1204   0.7959   0.9430  -0.5998  -0.6653   0.00    0.0
2019/01/19 03:03:30.000   47.480953499   19.056523726   177.9027   5  11   1.2142   1.1220   0.7980   0.9431  -0.6027  -0.6674   0.00    0.0
2019/01/19 03:04:00.000   47.480953871   19.056521958   177.8012   5  11   1.2124   1.1234   0.8001   0.9428  -0.6054  -0.6693   0.00    0.0
2019/01/19 03:04:30.000   47.480954144   19.056521229   177.8858   5  11   1.2104   1.1246   0.8021   0.9422  -0.6079  -0.6709   0.00    0.0
2019/01/19 03:05:00.000   47.480953596   19.056520580   178.1416   5  11   1.2083   1.1256   0.8039   0.9411  -0.6101  -0.6723   0.00    0.0
2019/01/19 03:05:30.000   47.480953605   19.056519778   178.2395   5  11   1.2061   1.1265   0.8057   0.9397  -0.6120  -0.6735   0.00    0.0
2019/01/19 03:06:00.000   47.480954289   19.056518449   178.8822   5  11   1.2038   1.1272   0.8074   0.9379  -0.6138  -0.6744   0.00    0.0
2019/01/19 03:06:30.000   47.480956258   19.056517335   179.5160   5  11   1.2013   1.1277   0.8090   0.9357  -0.6152  -0.6751   0.00    0.0
2019/01/19 03:07:00.000   47.480956858   19.056516235   179.6366   5  11   1.1986   1.1280   0.8106   0.9332  -0.6164  -0.6756   0.00    0.0
2019/01/19 03:07:30.000   47.480966074   19.056525894   182.1124   5  12   1.0293   0.8262   0.6049   0.4625  -0.2012  -0.3460   0.00    0.0
2019/01/19 03:08:00.000   47.480964783   19.056526844   182.2458   5  12   1.0279   0.8278   0.6063   0.4628  -0.2026  -0.3476   0.00    0.0
2019/01/19 03:08:30.000   47.480964112   19.056529760   181.8705   5  11   1.3976   0.8505   0.6080   0.6423  -0.2074  -0.3670   0.00    0.0
2019/01/19 03:09:00.000   47.480964442   19.056529567   181.7851   5  11   1.3981   0.8527   0.6096   0.6458  -0.2093  -0.3712   0.00    0.0
2019/01/19 03:09:30.000   47.480966236   19.056527251   181.5532   5  11   1.3985   0.8547   0.6111   0.6492  -0.2111  -0.3753   0.00    0.0
2019/01/19 03:10:00.000   47.480966246   19.056525893   181.4791   5  11   1.3987   0.8567   0.6126   0.6524  -0.2128  -0.3793   0.00    0.0
2019/01/19 03:10:30.000   47.480966340   19.056526603   181.2932   5  11   1.3989   0.8587   0.6141   0.6554  -0.2145  -0.3833   0.00    0.0
2019/01/19 03:11:00.000   47.480966746   19.056526688   181.3253   5  11   1.3989   0.8605   0.6155   0.6582  -0.2162  -0.3872   0.00    0.0
2019/01/19 03:11:30.000   47.480967578   19.056526383   181.5482   5  11   1.3989   0.8623   0.6170   0.6608  -0.2179  -0.3910   0.00    0.0
2019/01/19 03:12:00.000   47.480967787   19.056526465   181.4183   5  11   1.3987   0.8641   0.6185   0.6633  -0.2195  -0.3948   0.00    0.0
2019/01/19 03:12:30.000   47.480967409   19.056526695   181.2858   5  11   1.3985   0.8658   0.6200   0.6655  -0.2210  -0.3985   0.00    0.0
2019/01/19 03:13:00.000   47.480966066   19.056526728   181.3783   5  11   1.3981   0.8674   0.6214   0.6676  -0.2225  -0.4021   0.00    0.0
2019/01/19 03:13:30.000   47.480965023   19.056527735   181.6048   5  11   1.3977   0.8690   0.6229   0.6694  -0.2240  -0.4056   0.00    0.0
2019/01/19 03:14:00.000   47.480965395   19.056529323   181.6592   5  11   1.3971   0.8704   0.6243   0.6711  -0.2253  -0.4090   0.00    0.0
2019/01/19 03:14:30.000   47.480965645   19.056529807   181.5241   5  11   1.3964   0.8719   0.6257   0.6725  -0.2267  -0.4123   0.00    0.0
2019/01/19 03:15:00.000   47.480964998   19.056529977   181.4634   5  11   1.3956   0.8732   0.6272   0.6738  -0.2280  -0.4155   0.00    0.0
2019/01/19 03:15:30.000   47.480963907   19.056529375   181.3706   5  11   1.3947   0.8745   0.6286   0.6748  -0.2292  -0.4187   0.00    0.0
2019/01/19 03:16:00.000   47.480963331   19.056529130   181.3346   5  11   1.3937   0.8757   0.6299   0.6756  -0.2304  -0.4217   0.00    0.0
2019/01/19 03:16:30.000   47.480963884   19.056529790   180.7923   5  11   1.3926   0.8768   0.6313   0.6762  -0.2315  -0.4247   0.00    0.0
2019/01/19 03:17:00.000   47.480965908   19.056529150   180.1200   5  11   1.3914   0.8778   0.6327   0.6766  -0.2325  -0.4275   0.00    0.0
2019/01/19 03:17:30.000   47.480967280   19.056528999   179.7331   5  11   1.3900   0.8788   0.6340   0.6768  -0.2335  -0.4303   0.00    0.0
2019/01/19 03:18:00.000   47.480966363   19.056529646   179.8749   5  11   1.3886   0.8797   0.6353   0.6767  -0.2344  -0.4329   0.00    0.0
2019/01/19 03:18:30.000   47.480965241   19.056530318   180.2553   5  11   1.3870   0.8805   0.6366   0.6765  -0.2352  -0.4355   0.00    0.0
2019/01/19 03:19:00.000   47.480964571   19.056530545   180.6420   5  11   1.3854   0.8812   0.6379   0.6760  -0.2360  -0.4379   0.00    0.0
2019/01/19 03:19:30.000   47.480966657   19.056530981   180.7485   5  11   1.3836   0.8819   0.6392   0.6753  -0.2367  -0.4403   0.00    0.0
2019/01/19 03:20:00.000   47.480967755   19.056530696   180.8975   5  11   1.3817   0.8825   0.6404   0.6744  -0.2373  -0.4425   0.00    0.0
2019/01/19 03:20:30.000   47.480967374   19.056530001   181.3564   5  11   1.3797   0.8830   0.6416   0.6733  -0.2379  -0.4446   0.00    0.0
2019/01/19 03:21:00.000   47.480965949   19.056529071   181.6207   5  11   1.3777   0.8834   0.6428   0.6719  -0.2383  -0.4466   0.00    0.0
2019/01/19 03:21:30.000   47.480964290   19.056528639   181.8013   5  11   1.3755   0.8838   0.6440   0.6704  -0.2388  -0.4485   0.00    0.0
2019/01/19 03:22:00.000   47.480963545   19.056528604   181.8289   5  11   1.3732   0.8840   0.6452   0.6686  -0.2391  -0.4503   0.00    0.0
2019/01/19 03:22:30.000   47.480963977   19.056529780   181.8105   5  11   1.3708   0.8842   0.6463   0.6667  -0.2393  -0.4520   0.00    0.0
2019/01/19 03:23:00.000   47.480964436   19.056530819   181.4253   5  11   1.3683   0.8844   0.6474   0.6645  -0.2395  -0.4536   0.00    0.0
2019/01/19 03:23:30.000   47.480964353   19.056529868   180.8959   5  11   1.3657   0.8844   0.6485   0.6622  -0.2396  -0.4551   0.00    0.0
2019/01/19 03:24:00.000   47.480964629   19.056529043   180.8317   5  11   1.3630   0.8844   0.6496   0.6596  -0.2397  -0.4564   0.00    0.0
2019/01/19 03:24:30.000   47.480965142   19.056528151   181.1246   5  11   1.3603   0.8843   0.6506   0.6568  -0.2396  -0.4577   0.00    0.0
2019/01/19 03:25:00.000   47.480965910   19.056528336   181.2948   5  11   1.3574   0.8841   0.6516   0.6539  -0.2395  -0.4588   0.00    0.0
2019/01/19 03:25:30.000   47.480965687   19.056528656   181.6799   5  11   1.3544   0.8838   0.6526   0.6507  -0.2393  -0.4599   0.00    0.0
2019/01/19 03:26:00.000   47.480967105   19.056529362   181.7469   5  11   1.3514   0.8835   0.6536   0.6474  -0.2390  -0.4608   0.00    0.0
2019/01/19 03:26:30.000   47.480968743   19.056529106   181.4413   5  11   1.3483   0.8831   0.6546   0.6439  -0.2387  -0.4617   0.00    0.0
2019/01/19 03:27:00.000   47.480968095   19.056529640   181.5502   5  11   1.3450   0.8826   0.6555   0.6402  -0.2383  -0.4624   0.00    0.0
2019/01/19 03:27:30.000   47.480967020   19.056529284   181.9159   5  11   1.3418   0.8821   0.6564   0.6364  -0.2378  -0.4631   0.00    0.0
2019/01/19 03:28:00.000   47.480966036   19.056531076   182.3736   5  11   1.3384   0.8815   0.6573   0.6324  -0.2372  -0.4636   0.00    0.0
2019/01/19 03:28:30.000   47.480965919   19.056533840   182.5905   5  11   1.3349   0.8808   0.6581   0.6282  -0.2366  -0.4640   0.00    0.0
2019/01/19 03:29:00.000   47.480966496   19.056534219   182.7051   5  11   1.3314   0.8801   0.6590   0.6238  -0.2358  -0.4644   0.00    0.0
2019/01/19 03:29:30.000   47.480967497   19.056532479   182.6398   5  11   1.3278   0.8793   0.6598   0.6193  -0.2351  -0.4646   0.00    0.0
