% program   : RTKLIB ver.demo5 b31
% inp file  : 2018/obs/bute0070.18d
% inp file  : 2018/obs/brdc0070.18n
% inp file  : 2018/code/CODG0070.18I
% obs start : 2018/01/07 00:00:00.0 GPST (week1983      0.0s)
% obs end   : 2018/01/07 23:59:30.0 GPST (week1983  86370.0s)
% pos mode  : single
% elev mask : 10.0 deg
% ionos opt : ionex tec
% tropo opt : saastamoinen
% ephemeris : broadcast
%
% (lat/lon/height=WGS84/ellipsoidal,Q=1:fix,2:float,3:sbas,4:dgps,5:single,6:ppp,ns=# of satellites)
%  GPST                  latitude(deg) longitude(deg)  height(m)   Q  ns   sdn(m)   sde(m)   sdu(m)  sdne(m)  sdeu(m)  sdun(m) age(s)  ratio
2018/01/07 00:00:00.000   47.480946079   19.056534177   179.5666   5   9   1.6517   1.5506   3.8390   0.1516   1.1351  -1.1765   0.00    0.0
2018/01/07 00:00:30.000   47.480947348   19.056534399   179.6126   5   9   1.6522   1.5523   3.8318   0.1254   1.1393  -1.1805   0.00    0.0
2018/01/07 00:01:00.000   47.480947680   19.056535286   179.7209   5   9   1.6527   1.5541   3.8243   0.0919   1.1434  -1.1844   0.00    0.0
2018/01/07 00:01:30.000   47.480947860   19.056535137   179.9787   5   9   1.6532   1.5559   3.8165   0.0345   1.1473  -1.1882   0.00    0.0
2018/01/07 00:02:00.000   47.480947883   19.056533696   180.1496   5   9   1.6537   1.5577   3.8085  -0.0779   1.1511  -1.1918   0.00    0.0
2018/01/07 00:02:30.000   47.480948195   19.056532580   179.9447   5   9   1.6543   1.5594   3.8003  -0.1155   1.1548  -1.1953   0.00    0.0
2018/01/07 00:03:00.000   47.480947852   19.056533523   179.9731   5   9   1.6549   1.5613   3.7919  -0.1435   1.1583  -1.1987   0.00    0.0
2018/01/07 00:03:30.000   47.480947683   19.056534777   179.9516   5   9   1.6555   1.5631   3.7832  -0.1669   1.1617  -1.2019   0.00    0.0
2018/01/07 00:04:00.000   47.480947993   19.056535258   180.1280   5   9   1.6562   1.5649   3.7744  -0.1874   1.1650  -1.2051   0.00    0.0
2018/01/07 00:04:30.000   47.480947552   19.056536744   180.1778   5   9   1.6569   1.5668   3.7653  -0.2058   1.1682  -1.2080   0.00    0.0
2018/01/07 00:05:00.000   47.480947120   19.056537766   179.9842   5   9   1.6576   1.5686   3.7560  -0.2227   1.1712  -1.2109   0.00    0.0
2018/01/07 00:05:30.000   47.480946486   19.056538377   179.8120   5   9   1.6583   1.5705   3.7465  -0.2384   1.1741  -1.2137   0.00    0.0
2018/01/07 00:06:00.000   47.480945515   19.056537960   179.8509   5   9   1.6590   1.5724   3.7369  -0.2531   1.1770  -1.2163   0.00    0.0
2018/01/07 00:06:30.000   47.480943963   19.056541516   180.6775   5  10   1.6226   1.3293   3.2055   0.4729  -0.4606  -0.9058   0.00    0.0
2018/01/07 00:07:00.000   47.480943885   19.056539597   180.5716   5  10   1.6225   1.3293   3.2005   0.4700  -0.4509  -0.9071   0.00    0.0
2018/01/07 00:07:30.000   47.480943506   19.056538514   180.3360   5  10   1.6225   1.3294   3.1954   0.4672  -0.4409  -0.9084   0.00    0.0
2018/01/07 00:08:00.000   47.480943906   19.056535869   179.8650   5  10   1.6226   1.3295   3.1902   0.4643  -0.4305  -0.9096   0.00    0.0
2018/01/07 00:08:30.000   47.480943973   19.056536540   179.9784   5  10   1.6226   1.3296   3.1849   0.4614  -0.4199  -0.9108   0.00    0.0
2018/01/07 00:09:00.000   47.480943882   19.056538326   180.2197   5  10   1.6227   1.3297   3.1796   0.4585  -0.4089  -0.9119   0.00    0.0
2018/01/07 00:09:30.000   47.480944695   19.056539355   180.5525   5  10   1.6228   1.3299   3.1742   0.4555  -0.3975  -0.9130   0.00    0.0
2018/01/07 00:10:00.000   47.480945739   19.056539383   180.4691   5  10   1.6229   1.3301   3.1686   0.4525  -0.3858  -0.9141   0.00    0.0
2018/01/07 00:10:30.000   47.480946910   19.056539002   180.1611   5  10   1.6230   1.3304   3.1631   0.4495  -0.3736  -0.9151   0.00    0.0
2018/01/07 00:11:00.000   47.480947013   19.056539815   179.9788   5  10   1.6232   1.3307   3.1574   0.4465  -0.3610  -0.9161   0.00    0.0
2018/01/07 00:11:30.000   47.480947036   19.056540319   180.0383   5  10   1.6234   1.3310   3.1517   0.4434  -0.3479  -0.9171   0.00    0.0
2018/01/07 00:12:00.000   47.480946670   19.056539444   180.4510   5  10   1.6236   1.3313   3.1458   0.4403  -0.3343  -0.9180   0.00    0.0
2018/01/07 00:12:30.000   47.480946791   19.056537436   180.7376   5  10   1.6239   1.3317   3.1400   0.4371  -0.3200  -0.9190   0.00    0.0
2018/01/07 00:13:00.000   47.480947672   19.056534770   180.5794   5  10   1.6241   1.3321   3.1340   0.4340  -0.3052  -0.9198   0.00    0.0
2018/01/07 00:13:30.000   47.480947523   19.056533594   180.2234   5  10   1.6245   1.3325   3.1280   0.4308  -0.2895  -0.9207   0.00    0.0
2018/01/07 00:14:00.000   47.480947175   19.056535277   180.1898   5  10   1.6248   1.3330   3.1219   0.4276  -0.2729  -0.9215   0.00    0.0
2018/01/07 00:14:30.000   47.480945759   19.056538020   180.4403   5  10   1.6252   1.3335   3.1158   0.4243  -0.2551  -0.9223   0.00    0.0
2018/01/07 00:15:00.000   47.480944306   19.056539789   180.6334   5  10   1.6255   1.3340   3.1097   0.4210  -0.2361  -0.9230   0.00    0.0
2018/01/07 00:15:30.000   47.480943338   19.056539986   180.5540   5  10   1.6260   1.3346   3.1034   0.4177  -0.2155  -0.9237   0.00    0.0
2018/01/07 00:16:00.000   47.480943714   19.056538517   180.4413   5  10   1.6264   1.3352   3.0972   0.4143  -0.1927  -0.9244   0.00    0.0
2018/01/07 00:16:30.000   47.480944501   19.056535927   180.3421   5  10   1.6269   1.3358   3.0908   0.4110  -0.1669  -0.9250   0.00    0.0
2018/01/07 00:17:00.000   47.480945000   19.056533885   180.2634   5  10   1.6274   1.3365   3.0845   0.4076  -0.1365  -0.9256   0.00    0.0
2018/01/07 00:17:30.000   47.480944150   19.056533905   180.5199   5  10   1.6280   1.3372   3.0781   0.4041  -0.0972  -0.9262   0.00    0.0
2018/01/07 00:18:00.000   47.480943191   19.056535491   180.7433   5  10   1.6286   1.3379   3.0717   0.4006  -0.0181  -0.9267   0.00    0.0
2018/01/07 00:18:30.000   47.480942349   19.056536013   180.6582   5  10   1.6292   1.3386   3.0653   0.3971   0.0936  -0.9271   0.00    0.0
2018/01/07 00:19:00.000   47.480943090   19.056535999   180.4192   5  10   1.6299   1.3394   3.0588   0.3935   0.1335  -0.9275   0.00    0.0
2018/01/07 00:19:30.000   47.480944295   19.056536040   179.9463   5  10   1.6306   1.3402   3.0523   0.3899   0.1638  -0.9279   0.00    0.0
2018/01/07 00:20:00.000   47.480944799   19.056537803   179.7949   5  10   1.6313   1.3411   3.0458   0.3862   0.1891  -0.9282   0.00    0.0
2018/01/07 00:20:30.000   47.480944772   19.056539432   180.1384   5  10   1.6321   1.3420   3.0392   0.3825   0.2114  -0.9284   0.00    0.0
2018/01/07 00:21:00.000   47.480943871   19.056540384   180.5827   5  10   1.6329   1.3429   3.0327   0.3787   0.2314  -0.9286   0.00    0.0
2018/01/07 00:21:30.000   47.480943290   19.056540170   180.5912   5  10   1.6338   1.3438   3.0261   0.3749   0.2497  -0.9288   0.00    0.0
2018/01/07 00:22:00.000   47.480943762   19.056539230   180.2167   5  10   1.6347   1.3448   3.0196   0.3710   0.2666  -0.9289   0.00    0.0
2018/01/07 00:22:30.000   47.480944969   19.056537357   179.6055   5  10   1.6356   1.3458   3.0130   0.3671   0.2824  -0.9290   0.00    0.0
2018/01/07 00:23:00.000   47.480944691   19.056538329   179.3442   5  10   1.6365   1.3468   3.0065   0.3632   0.2973  -0.9290   0.00    0.0
2018/01/07 00:23:30.000   47.480944575   19.056539050   179.2628   5  10   1.6376   1.3479   2.9999   0.3592   0.3114  -0.9290   0.00    0.0
2018/01/07 00:24:00.000   47.480944456   19.056540659   179.6246   5  10   1.6386   1.3490   2.9934   0.3551   0.3247  -0.9289   0.00    0.0
2018/01/07 00:24:30.000   47.480945504   19.056540402   180.5073   5   9   1.8100   1.3934   3.2286  -0.3754  -0.5554   0.2770   0.00    0.0
2018/01/07 00:25:00.000   47.480945857   19.056540123   181.0530   5   9   1.8112   1.3941   3.2237  -0.3777  -0.5468   0.2826   0.00    0.0
2018/01/07 00:25:30.000   47.480947078   19.056538294   181.0958   5   9   1.8124   1.3948   3.2188  -0.3800  -0.5380   0.2879   0.00    0.0
2018/01/07 00:26:00.000   47.480947287   19.056537156   180.8090   5   9   1.8137   1.3956   3.2139  -0.3822  -0.5290   0.2928   0.00    0.0
2018/01/07 00:26:30.000   47.480947699   19.056536495   180.3560   5   9   1.8150   1.3964   3.2089  -0.3843  -0.5198   0.2975   0.00    0.0
2018/01/07 00:27:00.000   47.480947212   19.056536417   180.1241   5   9   1.8163   1.3971   3.2039  -0.3863  -0.5105   0.3019   0.00    0.0
2018/01/07 00:27:30.000   47.480946840   19.056536502   179.9037   5   9   1.8176   1.3980   3.1988  -0.3883  -0.5008   0.3060   0.00    0.0
2018/01/07 00:28:00.000   47.480945808   19.056536534   179.7675   5   9   1.8189   1.3988   3.1938  -0.3902  -0.4910   0.3099   0.00    0.0
2018/01/07 00:28:30.000   47.480943885   19.056534950   179.7485   5   9   1.8203   1.3997   3.1887  -0.3921  -0.4809   0.3135   0.00    0.0
2018/01/07 00:29:00.000   47.480943265   19.056531852   179.9208   5   9   1.8217   1.4006   3.1835  -0.3939  -0.4706   0.3168   0.00    0.0
2018/01/07 00:29:30.000   47.480942119   19.056531422   179.9466   5   9   1.8231   1.4015   3.1784  -0.3957  -0.4600   0.3199   0.00    0.0
2018/01/07 00:30:00.000   47.480941525   19.056532818   179.9673   5   9   1.8246   1.4024   3.1733  -0.3973  -0.4492   0.3228   0.00    0.0
2018/01/07 00:30:30.000   47.480941432   19.056534775   179.9779   5   9   1.8261   1.4034   3.1681  -0.3989  -0.4380   0.3253   0.00    0.0
2018/01/07 00:31:00.000   47.480942967   19.056535542   179.8760   5   9   1.8276   1.4044   3.1630  -0.4005  -0.4265   0.3276   0.00    0.0
2018/01/07 00:31:30.000   47.480942678   19.056532974   180.1132   5   8   2.4474   1.5380   4.0495   0.9242  -1.3249  -2.0033   0.00    0.0
2018/01/07 00:32:00.000   47.480945351   19.056531610   179.7562   5   8   2.4496   1.5365   4.0453   0.9188  -1.3153  -2.0039   0.00    0.0
2018/01/07 00:32:30.000   47.480944720   19.056530759   179.9962   5   8   2.4519   1.5351   4.0410   0.9133  -1.3055  -2.0044   0.00    0.0
2018/01/07 00:33:00.000   47.480941266   19.056530897   180.5712   5   8   2.4540   1.5337   4.0366   0.9078  -1.2955  -2.0047   0.00    0.0
2018/01/07 00:33:30.000   47.480938326   19.056531098   180.7672   5   8   2.4562   1.5323   4.0320   0.9021  -1.2854  -2.0049   0.00    0.0
2018/01/07 00:34:00.000   47.480936981   19.056530736   180.4255   5   8   2.4583   1.5310   4.0273   0.8964  -1.2751  -2.0050   0.00    0.0
2018/01/07 00:34:30.000   47.480937353   19.056529268   179.9247   5   8   2.4603   1.5296   4.0225   0.8905  -1.2646  -2.0050   0.00    0.0
2018/01/07 00:35:00.000   47.480938772   19.056528377   179.7188   5   8   2.4623   1.5284   4.0176   0.8846  -1.2539  -2.0048   0.00    0.0
2018/01/07 00:35:30.000   47.480938073   19.056528831   180.2002   5   8   2.4643   1.5271   4.0126   0.8786  -1.2430  -2.0046   0.00    0.0
2018/01/07 00:36:00.000   47.480937134   19.056529222   180.4666   5   8   2.4662   1.5259   4.0075   0.8725  -1.2319  -2.0042   0.00    0.0
2018/01/07 00:36:30.000   47.480936778   19.056528277   180.4352   5   8   2.4681   1.5248   4.0023   0.8663  -1.2206  -2.0036   0.00    0.0
2018/01/07 00:37:00.000   47.480938323   19.056527457   180.3670   5   8   2.4700   1.5236   3.9970   0.8600  -1.2092  -2.0030   0.00    0.0
2018/01/07 00:37:30.000   47.480939166   19.056527336   180.1610   5   8   2.4718   1.5226   3.9916   0.8537  -1.1975  -2.0022   0.00    0.0
2018/01/07 00:38:00.000   47.480941033   19.056528455   180.0348   5   8   2.4735   1.5215   3.9861   0.8472  -1.1856  -2.0013   0.00    0.0
2018/01/07 00:38:30.000   47.480942427   19.056530751   179.7695   5   8   2.4753   1.5205   3.9806   0.8406  -1.1736  -2.0002   0.00    0.0
2018/01/07 00:39:00.000   47.480942360   19.056533061   179.6983   5   8   2.4769   1.5195   3.9749   0.8339  -1.1613  -1.9990   0.00    0.0
2018/01/07 00:39:30.000   47.480941972   19.056533613   179.8581   5   8   2.4786   1.5186   3.9693   0.8272  -1.1488  -1.9977   0.00    0.0
2018/01/07 00:40:00.000   47.480941899   19.056531621   180.3511   5   8   2.4802   1.5178   3.9635   0.8203  -1.1360  -1.9963   0.00    0.0
2018/01/07 00:40:30.000   47.480940485   19.056529292   181.1634   5   8   2.4817   1.5169   3.9577   0.8134  -1.1231  -1.9947   0.00    0.0
2018/01/07 00:41:00.000   47.480939824   19.056530358   181.7478   5   8   2.4832   1.5162   3.9519   0.8063  -1.1099  -1.9930   0.00    0.0
2018/01/07 00:41:30.000   47.480941587   19.056533038   181.5920   5   8   2.4847   1.5154   3.9460   0.7992  -1.0965  -1.9912   0.00    0.0
2018/01/07 00:42:00.000   47.480938977   19.056534247   180.6786   5   9   2.2779   1.5144   3.8113   0.8115  -1.0681  -2.2253   0.00    0.0
2018/01/07 00:42:30.000   47.480938214   19.056530117   179.7678   5   8   2.3869   1.6248   3.9788   1.0343  -0.6596  -2.0271   0.00    0.0
2018/01/07 00:43:00.000   47.480938566   19.056528314   179.5698   5   8   2.3820   1.6239   3.9848   1.0246  -0.6262  -2.0209   0.00    0.0
2018/01/07 00:43:30.000   47.480938144   19.056525661   179.5348   5   8   2.3771   1.6231   3.9910   1.0149  -0.5906  -2.0146   0.00    0.0
2018/01/07 00:44:00.000   47.480937782   19.056523977   179.9546   5   8   2.3722   1.6223   3.9973   1.0051  -0.5524  -2.0081   0.00    0.0
2018/01/07 00:44:30.000   47.480937013   19.056524556   180.4502   5   8   2.3673   1.6217   4.0037   0.9953  -0.5109  -2.0015   0.00    0.0
2018/01/07 00:45:00.000   47.480937587   19.056525123   180.4496   5   8   2.3624   1.6211   4.0102   0.9855  -0.4654  -1.9948   0.00    0.0
2018/01/07 00:45:30.000   47.480939648   19.056524567   180.1254   5   8   2.3576   1.6206   4.0169   0.9756  -0.4145  -1.9881   0.00    0.0
2018/01/07 00:46:00.000   47.480940667   19.056525975   180.0842   5   8   2.3527   1.6203   4.0237   0.9657  -0.3559  -1.9811   0.00    0.0
2018/01/07 00:46:30.000   47.480941319   19.056526584   179.9738   5   8   2.3479   1.6200   4.0306   0.9557  -0.2847  -1.9741   0.00    0.0
2018/01/07 00:47:00.000   47.480941192   19.056527218   179.9845   5   8   2.3430   1.6198   4.0377   0.9457  -0.1872  -1.9671   0.00    0.0
2018/01/07 00:47:30.000   47.480939348   19.056528428   180.2423   5   8   2.3382   1.6198   4.0449   0.9357   0.1066  -1.9599   0.00    0.0
2018/01/07 00:48:00.000   47.480939300   19.056527619   179.9289   5   8   2.3334   1.6198   4.0522   0.9256   0.2411  -1.9526   0.00    0.0
2018/01/07 00:48:30.000   47.480939264   19.056528645   179.7788   5   8   2.3287   1.6200   4.0597   0.9155   0.3245  -1.9452   0.00    0.0
2018/01/07 00:49:00.000   47.480937858   19.056531043   179.5823   5   8   2.3239   1.6202   4.0673   0.9053   0.3910  -1.9377   0.00    0.0
2018/01/07 00:49:30.000   47.480937262   19.056532127   179.4215   5   8   2.3191   1.6205   4.0750   0.8951   0.4482  -1.9301   0.00    0.0
2018/01/07 00:50:00.000   47.480936177   19.056532308   179.5360   5   8   2.3144   1.6210   4.0829   0.8849   0.4992  -1.9225   0.00    0.0
2018/01/07 00:50:30.000   47.480936051   19.056533201   179.8328   5   8   2.3097   1.6216   4.0909   0.8746   0.5459  -1.9147   0.00    0.0
2018/01/07 00:51:00.000   47.480938016   19.056533095   180.2165   5   8   2.3050   1.6222   4.0990   0.8643   0.5892  -1.9068   0.00    0.0
2018/01/07 00:51:30.000   47.480938435   19.056533740   180.3750   5   8   2.3003   1.6230   4.1073   0.8539   0.6299  -1.8989   0.00    0.0
2018/01/07 00:52:00.000   47.480939579   19.056533664   180.1825   5   8   2.2957   1.6239   4.1156   0.8435   0.6684  -1.8909   0.00    0.0
2018/01/07 00:52:30.000   47.480939680   19.056532477   179.8895   5   8   2.2911   1.6249   4.1242   0.8331   0.7051  -1.8828   0.00    0.0
2018/01/07 00:53:00.000   47.480939420   19.056531154   179.8039   5   8   2.2864   1.6260   4.1328   0.8226   0.7403  -1.8746   0.00    0.0
2018/01/07 00:53:30.000   47.480939851   19.056529364   179.5666   5   8   2.2819   1.6272   4.1416   0.8121   0.7742  -1.8663   0.00    0.0
2018/01/07 00:54:00.000   47.480939801   19.056528859   179.3637   5   8   2.2773   1.6285   4.1506   0.8015   0.8069  -1.8579   0.00    0.0
2018/01/07 00:54:30.000   47.480939866   19.056530118   179.2961   5   8   2.2728   1.6300   4.1596   0.7909   0.8387  -1.8495   0.00    0.0
2018/01/07 00:55:00.000   47.480940338   19.056531973   179.4424   5   8   2.2683   1.6315   4.1688   0.7802   0.8695  -1.8410   0.00    0.0
2018/01/07 00:55:30.000   47.480940742   19.056532250   179.5435   5   8   2.2638   1.6332   4.1782   0.7695   0.8995  -1.8323   0.00    0.0
2018/01/07 00:56:00.000   47.480940377   19.056531903   179.9081   5   8   2.2593   1.6350   4.1876   0.7588   0.9288  -1.8237   0.00    0.0
2018/01/07 00:56:30.000   47.480940269   19.056531182   180.0961   5   8   2.2549   1.6369   4.1972   0.7479   0.9574  -1.8149   0.00    0.0
2018/01/07 00:57:00.000   47.480940070   19.056529935   179.9408   5   8   2.2505   1.6389   4.2070   0.7371   0.9854  -1.8061   0.00    0.0
2018/01/07 00:57:30.000   47.480939718   19.056530732   180.0048   5   8   2.2461   1.6411   4.2169   0.7262   1.0129  -1.7971   0.00    0.0
2018/01/07 00:58:00.000   47.480937448   19.056531416   180.1316   5   8   2.2418   1.6433   4.2269   0.7152   1.0399  -1.7881   0.00    0.0
2018/01/07 00:58:30.000   47.480935381   19.056531231   180.2167   5   8   2.2375   1.6457   4.2370   0.7041   1.0665  -1.7791   0.00    0.0
2018/01/07 00:59:00.000   47.480934471   19.056529772   179.9417   5   8   2.2332   1.6482   4.2473   0.6930   1.0926  -1.7699   0.00    0.0
2018/01/07 00:59:30.000   47.480935002   19.056528833   179.7502   5   8   2.2289   1.6508   4.2576   0.6818   1.1183  -1.7607   0.00    0.0
2018/01/07 01:00:00.000   47.480936934   19.056527778   179.8489   5   8   2.2247   1.6536   4.2682   0.6705   1.1437  -1.7515   0.00    0.0
2018/01/07 01:00:30.000   47.480937415   19.056529088   179.8854   5   8   2.2205   1.6564   4.2788   0.6592   1.1687  -1.7422   0.00    0.0
2018/01/07 01:01:00.000   47.480937530   19.056531473   180.0454   5   8   2.2163   1.6594   4.2896   0.6477   1.1934  -1.7328   0.00    0.0
2018/01/07 01:01:30.000   47.480937626   19.056532064   179.9195   5   8   2.2122   1.6625   4.3005   0.6362   1.2178  -1.7234   0.00    0.0
2018/01/07 01:02:00.000   47.480937858   19.056529227   179.5302   5   8   2.2081   1.6658   4.3115   0.6246   1.2420  -1.7139   0.00    0.0
2018/01/07 01:02:30.000   47.480936141   19.056527601   179.2975   5   8   2.2040   1.6691   4.3226   0.6129   1.2658  -1.7044   0.00    0.0
2018/01/07 01:03:00.000   47.480935080   19.056526282   179.0089   5   8   2.2000   1.6726   4.3338   0.6010   1.2895  -1.6948   0.00    0.0
2018/01/07 01:03:30.000   47.480934592   19.056526296   178.8748   5   8   2.1960   1.6762   4.3452   0.5891   1.3129  -1.6851   0.00    0.0
2018/01/07 01:04:00.000   47.480933760   19.056528819   179.1319   5   8   2.1920   1.6800   4.3566   0.5770   1.3361  -1.6754   0.00    0.0
2018/01/07 01:04:30.000   47.480934981   19.056530408   179.3945   5   8   2.1881   1.6838   4.3682   0.5648   1.3590  -1.6656   0.00    0.0
2018/01/07 01:05:00.000   47.480937778   19.056530095   179.3687   5   8   2.1842   1.6878   4.3798   0.5525   1.3818  -1.6558   0.00    0.0
2018/01/07 01:05:30.000   47.480940121   19.056531075   179.7549   5   8   2.1804   1.6919   4.3916   0.5400   1.4044  -1.6459   0.00    0.0
2018/01/07 01:06:00.000   47.480941829   19.056532745   180.2432   5   8   2.1765   1.6961   4.4034   0.5273   1.4269  -1.6359   0.00    0.0
2018/01/07 01:06:30.000   47.480942472   19.056532244   180.3580   5   8   2.1728   1.7005   4.4154   0.5145   1.4491  -1.6259   0.00    0.0
2018/01/07 01:07:00.000   47.480942247   19.056531808   180.2503   5   8   2.1690   1.7050   4.4274   0.5014   1.4712  -1.6159   0.00    0.0
2018/01/07 01:07:30.000   47.480941208   19.056530758   179.7455   5   8   2.1653   1.7096   4.4395   0.4882   1.4931  -1.6058   0.00    0.0
2018/01/07 01:08:00.000   47.480939894   19.056529327   179.2137   5   8   2.1617   1.7143   4.4517   0.4747   1.5149  -1.5956   0.00    0.0
2018/01/07 01:08:30.000   47.480938242   19.056529109   178.8226   5   8   2.1580   1.7191   4.4640   0.4610   1.5366  -1.5855   0.00    0.0
2018/01/07 01:09:00.000   47.480937432   19.056531882   179.0140   5   8   2.1545   1.7241   4.4763   0.4470   1.5581  -1.5752   0.00    0.0
2018/01/07 01:09:30.000   47.480937618   19.056533487   179.2232   5   8   2.1509   1.7292   4.4887   0.4327   1.5794  -1.5650   0.00    0.0
2018/01/07 01:10:00.000   47.480939998   19.056530287   179.0566   5   8   2.1474   1.7344   4.5012   0.4181   1.6007  -1.5547   0.00    0.0
2018/01/07 01:10:30.000   47.480941231   19.056526918   179.1568   5   8   2.1440   1.7397   4.5137   0.4031   1.6218  -1.5443   0.00    0.0
2018/01/07 01:11:00.000   47.480941529   19.056524459   179.4484   5   8   2.1405   1.7452   4.5263   0.3876   1.6428  -1.5339   0.00    0.0
2018/01/07 01:11:30.000   47.480941315   19.056524049   179.8138   5   8   2.1372   1.7508   4.5389   0.3717   1.6636  -1.5235   0.00    0.0
2018/01/07 01:12:00.000   47.480940022   19.056525796   180.1208   5   8   2.1338   1.7565   4.5516   0.3552   1.6843  -1.5131   0.00    0.0
2018/01/07 01:12:30.000   47.480940190   19.056525000   179.7717   5   8   2.1306   1.7623   4.5644   0.3381   1.7049  -1.5027   0.00    0.0
2018/01/07 01:13:00.000   47.480939524   19.056524860   179.5139   5   8   2.1273   1.7682   4.5771   0.3202   1.7254  -1.4922   0.00    0.0
2018/01/07 01:13:30.000   47.480938352   19.056525869   179.7122   5   8   2.1241   1.7743   4.5899   0.3014   1.7457  -1.4817   0.00    0.0
2018/01/07 01:14:00.000   47.480938703   19.056524963   179.7207   5   8   2.1210   1.7805   4.6027   0.2816   1.7660  -1.4712   0.00    0.0
2018/01/07 01:14:30.000   47.480938697   19.056526310   179.9151   5   8   2.1179   1.7867   4.6155   0.2604   1.7861  -1.4606   0.00    0.0
2018/01/07 01:15:00.000   47.480938641   19.056527900   179.9420   5   8   2.1148   1.7931   4.6283   0.2375   1.8061  -1.4501   0.00    0.0
2018/01/07 01:15:30.000   47.480939169   19.056527302   179.6890   5   8   2.1118   1.7996   4.6411   0.2124   1.8260  -1.4395   0.00    0.0
2018/01/07 01:16:00.000   47.480938144   19.056527423   179.6799   5   8   2.1088   1.8063   4.6539   0.1841   1.8457  -1.4290   0.00    0.0
2018/01/07 01:16:30.000   47.480937087   19.056529109   179.9703   5   8   2.1059   1.8130   4.6667   0.1508   1.8654  -1.4184   0.00    0.0
2018/01/07 01:17:00.000   47.480938274   19.056528947   179.6967   5   8   2.1030   1.8198   4.6794   0.1079   1.8849  -1.4078   0.00    0.0
2018/01/07 01:17:30.000   47.480939657   19.056529657   179.3465   5   8   2.1002   1.8267   4.6921   0.0244   1.9043  -1.3973   0.00    0.0
2018/01/07 01:18:00.000   47.480940431   19.056530362   178.9566   5   8   2.0974   1.8337   4.7047  -0.1019   1.9235  -1.3867   0.00    0.0
2018/01/07 01:18:30.000   47.480940868   19.056530144   178.6762   5   8   2.0947   1.8409   4.7173  -0.1460   1.9427  -1.3762   0.00    0.0
2018/01/07 01:19:00.000   47.480940787   19.056530187   178.7049   5   8   2.0919   1.8481   4.7298  -0.1795   1.9617  -1.3657   0.00    0.0
2018/01/07 01:19:30.000   47.480940139   19.056529747   178.8307   5   8   2.0893   1.8554   4.7422  -0.2075   1.9805  -1.3552   0.00    0.0
2018/01/07 01:20:00.000   47.480939645   19.056527758   178.9808   5   8   2.0867   1.8628   4.7546  -0.2322   1.9992  -1.3448   0.00    0.0
2018/01/07 01:20:30.000   47.480939932   19.056527004   179.0366   5   8   2.0841   1.8703   4.7668  -0.2543   2.0178  -1.3344   0.00    0.0
2018/01/07 01:21:00.000   47.480940647   19.056526347   178.9294   5   8   2.0816   1.8779   4.7790  -0.2747   2.0363  -1.3240   0.00    0.0
2018/01/07 01:21:30.000   47.480941766   19.056524725   178.4276   5   8   2.0791   1.8855   4.7910  -0.2936   2.0546  -1.3137   0.00    0.0
2018/01/07 01:22:00.000   47.480942488   19.056525161   178.1760   5   8   2.0766   1.8933   4.8029  -0.3114   2.0727  -1.3035   0.00    0.0
2018/01/07 01:22:30.000   47.480943263   19.056523478   177.8279   5   8   2.0743   1.9011   4.8147  -0.3282   2.0907  -1.2933   0.00    0.0
2018/01/07 01:23:00.000   47.480943821   19.056522797   177.7366   5   8   2.0719   1.9090   4.8263  -0.3442   2.1085  -1.2831   0.00    0.0
2018/01/07 01:23:30.000   47.480943856   19.056524886   177.8442   5   8   2.0696   1.9169   4.8378  -0.3595   2.1261  -1.2731   0.00    0.0
2018/01/07 01:24:00.000   47.480944105   19.056526545   177.9956   5   8   2.0673   1.9250   4.8491  -0.3742   2.1436  -1.2631   0.00    0.0
2018/01/07 01:24:30.000   47.480943871   19.056526839   178.1232   5   8   2.0651   1.9330   4.8602  -0.3883   2.1609  -1.2532   0.00    0.0
2018/01/07 01:25:00.000   47.480941667   19.056527267   178.5279   5   8   2.0630   1.9412   4.8712  -0.4021   2.1780  -1.2434   0.00    0.0
2018/01/07 01:25:30.000   47.480939958   19.056524369   178.8460   5   9   1.9938   1.9391   4.3429  -0.5260   2.2941  -0.5996   0.00    0.0
2018/01/07 01:26:00.000   47.480940470   19.056521972   178.7400   5   9   1.9922   1.9477   4.3578  -0.5345   2.3084  -0.5861   0.00    0.0
2018/01/07 01:26:30.000   47.480941617   19.056521708   178.6646   5   9   1.9906   1.9564   4.3725  -0.5430   2.3226  -0.5727   0.00    0.0
2018/01/07 01:27:00.000   47.480942555   19.056521568   178.6367   5   9   1.9890   1.9650   4.3871  -0.5514   2.3367  -0.5594   0.00    0.0
2018/01/07 01:27:30.000   47.480942948   19.056523770   178.7865   5   9   1.9875   1.9737   4.4015  -0.5599   2.3507  -0.5461   0.00    0.0
2018/01/07 01:28:00.000   47.480942970   19.056525467   178.8580   5   9   1.9860   1.9824   4.4157  -0.5684   2.3645  -0.5330   0.00    0.0
2018/01/07 01:28:30.000   47.480942362   19.056524668   178.4780   5   9   1.9845   1.9912   4.4297  -0.5769   2.3782  -0.5199   0.00    0.0
2018/01/07 01:29:00.000   47.480942742   19.056521360   177.9833   5   9   1.9831   1.9999   4.4434  -0.5854   2.3917  -0.5070   0.00    0.0
2018/01/07 01:29:30.000   47.480942984   19.056519331   177.8067   5   9   1.9816   2.0087   4.4570  -0.5940   2.4051  -0.4942   0.00    0.0
2018/01/07 01:30:00.000   47.480942266   19.056519927   177.8404   5   9   1.9803   2.0174   4.4702  -0.6026   2.4182  -0.4816   0.00    0.0
2018/01/07 01:30:30.000   47.480941264   19.056522013   177.9096   5   9   1.9789   2.0262   4.4833  -0.6112   2.4313  -0.4692   0.00    0.0
2018/01/07 01:31:00.000   47.480941141   19.056523702   178.0582   5   9   1.9776   2.0350   4.4961  -0.6199   2.4441  -0.4570   0.00    0.0
2018/01/07 01:31:30.000   47.480941986   19.056524756   178.0999   5   9   1.9763   2.0437   4.5086  -0.6286   2.4567  -0.4449   0.00    0.0
2018/01/07 01:32:00.000   47.480943015   19.056525352   178.1955   5   9   1.9750   2.0524   4.5208  -0.6373   2.4692  -0.4332   0.00    0.0
2018/01/07 01:32:30.000   47.480943453   19.056523870   178.1720   5   9   1.9738   2.0612   4.5327  -0.6461   2.4814  -0.4217   0.00    0.0
2018/01/07 01:33:00.000   47.480942506   19.056523253   177.9134   5   9   1.9726   2.0699   4.5443  -0.6550   2.4935  -0.4105   0.00    0.0
2018/01/07 01:33:30.000   47.480940226   19.056524666   177.7654   5   9   1.9715   2.0786   4.5556  -0.6639   2.5053  -0.3996   0.00    0.0
2018/01/07 01:34:00.000   47.480939071   19.056527534   178.3961   5   8   2.0326   2.0956   5.1303  -0.7389   2.4285   1.0077   0.00    0.0
2018/01/07 01:34:30.000   47.480937791   19.056530731   178.8243   5   8   2.0342   2.1034   5.1566  -0.7454   2.4433   1.0330   0.00    0.0
2018/01/07 01:35:00.000   47.480937487   19.056530041   179.0521   5   8   2.0359   2.1112   5.1827  -0.7519   2.4579   1.0577   0.00    0.0
2018/01/07 01:35:30.000   47.480937910   19.056525947   179.0977   5   8   2.0377   2.1191   5.2086  -0.7584   2.4723   1.0819   0.00    0.0
2018/01/07 01:36:00.000   47.480938896   19.056520927   178.9081   5   8   2.0395   2.1269   5.2342  -0.7648   2.4866   1.1056   0.00    0.0
2018/01/07 01:36:30.000   47.480938637   19.056521471   178.8715   5   8   2.0414   2.1348   5.2595  -0.7714   2.5006   1.1287   0.00    0.0
2018/01/07 01:37:00.000   47.480937853   19.056524637   178.9627   5   8   2.0435   2.1427   5.2844  -0.7779   2.5144   1.1515   0.00    0.0
2018/01/07 01:37:30.000   47.480938858   19.056526828   178.9908   5   8   2.0455   2.1505   5.3090  -0.7845   2.5280   1.1737   0.00    0.0
2018/01/07 01:38:00.000   47.480940837   19.056527053   179.0791   5   8   2.0477   2.1583   5.3332  -0.7912   2.5413   1.1954   0.00    0.0
2018/01/07 01:38:30.000   47.480942667   19.056525850   178.8832   5   8   2.0500   2.1662   5.3569  -0.7979   2.5544   1.2167   0.00    0.0
2018/01/07 01:39:00.000   47.480943459   19.056524978   178.9813   5   8   2.0523   2.1740   5.3802  -0.8047   2.5671   1.2376   0.00    0.0
2018/01/07 01:39:30.000   47.480943734   19.056525055   178.5864   5   8   2.0547   2.1818   5.4030  -0.8116   2.5796   1.2579   0.00    0.0
2018/01/07 01:40:00.000   47.480942751   19.056526710   178.3493   5   8   2.0571   2.1895   5.4253  -0.8185   2.5918   1.2778   0.00    0.0
2018/01/07 01:40:30.000   47.480941852   19.056527607   178.0592   5   8   2.0596   2.1973   5.4470  -0.8256   2.6036   1.2972   0.00    0.0
2018/01/07 01:41:00.000   47.480940022   19.056535464   179.2367   5   9   2.0327   1.4847   3.7931  -0.3556   0.6467   1.7613   0.00    0.0
2018/01/07 01:41:30.000   47.480939507   19.056534972   179.5568   5   9   2.0353   1.4855   3.8104  -0.3668   0.6478   1.7768   0.00    0.0
2018/01/07 01:42:00.000   47.480937716   19.056534461   179.2957   5   9   2.0379   1.4864   3.8278  -0.3777   0.6489   1.7922   0.00    0.0
2018/01/07 01:42:30.000   47.480936576   19.056532577   178.5938   5   9   2.0405   1.4873   3.8452  -0.3883   0.6502   1.8073   0.00    0.0
2018/01/07 01:43:00.000   47.480936918   19.056531544   177.9980   5   9   2.0432   1.4883   3.8626  -0.3986   0.6516   1.8223   0.00    0.0
2018/01/07 01:43:30.000   47.480937914   19.056530698   178.0967   5   9   2.0459   1.4893   3.8800  -0.4087   0.6531   1.8371   0.00    0.0
2018/01/07 01:44:00.000   47.480939014   19.056529363   178.2406   5   9   2.0485   1.4903   3.8973  -0.4185   0.6547   1.8517   0.00    0.0
2018/01/07 01:44:30.000   47.480939888   19.056530601   178.7308   5   9   2.0512   1.4914   3.9147  -0.4281   0.6564   1.8662   0.00    0.0
2018/01/07 01:45:00.000   47.480939971   19.056532928   178.7137   5   9   2.0539   1.4926   3.9319  -0.4374   0.6582   1.8804   0.00    0.0
2018/01/07 01:45:30.000   47.480940235   19.056533230   178.5379   5   9   2.0566   1.4938   3.9491  -0.4466   0.6602   1.8944   0.00    0.0
2018/01/07 01:46:00.000   47.480940302   19.056531957   178.1988   5   9   2.0592   1.4950   3.9662  -0.4556   0.6622   1.9082   0.00    0.0
2018/01/07 01:46:30.000   47.480940743   19.056529756   178.4240   5   9   2.0619   1.4963   3.9832  -0.4644   0.6643   1.9218   0.00    0.0
2018/01/07 01:47:00.000   47.480941603   19.056526208   179.1244   5   9   2.0645   1.4977   4.0000  -0.4730   0.6665   1.9352   0.00    0.0
2018/01/07 01:47:30.000   47.480941643   19.056525068   179.3403   5   9   2.0671   1.4991   4.0167  -0.4815   0.6688   1.9483   0.00    0.0
2018/01/07 01:48:00.000   47.480941465   19.056524730   179.6769   5   9   2.0696   1.5005   4.0332  -0.4898   0.6712   1.9611   0.00    0.0
2018/01/07 01:48:30.000   47.480940726   19.056528521   179.9203   5   9   2.0722   1.5020   4.0495  -0.4979   0.6736   1.9737   0.00    0.0
2018/01/07 01:49:00.000   47.480940186   19.056531815   180.0343   5   9   2.0746   1.5035   4.0656  -0.5060   0.6762   1.9860   0.00    0.0
2018/01/07 01:49:30.000   47.480940660   19.056530518   179.7457   5   9   2.0771   1.5050   4.0815  -0.5139   0.6789   1.9980   0.00    0.0
2018/01/07 01:50:00.000   47.480941965   19.056526197   179.4465   5   9   2.0795   1.5066   4.0971  -0.5216   0.6818   2.0097   0.00    0.0
2018/01/07 01:50:30.000   47.480941952   19.056524082   179.4692   5   9   2.0818   1.5083   4.1125  -0.5293   0.6847   2.0211   0.00    0.0
2018/01/07 01:51:00.000   47.480941493   19.056524902   179.4442   5   9   2.0840   1.5100   4.1276  -0.5368   0.6877   2.0322   0.00    0.0
2018/01/07 01:51:30.000   47.480941473   19.056526842   179.7655   5   9   2.0862   1.5117   4.1424  -0.5442   0.6909   2.0430   0.00    0.0
2018/01/07 01:52:00.000   47.480942665   19.056526850   180.1458   5   9   2.0883   1.5135   4.1568  -0.5516   0.6941   2.0534   0.00    0.0
2018/01/07 01:52:30.000   47.480943712   19.056528334   180.4774   5   9   2.0903   1.5153   4.1709  -0.5588   0.6973   2.0635   0.00    0.0
2018/01/07 01:53:00.000   47.480945034   19.056529356   180.6593   5   9   2.0923   1.5172   4.1847  -0.5659   0.7007   2.0732   0.00    0.0
2018/01/07 01:53:30.000   47.480945637   19.056528467   180.7250   5   9   2.0941   1.5191   4.1980  -0.5729   0.7042   2.0825   0.00    0.0
2018/01/07 01:54:00.000   47.480944243   19.056526943   180.2378   5   9   2.0959   1.5210   4.2110  -0.5798   0.7077   2.0915   0.00    0.0
2018/01/07 01:54:30.000   47.480942244   19.056524120   179.5976   5   9   2.0975   1.5230   4.2235  -0.5867   0.7113   2.1001   0.00    0.0
2018/01/07 01:55:00.000   47.480940964   19.056523487   179.7158   5   9   2.0990   1.5250   4.2355  -0.5934   0.7150   2.1082   0.00    0.0
2018/01/07 01:55:30.000   47.480941587   19.056525190   179.9866   5   9   2.1005   1.5271   4.2471  -0.6001   0.7188   2.1160   0.00    0.0
2018/01/07 01:56:00.000   47.480943148   19.056527028   180.3921   5   9   2.1018   1.5292   4.2582  -0.6067   0.7227   2.1233   0.00    0.0
2018/01/07 01:56:30.000   47.480944670   19.056529455   180.8381   5   9   2.1029   1.5313   4.2689  -0.6132   0.7266   2.1302   0.00    0.0
2018/01/07 01:57:00.000   47.480946171   19.056531025   180.9768   5   9   2.1040   1.5335   4.2790  -0.6197   0.7306   2.1367   0.00    0.0
2018/01/07 01:57:30.000   47.480947232   19.056531785   180.8207   5   9   2.1049   1.5357   4.2885  -0.6260   0.7347   2.1427   0.00    0.0
2018/01/07 01:58:00.000   47.480947046   19.056528795   180.4226   5   9   2.1057   1.5380   4.2975  -0.6323   0.7388   2.1483   0.00    0.0
2018/01/07 01:58:30.000   47.480945817   19.056527778   180.2952   5   9   2.1063   1.5402   4.3060  -0.6386   0.7431   2.1534   0.00    0.0
2018/01/07 01:59:00.000   47.480944917   19.056526370   180.0404   5   9   2.1068   1.5426   4.3139  -0.6448   0.7474   2.1580   0.00    0.0
2018/01/07 01:59:30.000   47.480944381   19.056525776   179.8881   5   9   2.1072   1.5449   4.3211  -0.6509   0.7517   2.1621   0.00    0.0
2018/01/07 02:00:00.000   47.480942871   19.056528864   179.6784   5   9   2.2484   1.6077   4.5655  -0.8796  -0.2509   2.4146   0.00    0.0
2018/01/07 02:00:30.000   47.480940899   19.056533518   179.5095   5   9   2.2497   1.6100   4.5765  -0.8848  -0.2502   2.4211   0.00    0.0
2018/01/07 02:01:00.000   47.480940709   19.056533074   179.2369   5   9   2.2508   1.6123   4.5868  -0.8899  -0.2487   2.4271   0.00    0.0
2018/01/07 02:01:30.000   47.480941776   19.056531085   179.1442   5   9   2.2517   1.6146   4.5963  -0.8949  -0.2463   2.4325   0.00    0.0
2018/01/07 02:02:00.000   47.480943342   19.056529356   178.9551   5   9   2.2524   1.6169   4.6050  -0.8999  -0.2430   2.4373   0.00    0.0
2018/01/07 02:02:30.000   47.480943504   19.056529927   178.9695   5   9   2.2528   1.6193   4.6130  -0.9047  -0.2388   2.4414   0.00    0.0
2018/01/07 02:03:00.000   47.480943488   19.056530676   179.2387   5   9   2.2530   1.6217   4.6202  -0.9095  -0.2336   2.4450   0.00    0.0
2018/01/07 02:03:30.000   47.480944216   19.056530682   179.5775   5   9   2.2530   1.6241   4.6266  -0.9141  -0.2273   2.4479   0.00    0.0
2018/01/07 02:04:00.000   47.480944685   19.056531301   179.8566   5   9   2.2527   1.6266   4.6322  -0.9187  -0.2198   2.4502   0.00    0.0
2018/01/07 02:04:30.000   47.480944628   19.056532422   180.0359   5   9   2.2522   1.6290   4.6370  -0.9231  -0.2110   2.4518   0.00    0.0
2018/01/07 02:05:00.000   47.480944498   19.056532734   180.1312   5   9   2.2515   1.6315   4.6410  -0.9275  -0.2006   2.4528   0.00    0.0
2018/01/07 02:05:30.000   47.480945556   19.056529833   180.1331   5   9   2.2505   1.6341   4.6441  -0.9318  -0.1885   2.4532   0.00    0.0
2018/01/07 02:06:00.000   47.480946000   19.056527981   180.1185   5   9   2.2493   1.6366   4.6464  -0.9360  -0.1742   2.4529   0.00    0.0
2018/01/07 02:06:30.000   47.480945584   19.056527178   179.8665   5   9   2.2478   1.6392   4.6479  -0.9401  -0.1572   2.4520   0.00    0.0
2018/01/07 02:07:00.000   47.480944640   19.056526878   179.5833   5   9   2.2461   1.6418   4.6485  -0.9441  -0.1364   2.4504   0.00    0.0
2018/01/07 02:07:30.000   47.480942153   19.056528924   179.3411   5   9   2.2441   1.6445   4.6483  -0.9480  -0.1097   2.4482   0.00    0.0
2018/01/07 02:08:00.000   47.480940636   19.056531728   179.2522   5   9   2.2419   1.6471   4.6473  -0.9519  -0.0707   2.4454   0.00    0.0
2018/01/07 02:08:30.000   47.480940337   19.056535020   179.3515   5   9   2.2395   1.6498   4.6454  -0.9556   0.0499   2.4419   0.00    0.0
2018/01/07 02:09:00.000   47.480942612   19.056533992   179.4131   5   9   2.2368   1.6525   4.6427  -0.9593   0.1021   2.4377   0.00    0.0
2018/01/07 02:09:30.000   47.480943829   19.056533705   179.6968   5   9   2.2340   1.6552   4.6392  -0.9629   0.1371   2.4330   0.00    0.0
2018/01/07 02:10:00.000   47.480944390   19.056531802   179.7299   5   9   2.2309   1.6580   4.6349  -0.9665   0.1663   2.4276   0.00    0.0
2018/01/07 02:10:30.000   47.480945123   19.056529264   179.4062   5   9   2.2275   1.6608   4.6297  -0.9700   0.1922   2.4216   0.00    0.0
2018/01/07 02:11:00.000   47.480944887   19.056528122   179.2167   5   9   2.2240   1.6636   4.6238  -0.9734   0.2160   2.4150   0.00    0.0
2018/01/07 02:11:30.000   47.480943709   19.056529406   179.0619   5   9   2.2203   1.6665   4.6172  -0.9767   0.2382   2.4078   0.00    0.0
2018/01/07 02:12:00.000   47.480942076   19.056531886   179.0235   5   9   2.2163   1.6693   4.6097  -0.9800   0.2594   2.4001   0.00    0.0
2018/01/07 02:12:30.000   47.480940325   19.056532433   179.0220   5   9   2.2122   1.6722   4.6016  -0.9832   0.2796   2.3917   0.00    0.0
2018/01/07 02:13:00.000   47.480938619   19.056533282   179.2190   5   9   2.2079   1.6751   4.5927  -0.9864   0.2991   2.3829   0.00    0.0
2018/01/07 02:13:30.000   47.480938697   19.056531856   178.9836   5   9   2.2034   1.6781   4.5831  -0.9895   0.3179   2.3734   0.00    0.0
2018/01/07 02:14:00.000   47.480940521   19.056531519   178.9683   5   9   2.1988   1.6810   4.5728  -0.9926   0.3363   2.3634   0.00    0.0
2018/01/07 02:14:30.000   47.480942696   19.056531644   179.1840   5   9   2.1940   1.6840   4.5619  -0.9956   0.3541   2.3529   0.00    0.0
2018/01/07 02:15:00.000   47.480944457   19.056530989   179.5180   5   9   2.1890   1.6871   4.5503  -0.9986   0.3716   2.3419   0.00    0.0
2018/01/07 02:15:30.000   47.480945468   19.056530650   179.9056   5   9   2.1839   1.6901   4.5381  -1.0015   0.3886   2.3305   0.00    0.0
2018/01/07 02:16:00.000   47.480945568   19.056529660   180.1340   5   9   2.1786   1.6932   4.5253  -1.0044   0.4052   2.3185   0.00    0.0
2018/01/07 02:16:30.000   47.480944437   19.056530384   180.0610   5   9   2.1732   1.6963   4.5120  -1.0073   0.4216   2.3060   0.00    0.0
2018/01/07 02:17:00.000   47.480942917   19.056531682   179.6998   5   9   2.1677   1.6994   4.4981  -1.0101   0.4376   2.2932   0.00    0.0
2018/01/07 02:17:30.000   47.480940763   19.056532349   179.3989   5   9   2.1621   1.7025   4.4837  -1.0129   0.4534   2.2798   0.00    0.0
2018/01/07 02:18:00.000   47.480940129   19.056531696   179.3535   5   9   2.1564   1.7057   4.4688  -1.0157   0.4689   2.2661   0.00    0.0
2018/01/07 02:18:30.000   47.480941593   19.056529135   179.4620   5   9   2.1506   1.7089   4.4534  -1.0185   0.4841   2.2520   0.00    0.0
2018/01/07 02:19:00.000   47.480942983   19.056527053   179.5461   5   9   2.1447   1.7121   4.4376  -1.0212   0.4991   2.2375   0.00    0.0
2018/01/07 02:19:30.000   47.480942759   19.056527687   179.6569   5   9   2.1387   1.7154   4.4213  -1.0240   0.5138   2.2226   0.00    0.0
2018/01/07 02:20:00.000   47.480941806   19.056527954   179.7057   5   9   2.1327   1.7186   4.4047  -1.0267   0.5283   2.2074   0.00    0.0
2018/01/07 02:20:30.000   47.480939120   19.056531274   179.7338   5   9   2.1266   1.7219   4.3877  -1.0294   0.5425   2.1918   0.00    0.0
2018/01/07 02:21:00.000   47.480938436   19.056531182   179.7409   5   9   2.1205   1.7252   4.3703  -1.0321   0.5566   2.1759   0.00    0.0
2018/01/07 02:21:30.000   47.480939604   19.056529185   179.6777   5   9   2.1143   1.7286   4.3526  -1.0348   0.5704   2.1597   0.00    0.0
2018/01/07 02:22:00.000   47.480940853   19.056528642   179.5197   5   9   2.1081   1.7320   4.3347  -1.0375   0.5840   2.1432   0.00    0.0
2018/01/07 02:22:30.000   47.480942167   19.056528715   179.6175   5   9   2.1018   1.7354   4.3164  -1.0402   0.5974   2.1265   0.00    0.0
2018/01/07 02:23:00.000   47.480942804   19.056528861   179.8792   5   9   2.0956   1.7388   4.2979  -1.0429   0.6106   2.1095   0.00    0.0
2018/01/07 02:23:30.000   47.480942813   19.056529008   180.0322   5   9   2.0893   1.7422   4.2792  -1.0456   0.6236   2.0922   0.00    0.0
2018/01/07 02:24:00.000   47.480942236   19.056529750   179.9890   5   9   2.0830   1.7457   4.2603  -1.0484   0.6363   2.0747   0.00    0.0
2018/01/07 02:24:30.000   47.480942296   19.056527959   179.7538   5   9   2.0767   1.7492   4.2412  -1.0511   0.6489   2.0570   0.00    0.0
2018/01/07 02:25:00.000   47.480941785   19.056527720   179.5118   5   9   2.0705   1.7527   4.2220  -1.0538   0.6613   2.0390   0.00    0.0
2018/01/07 02:25:30.000   47.480941456   19.056528799   179.3863   5   9   2.0642   1.7563   4.2026  -1.0566   0.6735   2.0209   0.00    0.0
2018/01/07 02:26:00.000   47.480942194   19.056527729   179.3746   5   9   2.0580   1.7598   4.1831  -1.0593   0.6855   2.0026   0.00    0.0
2018/01/07 02:26:30.000   47.480943798   19.056524923   179.4017   5   9   2.0519   1.7634   4.1636  -1.0621   0.6973   1.9841   0.00    0.0
2018/01/07 02:27:00.000   47.480945766   19.056523365   179.6111   5   9   2.0457   1.7671   4.1439  -1.0649   0.7089   1.9654   0.00    0.0
2018/01/07 02:27:30.000   47.480948015   19.056520291   179.9723   5   9   2.0396   1.7707   4.1242  -1.0677   0.7204   1.9466   0.00    0.0
2018/01/07 02:28:00.000   47.480946569   19.056523754   180.3518   5   9   2.0336   1.7744   4.1045  -1.0706   0.7316   1.9276   0.00    0.0
2018/01/07 02:28:30.000   47.480946661   19.056526879   179.6649   5   8   2.0524   1.8131   4.5427  -1.0195  -0.3910   1.7349   0.00    0.0
2018/01/07 02:29:00.000   47.480944494   19.056528914   179.9373   5   8   2.0467   1.8159   4.5270  -1.0230  -0.3608   1.7127   0.00    0.0
2018/01/07 02:29:30.000   47.480942846   19.056529294   180.3262   5   8   2.0411   1.8188   4.5111  -1.0265  -0.3273   1.6902   0.00    0.0
2018/01/07 02:30:00.000   47.480943070   19.056527934   180.6338   5   8   2.0355   1.8217   4.4951  -1.0300  -0.2896   1.6675   0.00    0.0
2018/01/07 02:30:30.000   47.480942674   19.056529477   180.8880   5   8   2.0301   1.8247   4.4789  -1.0335  -0.2455   1.6446   0.00    0.0
2018/01/07 02:31:00.000   47.480943220   19.056531140   181.0821   5   8   2.0248   1.8277   4.4626  -1.0370  -0.1910   1.6214   0.00    0.0
2018/01/07 02:31:30.000   47.480943802   19.056531902   181.2293   5   8   2.0195   1.8307   4.4462  -1.0405  -0.1115   1.5980   0.00    0.0
2018/01/07 02:32:00.000   47.480945170   19.056529149   181.0049   5   8   2.0144   1.8337   4.4298  -1.0441   0.1087   1.5744   0.00    0.0
2018/01/07 02:32:30.000   47.480945442   19.056529444   180.4272   5   8   2.0094   1.8367   4.4132  -1.0477   0.1904   1.5505   0.00    0.0
2018/01/07 02:33:00.000   47.480945353   19.056528464   179.8087   5   8   2.0045   1.8398   4.3965  -1.0513   0.2467   1.5264   0.00    0.0
2018/01/07 02:33:30.000   47.480943845   19.056529241   179.6112   5   8   1.9997   1.8429   4.3798  -1.0549   0.2927   1.5021   0.00    0.0
2018/01/07 02:34:00.000   47.480943288   19.056528109   179.5394   5   8   1.9951   1.8461   4.3631  -1.0585   0.3326   1.4776   0.00    0.0
2018/01/07 02:34:30.000   47.480942747   19.056527135   179.4269   5   8   1.9905   1.8493   4.3463  -1.0622   0.3683   1.4528   0.00    0.0
2018/01/07 02:35:00.000   47.480941412   19.056530270   179.3989   5   8   1.9861   1.8525   4.3295  -1.0659   0.4011   1.4278   0.00    0.0
2018/01/07 02:35:30.000   47.480941178   19.056530828   179.4429   5   8   1.9818   1.8557   4.3127  -1.0697   0.4315   1.4025   0.00    0.0
2018/01/07 02:36:00.000   47.480940994   19.056529829   179.5917   5   8   1.9776   1.8590   4.2959  -1.0734   0.4600   1.3771   0.00    0.0
2018/01/07 02:36:30.000   47.480940792   19.056529164   179.5774   5   8   1.9735   1.8623   4.2791  -1.0772   0.4870   1.3513   0.00    0.0
2018/01/07 02:37:00.000   47.480941348   19.056527340   179.4277   5   8   1.9696   1.8656   4.2624  -1.0811   0.5126   1.3253   0.00    0.0
2018/01/07 02:37:30.000   47.480940951   19.056527926   179.2804   5   8   1.9658   1.8690   4.2456  -1.0850   0.5370   1.2991   0.00    0.0
2018/01/07 02:38:00.000   47.480940958   19.056531018   179.1677   5   8   1.9621   1.8723   4.2289  -1.0889   0.5604   1.2726   0.00    0.0
2018/01/07 02:38:30.000   47.480941863   19.056532965   179.2176   5   8   1.9585   1.8758   4.2122  -1.0928   0.5829   1.2458   0.00    0.0
2018/01/07 02:39:00.000   47.480942681   19.056533021   179.2634   5   8   1.9551   1.8792   4.1956  -1.0968   0.6046   1.2187   0.00    0.0
2018/01/07 02:39:30.000   47.480944665   19.056531391   179.1584   5   8   1.9517   1.8827   4.1791  -1.1008   0.6256   1.1913   0.00    0.0
2018/01/07 02:40:00.000   47.480945256   19.056530751   179.2084   5   8   1.9485   1.8862   4.1626  -1.1049   0.6459   1.1636   0.00    0.0
2018/01/07 02:40:30.000   47.480943727   19.056534739   179.8041   5   8   1.9455   1.8897   4.1462  -1.1090   0.6656   1.1355   0.00    0.0
2018/01/07 02:41:00.000   47.480945244   19.056534277   180.3780   5   8   1.9425   1.8933   4.1299  -1.1131   0.6847   1.1071   0.00    0.0
2018/01/07 02:41:30.000   47.480947660   19.056531731   180.6732   5   8   1.9397   1.8969   4.1137  -1.1172   0.7033   1.0782   0.00    0.0
2018/01/07 02:42:00.000   47.480948674   19.056531743   180.8440   5   8   1.9370   1.9005   4.0976  -1.1214   0.7214   1.0490   0.00    0.0
2018/01/07 02:42:30.000   47.480949431   19.056530292   180.8837   5   8   1.9345   1.9042   4.0815  -1.1257   0.7390   1.0192   0.00    0.0
2018/01/07 02:43:00.000   47.480949896   19.056532454   180.5443   5   8   1.9320   1.9079   4.0656  -1.1300   0.7562   0.9889   0.00    0.0
2018/01/07 02:43:30.000   47.480950958   19.056533313   180.2931   5   8   1.9297   1.9116   4.0498  -1.1343   0.7730   0.9581   0.00    0.0
2018/01/07 02:44:00.000   47.480951149   19.056532222   180.3173   5   8   1.9275   1.9153   4.0340  -1.1386   0.7895   0.9267   0.00    0.0
2018/01/07 02:44:30.000   47.480949102   19.056534115   180.4432   5   8   1.9254   1.9191   4.0184  -1.1430   0.8055   0.8946   0.00    0.0
2018/01/07 02:45:00.000   47.480945896   19.056536710   180.8062   5   8   1.9234   1.9229   4.0030  -1.1474   0.8212   0.8617   0.00    0.0
2018/01/07 02:45:30.000   47.480944160   19.056536017   180.9998   5   8   1.9216   1.9267   3.9876  -1.1518   0.8366   0.8280   0.00    0.0
2018/01/07 02:46:00.000   47.480944156   19.056533165   180.9096   5   8   1.9198   1.9306   3.9724  -1.1563   0.8516   0.7934   0.00    0.0
2018/01/07 02:46:30.000   47.480942916   19.056533177   180.6783   5   8   1.9182   1.9345   3.9573  -1.1608   0.8664   0.7577   0.00    0.0
2018/01/07 02:47:00.000   47.480942634   19.056532135   180.4676   5   8   1.9167   1.9384   3.9423  -1.1654   0.8809   0.7207   0.00    0.0
2018/01/07 02:47:30.000   47.480941295   19.056532472   180.4139   5   8   1.9153   1.9423   3.9275  -1.1699   0.8950   0.6823   0.00    0.0
2018/01/07 02:48:00.000   47.480941872   19.056531236   180.4320   5   8   1.9140   1.9463   3.9128  -1.1745   0.9090   0.6421   0.00    0.0
2018/01/07 02:48:30.000   47.480943040   19.056527624   180.6872   5   8   1.9128   1.9503   3.8982  -1.1792   0.9226   0.5999   0.00    0.0
2018/01/07 02:49:00.000   47.480943144   19.056526666   181.0882   5   8   1.9118   1.9543   3.8838  -1.1838   0.9360   0.5552   0.00    0.0
2018/01/07 02:49:30.000   47.480944130   19.056527368   181.5504   5   8   1.9108   1.9583   3.8695  -1.1885   0.9492   0.5072   0.00    0.0
2018/01/07 02:50:00.000   47.480945073   19.056528210   181.8850   5   8   1.9100   1.9624   3.8554  -1.1932   0.9622   0.4551   0.00    0.0
2018/01/07 02:50:30.000   47.480945259   19.056529340   181.9004   5   8   1.9092   1.9665   3.8414  -1.1980   0.9749   0.3969   0.00    0.0
2018/01/07 02:51:00.000   47.480944611   19.056530875   181.9077   5   8   1.9086   1.9706   3.8276  -1.2027   0.9874   0.3297   0.00    0.0
2018/01/07 02:51:30.000   47.480944574   19.056531920   181.9437   5   8   1.9081   1.9747   3.8139  -1.2075   0.9997   0.2460   0.00    0.0
2018/01/07 02:52:00.000   47.480943945   19.056534434   182.0238   5   8   1.9076   1.9789   3.8004  -1.2123   1.0117   0.1144   0.00    0.0
2018/01/07 02:52:30.000   47.480944527   19.056533096   181.9746   5   8   1.9073   1.9831   3.7870  -1.2172   1.0236  -0.1835   0.00    0.0
2018/01/07 02:53:00.000   47.480945585   19.056532215   181.6273   5   8   1.9071   1.9873   3.7738  -1.2220   1.0353  -0.2824   0.00    0.0
2018/01/07 02:53:30.000   47.480945567   19.056532317   181.3816   5   8   1.9069   1.9915   3.7607  -1.2269   1.0468  -0.3537   0.00    0.0
2018/01/07 02:54:00.000   47.480946398   19.056532497   180.8571   5   8   1.9069   1.9958   3.7478  -1.2318   1.0582  -0.4121   0.00    0.0
2018/01/07 02:54:30.000   47.480946887   19.056531593   180.2897   5   8   1.9069   2.0000   3.7350  -1.2367   1.0693  -0.4624   0.00    0.0
2018/01/07 02:55:00.000   47.480947758   19.056528620   179.9743   5   8   1.9071   2.0043   3.7224  -1.2416   1.0803  -0.5071   0.00    0.0
2018/01/07 02:55:30.000   47.480947615   19.056528292   179.8737   5   8   1.9073   2.0086   3.7099  -1.2466   1.0911  -0.5476   0.00    0.0
2018/01/07 02:56:00.000   47.480947371   19.056528392   180.1170   5   8   1.9076   2.0129   3.6976  -1.2515   1.1018  -0.5847   0.00    0.0
2018/01/07 02:56:30.000   47.480945869   19.056531566   180.1436   5   8   1.9080   2.0173   3.6854  -1.2565   1.1122  -0.6190   0.00    0.0
2018/01/07 02:57:00.000   47.480944350   19.056533163   180.3057   5   8   1.9085   2.0216   3.6734  -1.2615   1.1226  -0.6511   0.00    0.0
2018/01/07 02:57:30.000   47.480944429   19.056533836   180.1330   5   8   1.9091   2.0260   3.6616  -1.2665   1.1328  -0.6811   0.00    0.0
2018/01/07 02:58:00.000   47.480944251   19.056534287   180.1377   5   8   1.9098   2.0304   3.6499  -1.2715   1.1428  -0.7094   0.00    0.0
2018/01/07 02:58:30.000   47.480944172   19.056534227   180.1979   5   8   1.9105   2.0348   3.6383  -1.2765   1.1527  -0.7362   0.00    0.0
2018/01/07 02:59:00.000   47.480943616   19.056535894   180.3571   5   8   1.9114   2.0393   3.6269  -1.2815   1.1625  -0.7617   0.00    0.0
2018/01/07 02:59:30.000   47.480943716   19.056538033   180.6060   5   8   1.9123   2.0437   3.6156  -1.2865   1.1721  -0.7859   0.00    0.0
2018/01/07 03:00:00.000   47.480944987   19.056538650   180.9364   5   8   1.9101   2.0410   3.4094  -1.2841   1.2636  -0.8858   0.00    0.0
2018/01/07 03:00:30.000   47.480946244   19.056536984   180.6575   5   8   1.9116   2.0459   3.3992  -1.2899   1.2700  -0.9013   0.00    0.0
2018/01/07 03:01:00.000   47.480946822   19.056535905   180.2713   5   8   1.9131   2.0507   3.3891  -1.2956   1.2763  -0.9163   0.00    0.0
2018/01/07 03:01:30.000   47.480948537   19.056532833   179.9922   5   8   1.9147   2.0556   3.3791  -1.3012   1.2826  -0.9307   0.00    0.0
2018/01/07 03:02:00.000   47.480947718   19.056532250   180.0768   5   8   1.9164   2.0605   3.3693  -1.3069   1.2887  -0.9447   0.00    0.0
2018/01/07 03:02:30.000   47.480947227   19.056533651   180.1279   5   8   1.9180   2.0654   3.3596  -1.3125   1.2948  -0.9581   0.00    0.0
2018/01/07 03:03:00.000   47.480946657   19.056534324   180.3310   5   8   1.9198   2.0703   3.3499  -1.3181   1.3009  -0.9712   0.00    0.0
2018/01/07 03:03:30.000   47.480948105   19.056534130   180.2130   5   8   1.9216   2.0752   3.3404  -1.3236   1.3068  -0.9838   0.00    0.0
2018/01/07 03:04:00.000   47.480950002   19.056531697   180.2080   5   8   1.9234   2.0801   3.3311  -1.3291   1.3127  -0.9960   0.00    0.0
2018/01/07 03:04:30.000   47.480949639   19.056532053   180.6137   5   8   1.9253   2.0849   3.3218  -1.3346   1.3185  -1.0077   0.00    0.0
2018/01/07 03:05:00.000   47.480949932   19.056532049   180.8801   5   8   1.9272   2.0898   3.3127  -1.3401   1.3243  -1.0192   0.00    0.0
2018/01/07 03:05:30.000   47.480944641   19.056537700   180.6551   5   9   1.7179   1.9857   3.1806  -1.1069   1.5376  -1.3585   0.00    0.0
2018/01/07 03:06:00.000   47.480944177   19.056538757   180.8589   5   9   1.7184   1.9884   3.1776  -1.1096   1.5397  -1.3605   0.00    0.0
2018/01/07 03:06:30.000   47.480943512   19.056538915   181.0684   5   9   1.7190   1.9911   3.1745  -1.1122   1.5417  -1.3623   0.00    0.0
2018/01/07 03:07:00.000   47.480943670   19.056538928   181.2086   5   9   1.7197   1.9938   3.1713  -1.1148   1.5436  -1.3640   0.00    0.0
2018/01/07 03:07:30.000   47.480943971   19.056536914   181.0676   5   9   1.7203   1.9964   3.1681  -1.1173   1.5453  -1.3655   0.00    0.0
2018/01/07 03:08:00.000   47.480945014   19.056533490   180.6657   5   9   1.7209   1.9990   3.1649  -1.1198   1.5470  -1.3669   0.00    0.0
2018/01/07 03:08:30.000   47.480943866   19.056531821   180.2612   5   9   1.7216   2.0016   3.1616  -1.1222   1.5485  -1.3682   0.00    0.0
2018/01/07 03:09:00.000   47.480943794   19.056529082   180.1696   5   9   1.7223   2.0041   3.1583  -1.1246   1.5499  -1.3693   0.00    0.0
2018/01/07 03:09:30.000   47.480945164   19.056524571   180.0148   5   9   1.7230   2.0067   3.1549  -1.1269   1.5513  -1.3702   0.00    0.0
2018/01/07 03:10:00.000   47.480946263   19.056522739   179.9253   5   9   1.7237   2.0092   3.1515  -1.1291   1.5525  -1.3710   0.00    0.0
2018/01/07 03:10:30.000   47.480948484   19.056523484   180.1095   5   8   1.8574   2.0874   3.4960  -0.9463   1.8058  -0.9124   0.00    0.0
2018/01/07 03:11:00.000   47.480948788   19.056525468   180.1008   5   8   1.8566   2.0904   3.4948  -0.9494   1.8082  -0.9150   0.00    0.0
2018/01/07 03:11:30.000   47.480941398   19.056529217   181.8462   5   7   2.5515   2.1246   4.6089  -1.2426   2.0908  -2.4710   0.00    0.0
2018/01/07 03:12:00.000   47.480941324   19.056532350   181.9358   5   7   2.5558   2.1300   4.6186  -1.2564   2.1047  -2.4819   0.00    0.0
2018/01/07 03:12:30.000   47.480941138   19.056533718   181.9826   5   7   2.5601   2.1354   4.6280  -1.2701   2.1186  -2.4927   0.00    0.0
2018/01/07 03:13:00.000   47.480939425   19.056534497   181.8871   5   7   2.5644   2.1409   4.6372  -1.2836   2.1322  -2.5033   0.00    0.0
2018/01/07 03:13:30.000   47.480939140   19.056532355   181.5148   5   7   2.5686   2.1464   4.6462  -1.2970   2.1457  -2.5137   0.00    0.0
2018/01/07 03:14:00.000   47.480941215   19.056530431   181.2312   5   7   2.5729   2.1519   4.6550  -1.3102   2.1590  -2.5239   0.00    0.0
2018/01/07 03:14:30.000   47.480942905   19.056530320   181.3818   5   7   2.5771   2.1575   4.6635  -1.3233   2.1721  -2.5338   0.00    0.0
2018/01/07 03:15:00.000   47.480943450   19.056531399   181.7344   5   7   2.5813   2.1631   4.6717  -1.3362   2.1851  -2.5436   0.00    0.0
2018/01/07 03:15:30.000   47.480942617   19.056532211   181.8712   5   7   2.5855   2.1687   4.6796  -1.3490   2.1978  -2.5532   0.00    0.0
2018/01/07 03:16:00.000   47.480942574   19.056532297   181.7980   5   7   2.5896   2.1744   4.6873  -1.3617   2.2103  -2.5625   0.00    0.0
2018/01/07 03:16:30.000   47.480943110   19.056532707   181.6511   5   7   2.5937   2.1800   4.6946  -1.3742   2.2227  -2.5716   0.00    0.0
2018/01/07 03:17:00.000   47.480942890   19.056534190   181.5869   5   7   2.5978   2.1857   4.7017  -1.3865   2.2348  -2.5805   0.00    0.0
2018/01/07 03:17:30.000   47.480942933   19.056534749   181.6483   5   7   2.6019   2.1914   4.7084  -1.3987   2.2467  -2.5891   0.00    0.0
2018/01/07 03:18:00.000   47.480942888   19.056535037   181.7511   5   7   2.6059   2.1972   4.7149  -1.4108   2.2583  -2.5975   0.00    0.0
2018/01/07 03:18:30.000   47.480942661   19.056536561   181.9897   5   7   2.6098   2.2029   4.7209  -1.4227   2.2698  -2.6056   0.00    0.0
2018/01/07 03:19:00.000   47.480942575   19.056536398   182.1473   5   7   2.6137   2.2086   4.7267  -1.4344   2.2810  -2.6135   0.00    0.0
2018/01/07 03:19:30.000   47.480943195   19.056533251   181.9403   5   7   2.6176   2.2144   4.7320  -1.4460   2.2920  -2.6211   0.00    0.0
2018/01/07 03:20:00.000   47.480942343   19.056530982   181.7359   5   7   2.6214   2.2201   4.7370  -1.4575   2.3028  -2.6285   0.00    0.0
2018/01/07 03:20:30.000   47.480940702   19.056529680   181.6405   5   7   2.6251   2.2259   4.7417  -1.4687   2.3133  -2.6356   0.00    0.0
2018/01/07 03:21:00.000   47.480940816   19.056528751   181.7677   5   7   2.6288   2.2316   4.7460  -1.4799   2.3236  -2.6424   0.00    0.0
2018/01/07 03:21:30.000   47.480941668   19.056528757   181.9222   5   7   2.6324   2.2374   4.7498  -1.4908   2.3337  -2.6490   0.00    0.0
2018/01/07 03:22:00.000   47.480943279   19.056527062   181.8179   5   7   2.6359   2.2431   4.7533  -1.5017   2.3435  -2.6553   0.00    0.0
2018/01/07 03:22:30.000   47.480944724   19.056526190   181.6477   5   7   2.6394   2.2488   4.7564  -1.5123   2.3530  -2.6613   0.00    0.0
2018/01/07 03:23:00.000   47.480944915   19.056527077   181.7572   5   7   2.6428   2.2545   4.7591  -1.5228   2.3623  -2.6670   0.00    0.0
2018/01/07 03:23:30.000   47.480942921   19.056531140   182.2076   5   7   2.6461   2.2602   4.7614  -1.5331   2.3713  -2.6724   0.00    0.0
2018/01/07 03:24:00.000   47.480941805   19.056532615   182.2408   5   7   2.6494   2.2659   4.7633  -1.5433   2.3800  -2.6775   0.00    0.0
2018/01/07 03:24:30.000   47.480942074   19.056531342   182.0187   5   7   2.6525   2.2715   4.7648  -1.5533   2.3885  -2.6823   0.00    0.0
2018/01/07 03:25:00.000   47.480941634   19.056530064   181.6555   5   7   2.6556   2.2771   4.7658  -1.5631   2.3967  -2.6869   0.00    0.0
2018/01/07 03:25:30.000   47.480939331   19.056534114   182.0494   5   8   2.1416   1.5304   3.1969   0.4413  -0.4537  -1.2932   0.00    0.0
2018/01/07 03:26:00.000   47.480940996   19.056533627   181.6805   5   8   2.1397   1.5293   3.1984   0.4368  -0.4439  -1.2919   0.00    0.0
2018/01/07 03:26:30.000   47.480943315   19.056533455   181.2536   5   8   2.1378   1.5283   3.1998   0.4322  -0.4338  -1.2906   0.00    0.0
2018/01/07 03:27:00.000   47.480944416   19.056534847   181.0614   5   8   2.1360   1.5273   3.2013   0.4275  -0.4232  -1.2892   0.00    0.0
2018/01/07 03:27:30.000   47.480945063   19.056535273   181.1736   5   8   2.1342   1.5264   3.2027   0.4227  -0.4121  -1.2879   0.00    0.0
2018/01/07 03:28:00.000   47.480946040   19.056535498   181.5020   5   8   2.1323   1.5255   3.2042   0.4178  -0.4006  -1.2866   0.00    0.0
2018/01/07 03:28:30.000   47.480946552   19.056537000   181.7968   5   8   2.1305   1.5247   3.2056   0.4128  -0.3886  -1.2853   0.00    0.0
2018/01/07 03:29:00.000   47.480948137   19.056537015   181.8281   5   8   2.1287   1.5239   3.2071   0.4077  -0.3760  -1.2840   0.00    0.0
2018/01/07 03:29:30.000   47.480949258   19.056536403   181.5716   5   8   2.1269   1.5232   3.2085   0.4026  -0.3627  -1.2827   0.00    0.0
2018/01/07 03:30:00.000   47.480949851   19.056535228   181.1829   5   8   2.1252   1.5225   3.2099   0.3973  -0.3488  -1.2814   0.00    0.0
