% program   : RTKLIB ver.demo5 b31
% inp file  : 2018/obs/bute0070.18d
% inp file  : 2018/obs/brdc0070.18n
% obs start : 2018/01/07 00:00:00.0 GPST (week1983      0.0s)
% obs end   : 2018/01/07 23:59:30.0 GPST (week1983  86370.0s)
% pos mode  : single
% elev mask : 10.0 deg
% ionos opt : broadcast
% tropo opt : saastamoinen
% ephemeris : broadcast
%
% (lat/lon/height=WGS84/ellipsoidal,Q=1:fix,2:float,3:sbas,4:dgps,5:single,6:ppp,ns=# of satellites)
%  GPST                  latitude(deg) longitude(deg)  height(m)   Q  ns   sdn(m)   sde(m)   sdu(m)  sdne(m)  sdeu(m)  sdun(m) age(s)  ratio
2018/01/07 00:00:00.000   47.480951615   19.056531648   177.7923   5   9   1.9157   1.7319   4.2401   0.2923   1.2393  -1.3021   0.00    0.0
2018/01/07 00:00:30.000   47.480952995   19.056531762   177.8454   5   9   1.9167   1.7338   4.2323   0.2789   1.2438  -1.3079   0.00    0.0
2018/01/07 00:01:00.000   47.480953395   19.056532484   177.9706   5   9   1.9179   1.7358   4.2244   0.2648   1.2483  -1.3135   0.00    0.0
2018/01/07 00:01:30.000   47.480953589   19.056532267   178.2396   5   9   1.9190   1.7378   4.2163   0.2499   1.2526  -1.3189   0.00    0.0
2018/01/07 00:02:00.000   47.480953610   19.056530877   178.4121   5   9   1.9202   1.7398   4.2081   0.2340   1.2569  -1.3243   0.00    0.0
2018/01/07 00:02:30.000   47.480953952   19.056529883   178.1951   5   9   1.9214   1.7418   4.1998   0.2170   1.2611  -1.3294   0.00    0.0
2018/01/07 00:03:00.000   47.480953578   19.056530898   178.2275   5   9   1.9227   1.7439   4.1913   0.1984   1.2652  -1.3345   0.00    0.0
2018/01/07 00:03:30.000   47.480953382   19.056532200   178.2122   5   9   1.9240   1.7460   4.1826   0.1779   1.2692  -1.3393   0.00    0.0
2018/01/07 00:04:00.000   47.480953622   19.056532702   178.4066   5   9   1.9254   1.7481   4.1739   0.1547   1.2731  -1.3441   0.00    0.0
2018/01/07 00:04:30.000   47.480953165   19.056534130   178.4692   5   9   1.9267   1.7502   4.1650   0.1273   1.2770  -1.3487   0.00    0.0
2018/01/07 00:05:00.000   47.480952849   19.056535029   178.2649   5   9   1.9282   1.7523   4.1560   0.0920   1.2808  -1.3532   0.00    0.0
2018/01/07 00:05:30.000   47.480952362   19.056535544   178.0708   5   9   1.9296   1.7545   4.1469   0.0265   1.2845  -1.3575   0.00    0.0
2018/01/07 00:06:00.000   47.480951480   19.056535133   178.0912   5   9   1.9311   1.7567   4.1377  -0.0840   1.2882  -1.3617   0.00    0.0
2018/01/07 00:06:30.000   47.480950194   19.056537801   178.7754   5  10   1.8975   1.5226   3.5872   0.5550  -0.3615  -1.0565   0.00    0.0
2018/01/07 00:07:00.000   47.480950083   19.056535989   178.6820   5  10   1.8982   1.5228   3.5817   0.5529  -0.3489  -1.0589   0.00    0.0
2018/01/07 00:07:30.000   47.480949680   19.056534938   178.4571   5  10   1.8990   1.5231   3.5760   0.5508  -0.3358  -1.0612   0.00    0.0
2018/01/07 00:08:00.000   47.480950089   19.056532484   177.9945   5  10   1.8998   1.5234   3.5703   0.5486  -0.3220  -1.0634   0.00    0.0
2018/01/07 00:08:30.000   47.480950197   19.056533106   178.1108   5  10   1.9006   1.5237   3.5646   0.5465  -0.3075  -1.0655   0.00    0.0
2018/01/07 00:09:00.000   47.480950153   19.056534709   178.3589   5  10   1.9014   1.5241   3.5589   0.5444  -0.2922  -1.0675   0.00    0.0
2018/01/07 00:09:30.000   47.480950950   19.056535654   178.7103   5  10   1.9022   1.5244   3.5530   0.5422  -0.2760  -1.0695   0.00    0.0
2018/01/07 00:10:00.000   47.480951936   19.056535834   178.6605   5  10   1.9031   1.5248   3.5472   0.5401  -0.2587  -1.0714   0.00    0.0
2018/01/07 00:10:30.000   47.480953209   19.056535712   178.3381   5  10   1.9040   1.5253   3.5413   0.5379  -0.2401  -1.0732   0.00    0.0
2018/01/07 00:11:00.000   47.480953424   19.056536657   178.1336   5  10   1.9050   1.5257   3.5354   0.5357  -0.2198  -1.0750   0.00    0.0
2018/01/07 00:11:30.000   47.480953479   19.056537238   178.1924   5  10   1.9060   1.5262   3.5294   0.5336  -0.1975  -1.0766   0.00    0.0
2018/01/07 00:12:00.000   47.480953110   19.056536291   178.6313   5  10   1.9070   1.5267   3.5234   0.5314  -0.1721  -1.0782   0.00    0.0
2018/01/07 00:12:30.000   47.480953288   19.056534064   178.9344   5  10   1.9080   1.5272   3.5174   0.5291  -0.1422  -1.0797   0.00    0.0
2018/01/07 00:13:00.000   47.480954196   19.056531365   178.7897   5  10   1.9091   1.5278   3.5114   0.5269  -0.1040  -1.0812   0.00    0.0
2018/01/07 00:13:30.000   47.480954061   19.056530278   178.4431   5  10   1.9102   1.5284   3.5053   0.5247  -0.0373  -1.0825   0.00    0.0
2018/01/07 00:14:00.000   47.480953781   19.056531917   178.3896   5  10   1.9113   1.5290   3.4992   0.5224   0.0897  -1.0838   0.00    0.0
2018/01/07 00:14:30.000   47.480952380   19.056534615   178.6229   5  10   1.9124   1.5296   3.4931   0.5202   0.1323  -1.0850   0.00    0.0
2018/01/07 00:15:00.000   47.480950985   19.056536304   178.7918   5  10   1.9136   1.5303   3.4870   0.5179   0.1642  -1.0862   0.00    0.0
2018/01/07 00:15:30.000   47.480950043   19.056536583   178.7074   5  10   1.9148   1.5310   3.4808   0.5156   0.1909  -1.0872   0.00    0.0
2018/01/07 00:16:00.000   47.480950431   19.056535241   178.5898   5  10   1.9160   1.5317   3.4746   0.5133   0.2143  -1.0882   0.00    0.0
2018/01/07 00:16:30.000   47.480951275   19.056532700   178.4863   5  10   1.9173   1.5324   3.4685   0.5110   0.2354  -1.0891   0.00    0.0
2018/01/07 00:17:00.000   47.480951822   19.056530543   178.4029   5  10   1.9186   1.5332   3.4623   0.5087   0.2547  -1.0900   0.00    0.0
2018/01/07 00:17:30.000   47.480951024   19.056530419   178.6505   5  10   1.9199   1.5340   3.4561   0.5064   0.2727  -1.0907   0.00    0.0
2018/01/07 00:18:00.000   47.480950108   19.056531999   178.8646   5  10   1.9213   1.5348   3.4499   0.5040   0.2896  -1.0914   0.00    0.0
2018/01/07 00:18:30.000   47.480949348   19.056532678   178.7651   5  10   1.9227   1.5357   3.4437   0.5016   0.3055  -1.0920   0.00    0.0
2018/01/07 00:19:00.000   47.480950077   19.056532896   178.5184   5  10   1.9241   1.5366   3.4375   0.4993   0.3206  -1.0926   0.00    0.0
2018/01/07 00:19:30.000   47.480951274   19.056533188   178.0321   5  10   1.9255   1.5375   3.4313   0.4969   0.3350  -1.0930   0.00    0.0
2018/01/07 00:20:00.000   47.480951762   19.056534997   177.8785   5  10   1.9270   1.5384   3.4251   0.4944   0.3489  -1.0934   0.00    0.0
2018/01/07 00:20:30.000   47.480951759   19.056536466   178.2244   5  10   1.9285   1.5394   3.4190   0.4920   0.3621  -1.0937   0.00    0.0
2018/01/07 00:21:00.000   47.480950866   19.056537226   178.6883   5  10   1.9301   1.5403   3.4128   0.4896   0.3749  -1.0940   0.00    0.0
2018/01/07 00:21:30.000   47.480950259   19.056536927   178.7314   5  10   1.9317   1.5413   3.4067   0.4871   0.3873  -1.0942   0.00    0.0
2018/01/07 00:22:00.000   47.480950748   19.056536107   178.3622   5  10   1.9333   1.5424   3.4005   0.4846   0.3992  -1.0943   0.00    0.0
2018/01/07 00:22:30.000   47.480951986   19.056534560   177.7395   5  10   1.9349   1.5434   3.3944   0.4821   0.4108  -1.0943   0.00    0.0
2018/01/07 00:23:00.000   47.480951743   19.056535677   177.4639   5  10   1.9366   1.5445   3.3883   0.4796   0.4221  -1.0943   0.00    0.0
2018/01/07 00:23:30.000   47.480951646   19.056536394   177.3660   5  10   1.9383   1.5457   3.3823   0.4770   0.4330  -1.0941   0.00    0.0
2018/01/07 00:24:00.000   47.480951650   19.056537696   177.7102   5  10   1.9400   1.5468   3.3763   0.4745   0.4437  -1.0939   0.00    0.0
2018/01/07 00:24:30.000   47.480952168   19.056537609   178.4999   5   9   2.1156   1.5823   3.6198  -0.2294  -0.4763  -0.2954   0.00    0.0
2018/01/07 00:25:00.000   47.480952498   19.056537205   179.0569   5   9   2.1173   1.5830   3.6155  -0.2306  -0.4644  -0.2888   0.00    0.0
2018/01/07 00:25:30.000   47.480953747   19.056535538   179.0777   5   9   2.1190   1.5837   3.6112  -0.2318  -0.4521  -0.2821   0.00    0.0
2018/01/07 00:26:00.000   47.480954087   19.056534747   178.7615   5   9   2.1208   1.5845   3.6070  -0.2329  -0.4394  -0.2752   0.00    0.0
2018/01/07 00:26:30.000   47.480954702   19.056534521   178.2768   5   9   2.1226   1.5852   3.6027  -0.2339  -0.4263  -0.2681   0.00    0.0
2018/01/07 00:27:00.000   47.480954472   19.056534651   178.0262   5   9   2.1244   1.5860   3.5985  -0.2349  -0.4126  -0.2608   0.00    0.0
2018/01/07 00:27:30.000   47.480954287   19.056534786   177.8019   5   9   2.1262   1.5869   3.5942  -0.2358  -0.3984  -0.2534   0.00    0.0
2018/01/07 00:28:00.000   47.480953366   19.056534775   177.6568   5   9   2.1281   1.5877   3.5900  -0.2367  -0.3836  -0.2457   0.00    0.0
2018/01/07 00:28:30.000   47.480951392   19.056533199   177.6499   5   9   2.1299   1.5886   3.5857  -0.2375  -0.3681  -0.2378   0.00    0.0
2018/01/07 00:29:00.000   47.480950761   19.056530043   177.8198   5   9   2.1318   1.5895   3.5815  -0.2383  -0.3519  -0.2296   0.00    0.0
2018/01/07 00:29:30.000   47.480949570   19.056529484   177.8697   5   9   2.1337   1.5904   3.5773  -0.2390  -0.3347  -0.2211   0.00    0.0
2018/01/07 00:30:00.000   47.480949102   19.056530787   177.8877   5   9   2.1357   1.5914   3.5731  -0.2397  -0.3166  -0.2124   0.00    0.0
2018/01/07 00:30:30.000   47.480949185   19.056532720   177.8841   5   9   2.1377   1.5924   3.5690  -0.2403  -0.2972  -0.2033   0.00    0.0
2018/01/07 00:31:00.000   47.480950889   19.056533584   177.7592   5   9   2.1397   1.5934   3.5648  -0.2408  -0.2764  -0.1938   0.00    0.0
2018/01/07 00:31:30.000   47.480946177   19.056529022   178.7106   5   8   2.7746   1.7137   4.4321   1.0247  -1.3124  -2.1655   0.00    0.0
2018/01/07 00:32:00.000   47.480948546   19.056527717   178.3951   5   8   2.7767   1.7126   4.4287   1.0197  -1.3018  -2.1649   0.00    0.0
2018/01/07 00:32:30.000   47.480947863   19.056526811   178.6418   5   8   2.7786   1.7115   4.4252   1.0147  -1.2911  -2.1642   0.00    0.0
2018/01/07 00:33:00.000   47.480944634   19.056526900   179.2058   5   8   2.7805   1.7104   4.4216   1.0096  -1.2801  -2.1633   0.00    0.0
2018/01/07 00:33:30.000   47.480941773   19.056527029   179.3866   5   8   2.7823   1.7094   4.4179   1.0044  -1.2690  -2.1623   0.00    0.0
2018/01/07 00:34:00.000   47.480940342   19.056526563   179.0260   5   8   2.7841   1.7084   4.4141   0.9991  -1.2576  -2.1611   0.00    0.0
2018/01/07 00:34:30.000   47.480940725   19.056525035   178.5029   5   8   2.7857   1.7074   4.4102   0.9937  -1.2461  -2.1597   0.00    0.0
2018/01/07 00:35:00.000   47.480942162   19.056524161   178.2985   5   8   2.7873   1.7065   4.4063   0.9882  -1.2343  -2.1582   0.00    0.0
2018/01/07 00:35:30.000   47.480941578   19.056524674   178.8076   5   8   2.7889   1.7056   4.4023   0.9826  -1.2223  -2.1565   0.00    0.0
2018/01/07 00:36:00.000   47.480940700   19.056525033   179.1010   5   8   2.7904   1.7048   4.3983   0.9770  -1.2101  -2.1547   0.00    0.0
2018/01/07 00:36:30.000   47.480940290   19.056524006   179.0850   5   8   2.7917   1.7039   4.3942   0.9712  -1.1977  -2.1527   0.00    0.0
2018/01/07 00:37:00.000   47.480941684   19.056523108   179.0194   5   8   2.7931   1.7032   4.3900   0.9653  -1.1850  -2.1505   0.00    0.0
2018/01/07 00:37:30.000   47.480942456   19.056523072   178.8300   5   8   2.7943   1.7024   4.3858   0.9594  -1.1721  -2.1482   0.00    0.0
2018/01/07 00:38:00.000   47.480944354   19.056524249   178.7010   5   8   2.7955   1.7017   4.3815   0.9533  -1.1590  -2.1457   0.00    0.0
2018/01/07 00:38:30.000   47.480945733   19.056526577   178.4297   5   8   2.7966   1.7011   4.3771   0.9471  -1.1456  -2.1431   0.00    0.0
2018/01/07 00:39:00.000   47.480945628   19.056528850   178.3435   5   8   2.7977   1.7005   4.3728   0.9409  -1.1319  -2.1402   0.00    0.0
2018/01/07 00:39:30.000   47.480944958   19.056529292   178.4989   5   8   2.7986   1.6999   4.3684   0.9345  -1.1180  -2.1373   0.00    0.0
2018/01/07 00:40:00.000   47.480944292   19.056527215   179.0172   5   8   2.7995   1.6994   4.3639   0.9281  -1.1038  -2.1341   0.00    0.0
2018/01/07 00:40:30.000   47.480942385   19.056524796   179.8541   5   8   2.8004   1.6989   4.3595   0.9215  -1.0894  -2.1309   0.00    0.0
2018/01/07 00:41:00.000   47.480941673   19.056525791   180.4349   5   8   2.8011   1.6985   4.3550   0.9149  -1.0746  -2.1274   0.00    0.0
2018/01/07 00:41:30.000   47.480943563   19.056528468   180.2610   5   8   2.8018   1.6981   4.3505   0.9081  -1.0596  -2.1238   0.00    0.0
2018/01/07 00:42:00.000   47.480941492   19.056529481   179.3818   5   9   2.5729   1.6977   4.1905   0.8908  -1.0535  -2.4030   0.00    0.0
2018/01/07 00:42:30.000   47.480940954   19.056525902   178.5037   5   8   2.6975   1.8147   4.3999   1.1423  -0.4637  -2.1566   0.00    0.0
2018/01/07 00:43:00.000   47.480941062   19.056524196   178.3047   5   8   2.6916   1.8140   4.4066   1.1325  -0.4110  -2.1499   0.00    0.0
2018/01/07 00:43:30.000   47.480940520   19.056521597   178.2732   5   8   2.6858   1.8133   4.4134   1.1227  -0.3499  -2.1430   0.00    0.0
2018/01/07 00:44:00.000   47.480940153   19.056519850   178.6933   5   8   2.6799   1.8128   4.4204   1.1128  -0.2749  -2.1360   0.00    0.0
2018/01/07 00:44:30.000   47.480939451   19.056520333   179.1919   5   8   2.6741   1.8123   4.4274   1.1029  -0.1685  -2.1289   0.00    0.0
2018/01/07 00:45:00.000   47.480940132   19.056520900   179.1890   5   8   2.6682   1.8119   4.4346   1.0930   0.1386  -2.1217   0.00    0.0
2018/01/07 00:45:30.000   47.480942195   19.056520526   178.8564   5   8   2.6622   1.8116   4.4419   1.0830   0.2591  -2.1143   0.00    0.0
2018/01/07 00:46:00.000   47.480943180   19.056522061   178.8104   5   8   2.6563   1.8114   4.4493   1.0730   0.3398  -2.1069   0.00    0.0
2018/01/07 00:46:30.000   47.480943730   19.056522703   178.7108   5   8   2.6504   1.8113   4.4569   1.0629   0.4052  -2.0994   0.00    0.0
2018/01/07 00:47:00.000   47.480943532   19.056523269   178.7438   5   8   2.6444   1.8112   4.4646   1.0528   0.4618  -2.0917   0.00    0.0
2018/01/07 00:47:30.000   47.480941782   19.056524390   179.0227   5   8   2.6385   1.8113   4.4725   1.0426   0.5125  -2.0840   0.00    0.0
2018/01/07 00:48:00.000   47.480941894   19.056523646   178.7418   5   8   2.6325   1.8115   4.4804   1.0324   0.5591  -2.0761   0.00    0.0
2018/01/07 00:48:30.000   47.480942026   19.056524742   178.6040   5   8   2.6265   1.8117   4.4885   1.0221   0.6023  -2.0682   0.00    0.0
2018/01/07 00:49:00.000   47.480940681   19.056527204   178.4128   5   8   2.6205   1.8121   4.4968   1.0118   0.6430  -2.0601   0.00    0.0
2018/01/07 00:49:30.000   47.480939934   19.056528273   178.2367   5   8   2.6146   1.8125   4.5051   1.0015   0.6815  -2.0520   0.00    0.0
2018/01/07 00:50:00.000   47.480938810   19.056528330   178.3405   5   8   2.6086   1.8130   4.5137   0.9911   0.7182  -2.0437   0.00    0.0
2018/01/07 00:50:30.000   47.480938703   19.056529216   178.6401   5   8   2.6026   1.8137   4.5223   0.9807   0.7534  -2.0354   0.00    0.0
2018/01/07 00:51:00.000   47.480940580   19.056529130   179.0184   5   8   2.5966   1.8144   4.5311   0.9702   0.7873  -2.0270   0.00    0.0
2018/01/07 00:51:30.000   47.480941093   19.056529779   179.1642   5   8   2.5906   1.8152   4.5400   0.9597   0.8200  -2.0185   0.00    0.0
2018/01/07 00:52:00.000   47.480942175   19.056529647   178.9496   5   8   2.5847   1.8161   4.5491   0.9491   0.8518  -2.0099   0.00    0.0
2018/01/07 00:52:30.000   47.480942245   19.056528458   178.6650   5   8   2.5787   1.8172   4.5583   0.9385   0.8826  -2.0012   0.00    0.0
2018/01/07 00:53:00.000   47.480942022   19.056527241   178.6107   5   8   2.5728   1.8183   4.5677   0.9279   0.9126  -1.9924   0.00    0.0
2018/01/07 00:53:30.000   47.480942555   19.056525632   178.4181   5   8   2.5668   1.8195   4.5772   0.9172   0.9419  -1.9836   0.00    0.0
2018/01/07 00:54:00.000   47.480942614   19.056525282   178.2557   5   8   2.5609   1.8208   4.5869   0.9064   0.9705  -1.9747   0.00    0.0
2018/01/07 00:54:30.000   47.480942695   19.056526588   178.2032   5   8   2.5550   1.8223   4.5967   0.8956   0.9985  -1.9657   0.00    0.0
2018/01/07 00:55:00.000   47.480943203   19.056528498   178.3489   5   8   2.5491   1.8238   4.6066   0.8848   1.0260  -1.9566   0.00    0.0
2018/01/07 00:55:30.000   47.480943509   19.056528836   178.4330   5   8   2.5432   1.8254   4.6167   0.8739   1.0530  -1.9474   0.00    0.0
2018/01/07 00:56:00.000   47.480943026   19.056528441   178.7757   5   8   2.5373   1.8272   4.6270   0.8629   1.0795  -1.9381   0.00    0.0
2018/01/07 00:56:30.000   47.480942834   19.056527613   178.9555   5   8   2.5315   1.8290   4.6374   0.8519   1.1055  -1.9288   0.00    0.0
2018/01/07 00:57:00.000   47.480942629   19.056526278   178.8038   5   8   2.5256   1.8310   4.6479   0.8409   1.1312  -1.9194   0.00    0.0
2018/01/07 00:57:30.000   47.480942339   19.056527017   178.8737   5   8   2.5198   1.8330   4.6586   0.8297   1.1565  -1.9100   0.00    0.0
2018/01/07 00:58:00.000   47.480940195   19.056527755   179.0102   5   8   2.5141   1.8352   4.6695   0.8185   1.1815  -1.9004   0.00    0.0
2018/01/07 00:58:30.000   47.480938217   19.056527739   179.0993   5   8   2.5083   1.8374   4.6805   0.8073   1.2061  -1.8908   0.00    0.0
2018/01/07 00:59:00.000   47.480937339   19.056526474   178.8266   5   8   2.5026   1.8398   4.6916   0.7960   1.2305  -1.8811   0.00    0.0
2018/01/07 00:59:30.000   47.480937863   19.056525609   178.6444   5   8   2.4969   1.8423   4.7029   0.7846   1.2545  -1.8714   0.00    0.0
2018/01/07 01:00:00.000   47.480939781   19.056524505   178.7680   5   8   2.4912   1.8449   4.7143   0.7731   1.2783  -1.8615   0.00    0.0
2018/01/07 01:00:30.000   47.480940192   19.056525771   178.8157   5   8   2.4856   1.8475   4.7259   0.7616   1.3019  -1.8516   0.00    0.0
2018/01/07 01:01:00.000   47.480940340   19.056528142   178.9806   5   8   2.4800   1.8503   4.7376   0.7500   1.3252  -1.8417   0.00    0.0
2018/01/07 01:01:30.000   47.480940405   19.056528799   178.8557   5   8   2.4744   1.8532   4.7495   0.7383   1.3483  -1.8316   0.00    0.0
2018/01/07 01:02:00.000   47.480940665   19.056525999   178.4643   5   8   2.4689   1.8563   4.7615   0.7266   1.3712  -1.8216   0.00    0.0
2018/01/07 01:02:30.000   47.480939142   19.056524352   178.2335   5   8   2.4634   1.8594   4.7736   0.7147   1.3939  -1.8114   0.00    0.0
2018/01/07 01:03:00.000   47.480938189   19.056523093   177.9462   5   8   2.4579   1.8626   4.7859   0.7027   1.4164  -1.8012   0.00    0.0
2018/01/07 01:03:30.000   47.480937749   19.056523219   177.8098   5   8   2.4525   1.8660   4.7983   0.6907   1.4388  -1.7909   0.00    0.0
2018/01/07 01:04:00.000   47.480936915   19.056525787   178.0734   5   8   2.4471   1.8694   4.8109   0.6785   1.4610  -1.7806   0.00    0.0
2018/01/07 01:04:30.000   47.480938050   19.056527299   178.3411   5   8   2.4418   1.8730   4.8236   0.6662   1.4830  -1.7702   0.00    0.0
2018/01/07 01:05:00.000   47.480940714   19.056526893   178.3132   5   8   2.4365   1.8767   4.8364   0.6538   1.5049  -1.7597   0.00    0.0
2018/01/07 01:05:30.000   47.480943002   19.056527677   178.6902   5   8   2.4313   1.8804   4.8494   0.6413   1.5266  -1.7492   0.00    0.0
2018/01/07 01:06:00.000   47.480944708   19.056529235   179.1787   5   8   2.4260   1.8843   4.8624   0.6286   1.5482  -1.7386   0.00    0.0
2018/01/07 01:06:30.000   47.480945366   19.056528772   179.3064   5   8   2.4209   1.8883   4.8757   0.6158   1.5696  -1.7280   0.00    0.0
2018/01/07 01:07:00.000   47.480945218   19.056528455   179.2287   5   8   2.4158   1.8925   4.8890   0.6028   1.5910  -1.7173   0.00    0.0
2018/01/07 01:07:30.000   47.480944256   19.056527498   178.7408   5   8   2.4107   1.8967   4.9024   0.5896   1.6122  -1.7066   0.00    0.0
2018/01/07 01:08:00.000   47.480942982   19.056526162   178.2156   5   8   2.4057   1.9010   4.9160   0.5763   1.6333  -1.6958   0.00    0.0
2018/01/07 01:08:30.000   47.480941378   19.056526077   177.8305   5   8   2.4007   1.9055   4.9297   0.5627   1.6543  -1.6850   0.00    0.0
2018/01/07 01:09:00.000   47.480940641   19.056528915   178.0348   5   8   2.3958   1.9100   4.9434   0.5490   1.6752  -1.6741   0.00    0.0
2018/01/07 01:09:30.000   47.480940949   19.056530591   178.2613   5   8   2.3910   1.9147   4.9573   0.5350   1.6960  -1.6632   0.00    0.0
2018/01/07 01:10:00.000   47.480943337   19.056527396   178.1096   5   8   2.3861   1.9194   4.9713   0.5207   1.7167  -1.6522   0.00    0.0
2018/01/07 01:10:30.000   47.480944524   19.056523886   178.2036   5   8   2.3814   1.9243   4.9854   0.5062   1.7373  -1.6411   0.00    0.0
2018/01/07 01:11:00.000   47.480944819   19.056521337   178.4888   5   8   2.3767   1.9293   4.9996   0.4914   1.7577  -1.6301   0.00    0.0
2018/01/07 01:11:30.000   47.480944721   19.056520952   178.8599   5   8   2.3720   1.9344   5.0138   0.4762   1.7781  -1.6190   0.00    0.0
2018/01/07 01:12:00.000   47.480943573   19.056522803   179.1791   5   8   2.3675   1.9396   5.0281   0.4606   1.7984  -1.6078   0.00    0.0
2018/01/07 01:12:30.000   47.480943756   19.056522197   178.8279   5   8   2.3629   1.9449   5.0425   0.4446   1.8186  -1.5966   0.00    0.0
2018/01/07 01:13:00.000   47.480942991   19.056522138   178.5653   5   8   2.3585   1.9503   5.0570   0.4282   1.8387  -1.5854   0.00    0.0
2018/01/07 01:13:30.000   47.480941724   19.056523038   178.7738   5   8   2.3540   1.9558   5.0715   0.4112   1.8587  -1.5741   0.00    0.0
2018/01/07 01:14:00.000   47.480942042   19.056522114   178.7971   5   8   2.3497   1.9614   5.0861   0.3936   1.8787  -1.5628   0.00    0.0
2018/01/07 01:14:30.000   47.480942096   19.056523382   179.0047   5   8   2.3454   1.9671   5.1008   0.3753   1.8985  -1.5515   0.00    0.0
2018/01/07 01:15:00.000   47.480942124   19.056524904   179.0438   5   8   2.3411   1.9729   5.1154   0.3563   1.9182  -1.5401   0.00    0.0
2018/01/07 01:15:30.000   47.480942672   19.056524285   178.8020   5   8   2.3370   1.9788   5.1301   0.3362   1.9379  -1.5287   0.00    0.0
2018/01/07 01:16:00.000   47.480941637   19.056524460   178.7953   5   8   2.3329   1.9848   5.1449   0.3150   1.9574  -1.5173   0.00    0.0
2018/01/07 01:16:30.000   47.480940572   19.056526141   179.0895   5   8   2.3288   1.9909   5.1596   0.2925   1.9769  -1.5059   0.00    0.0
2018/01/07 01:17:00.000   47.480941808   19.056526004   178.8282   5   8   2.3248   1.9972   5.1744   0.2681   1.9963  -1.4945   0.00    0.0
2018/01/07 01:17:30.000   47.480943254   19.056526775   178.4896   5   8   2.3209   2.0035   5.1892   0.2415   2.0155  -1.4830   0.00    0.0
2018/01/07 01:18:00.000   47.480944026   19.056527578   178.1087   5   8   2.3170   2.0098   5.2039   0.2117   2.0347  -1.4715   0.00    0.0
2018/01/07 01:18:30.000   47.480944429   19.056527495   177.8381   5   8   2.3132   2.0163   5.2187   0.1772   2.0537  -1.4600   0.00    0.0
2018/01/07 01:19:00.000   47.480944317   19.056527592   177.8660   5   8   2.3095   2.0229   5.2334   0.1342   2.0727  -1.4486   0.00    0.0
2018/01/07 01:19:30.000   47.480943652   19.056527116   177.9894   5   8   2.3058   2.0296   5.2481   0.0683   2.0915  -1.4371   0.00    0.0
2018/01/07 01:20:00.000   47.480943244   19.056525163   178.1390   5   8   2.3022   2.0363   5.2627  -0.0929   2.1103  -1.4256   0.00    0.0
2018/01/07 01:20:30.000   47.480943645   19.056524474   178.1822   5   8   2.2987   2.0431   5.2773  -0.1479   2.1289  -1.4141   0.00    0.0
2018/01/07 01:21:00.000   47.480944462   19.056523921   178.0623   5   8   2.2952   2.0500   5.2918  -0.1873   2.1474  -1.4026   0.00    0.0
2018/01/07 01:21:30.000   47.480945645   19.056522457   177.5633   5   8   2.2918   2.0570   5.3063  -0.2197   2.1657  -1.3912   0.00    0.0
2018/01/07 01:22:00.000   47.480946450   19.056523010   177.3350   5   8   2.2885   2.0641   5.3207  -0.2479   2.1840  -1.3798   0.00    0.0
2018/01/07 01:22:30.000   47.480947291   19.056521379   177.0112   5   8   2.2852   2.0713   5.3350  -0.2731   2.2021  -1.3684   0.00    0.0
2018/01/07 01:23:00.000   47.480947904   19.056520713   176.9375   5   8   2.2820   2.0785   5.3491  -0.2962   2.2201  -1.3570   0.00    0.0
2018/01/07 01:23:30.000   47.480947949   19.056522774   177.0530   5   8   2.2789   2.0858   5.3632  -0.3176   2.2379  -1.3456   0.00    0.0
2018/01/07 01:24:00.000   47.480948204   19.056524520   177.2032   5   8   2.2758   2.0931   5.3771  -0.3377   2.2556  -1.3343   0.00    0.0
2018/01/07 01:24:30.000   47.480947953   19.056524941   177.3269   5   8   2.2728   2.1005   5.3909  -0.3566   2.2731  -1.3231   0.00    0.0
2018/01/07 01:25:00.000   47.480945715   19.056525400   177.7241   5   8   2.2699   2.1080   5.4045  -0.3747   2.2905  -1.3119   0.00    0.0
2018/01/07 01:25:30.000   47.480944338   19.056522617   177.8968   5   9   2.2071   2.1018   4.8201  -0.5276   2.4335  -0.6411   0.00    0.0
2018/01/07 01:26:00.000   47.480944895   19.056520126   177.7950   5   9   2.2048   2.1098   4.8362  -0.5380   2.4480  -0.6237   0.00    0.0
2018/01/07 01:26:30.000   47.480946018   19.056519860   177.7368   5   9   2.2025   2.1178   4.8520  -0.5482   2.4624  -0.6062   0.00    0.0
2018/01/07 01:27:00.000   47.480946894   19.056519781   177.7335   5   9   2.2003   2.1259   4.8678  -0.5584   2.4766  -0.5884   0.00    0.0
2018/01/07 01:27:30.000   47.480947214   19.056522106   177.9075   5   9   2.1981   2.1340   4.8834  -0.5685   2.4908  -0.5705   0.00    0.0
2018/01/07 01:28:00.000   47.480947247   19.056523956   177.9988   5   9   2.1960   2.1421   4.8988  -0.5786   2.5048  -0.5523   0.00    0.0
2018/01/07 01:28:30.000   47.480946742   19.056523249   177.6123   5   9   2.1939   2.1503   4.9141  -0.5885   2.5187  -0.5340   0.00    0.0
2018/01/07 01:29:00.000   47.480947261   19.056519986   177.1130   5   9   2.1919   2.1585   4.9292  -0.5985   2.5324  -0.5153   0.00    0.0
2018/01/07 01:29:30.000   47.480947644   19.056517960   176.9322   5   9   2.1900   2.1667   4.9440  -0.6084   2.5460  -0.4965   0.00    0.0
2018/01/07 01:30:00.000   47.480947008   19.056518557   176.9627   5   9   2.1881   2.1749   4.9587  -0.6182   2.5594  -0.4774   0.00    0.0
2018/01/07 01:30:30.000   47.480946013   19.056520715   177.0286   5   9   2.1863   2.1831   4.9731  -0.6281   2.5727  -0.4579   0.00    0.0
2018/01/07 01:31:00.000   47.480945919   19.056522560   177.1681   5   9   2.1845   2.1913   4.9873  -0.6379   2.5858  -0.4382   0.00    0.0
2018/01/07 01:31:30.000   47.480946803   19.056523721   177.2082   5   9   2.1828   2.1996   5.0013  -0.6477   2.5988  -0.4182   0.00    0.0
2018/01/07 01:32:00.000   47.480947871   19.056524400   177.3144   5   9   2.1812   2.2078   5.0149  -0.6575   2.6115  -0.3977   0.00    0.0
2018/01/07 01:32:30.000   47.480948367   19.056522946   177.3023   5   9   2.1796   2.2161   5.0283  -0.6673   2.6241  -0.3768   0.00    0.0
2018/01/07 01:33:00.000   47.480947423   19.056522288   177.0642   5   9   2.1781   2.2243   5.0414  -0.6772   2.6364  -0.3554   0.00    0.0
2018/01/07 01:33:30.000   47.480945157   19.056523669   176.9193   5   9   2.1766   2.2326   5.0542  -0.6870   2.6486  -0.3335   0.00    0.0
2018/01/07 01:34:00.000   47.480943162   19.056526981   177.1249   5   8   2.2268   2.2508   5.7099  -0.7658   2.5537   1.0763   0.00    0.0
2018/01/07 01:34:30.000   47.480941885   19.056530175   177.5308   5   8   2.2277   2.2581   5.7375  -0.7734   2.5691   1.1033   0.00    0.0
2018/01/07 01:35:00.000   47.480941606   19.056529394   177.7521   5   8   2.2287   2.2655   5.7649  -0.7810   2.5844   1.1297   0.00    0.0
2018/01/07 01:35:30.000   47.480942057   19.056525221   177.8007   5   8   2.2298   2.2729   5.7919  -0.7885   2.5994   1.1554   0.00    0.0
2018/01/07 01:36:00.000   47.480943056   19.056520253   177.5912   5   8   2.2310   2.2803   5.8187  -0.7961   2.6143   1.1805   0.00    0.0
2018/01/07 01:36:30.000   47.480942785   19.056520898   177.5290   5   8   2.2323   2.2877   5.8452  -0.8036   2.6289   1.2051   0.00    0.0
2018/01/07 01:37:00.000   47.480941975   19.056524187   177.5857   5   8   2.2337   2.2952   5.8712  -0.8112   2.6434   1.2291   0.00    0.0
2018/01/07 01:37:30.000   47.480943009   19.056526488   177.5944   5   8   2.2352   2.3026   5.8969  -0.8188   2.6576   1.2525   0.00    0.0
2018/01/07 01:38:00.000   47.480945038   19.056526741   177.6756   5   8   2.2368   2.3101   5.9221  -0.8264   2.6715   1.2755   0.00    0.0
2018/01/07 01:38:30.000   47.480946911   19.056525461   177.5187   5   8   2.2384   2.3176   5.9469  -0.8341   2.6852   1.2978   0.00    0.0
2018/01/07 01:39:00.000   47.480947717   19.056524514   177.6291   5   8   2.2402   2.3250   5.9712  -0.8418   2.6985   1.3197   0.00    0.0
2018/01/07 01:39:30.000   47.480947997   19.056524586   177.2693   5   8   2.2420   2.3325   5.9949  -0.8496   2.7116   1.3410   0.00    0.0
2018/01/07 01:40:00.000   47.480947013   19.056526256   177.0361   5   8   2.2439   2.3399   6.0181  -0.8575   2.7244   1.3617   0.00    0.0
2018/01/07 01:40:30.000   47.480946135   19.056527187   176.7422   5   8   2.2459   2.3474   6.0407  -0.8654   2.7368   1.3820   0.00    0.0
2018/01/07 01:41:00.000   47.480945026   19.056530150   177.0694   5   9   2.2181   1.7050   4.3451  -0.4119   0.8305   1.8733   0.00    0.0
2018/01/07 01:41:30.000   47.480944568   19.056529507   177.3690   5   9   2.2202   1.7058   4.3623  -0.4234   0.8317   1.8897   0.00    0.0
2018/01/07 01:42:00.000   47.480942810   19.056528968   177.1227   5   9   2.2223   1.7066   4.3795  -0.4346   0.8329   1.9058   0.00    0.0
2018/01/07 01:42:30.000   47.480941639   19.056527358   176.4349   5   9   2.2244   1.7075   4.3967  -0.4455   0.8341   1.9218   0.00    0.0
2018/01/07 01:43:00.000   47.480941992   19.056526401   175.8420   5   9   2.2266   1.7084   4.4138  -0.4561   0.8353   1.9376   0.00    0.0
2018/01/07 01:43:30.000   47.480943018   19.056525424   175.9477   5   9   2.2288   1.7094   4.4308  -0.4665   0.8366   1.9531   0.00    0.0
2018/01/07 01:44:00.000   47.480944123   19.056524063   176.1215   5   9   2.2310   1.7103   4.4477  -0.4767   0.8378   1.9684   0.00    0.0
2018/01/07 01:44:30.000   47.480945024   19.056525021   176.6173   5   9   2.2332   1.7114   4.4645  -0.4866   0.8391   1.9835   0.00    0.0
2018/01/07 01:45:00.000   47.480945105   19.056527331   176.5992   5   9   2.2355   1.7124   4.4812  -0.4964   0.8404   1.9984   0.00    0.0
2018/01/07 01:45:30.000   47.480945317   19.056528184   176.4214   5   9   2.2377   1.7135   4.4977  -0.5059   0.8417   2.0130   0.00    0.0
2018/01/07 01:46:00.000   47.480945373   19.056527268   176.0860   5   9   2.2400   1.7147   4.5141  -0.5153   0.8430   2.0273   0.00    0.0
2018/01/07 01:46:30.000   47.480945798   19.056525134   176.2989   5   9   2.2423   1.7158   4.5302  -0.5245   0.8443   2.0414   0.00    0.0
2018/01/07 01:47:00.000   47.480946630   19.056521478   176.9944   5   9   2.2445   1.7171   4.5462  -0.5336   0.8457   2.0552   0.00    0.0
2018/01/07 01:47:30.000   47.480946668   19.056520282   177.2352   5   9   2.2468   1.7183   4.5620  -0.5425   0.8470   2.0687   0.00    0.0
2018/01/07 01:48:00.000   47.480946404   19.056520466   177.5727   5   9   2.2490   1.7196   4.5775  -0.5513   0.8484   2.0820   0.00    0.0
2018/01/07 01:48:30.000   47.480945655   19.056524590   177.8073   5   9   2.2512   1.7210   4.5928  -0.5599   0.8498   2.0949   0.00    0.0
2018/01/07 01:49:00.000   47.480945139   19.056528290   177.9220   5   9   2.2534   1.7223   4.6078  -0.5684   0.8512   2.1075   0.00    0.0
2018/01/07 01:49:30.000   47.480945653   19.056527341   177.6548   5   9   2.2555   1.7237   4.6226  -0.5768   0.8526   2.1198   0.00    0.0
2018/01/07 01:50:00.000   47.480947012   19.056523070   177.3778   5   9   2.2576   1.7252   4.6370  -0.5851   0.8540   2.1318   0.00    0.0
2018/01/07 01:50:30.000   47.480946981   19.056520931   177.4061   5   9   2.2597   1.7267   4.6511  -0.5932   0.8554   2.1435   0.00    0.0
2018/01/07 01:51:00.000   47.480946496   19.056521630   177.3823   5   9   2.2617   1.7282   4.6648  -0.6013   0.8569   2.1548   0.00    0.0
2018/01/07 01:51:30.000   47.480946470   19.056523329   177.6877   5   9   2.2637   1.7297   4.6782  -0.6092   0.8584   2.1657   0.00    0.0
2018/01/07 01:52:00.000   47.480947625   19.056523350   178.0527   5   9   2.2656   1.7313   4.6912  -0.6171   0.8599   2.1763   0.00    0.0
2018/01/07 01:52:30.000   47.480948662   19.056524733   178.3698   5   9   2.2674   1.7329   4.7038  -0.6248   0.8614   2.1865   0.00    0.0
2018/01/07 01:53:00.000   47.480950003   19.056525734   178.5421   5   9   2.2692   1.7346   4.7160  -0.6325   0.8629   2.1963   0.00    0.0
2018/01/07 01:53:30.000   47.480950621   19.056524983   178.6009   5   9   2.2709   1.7363   4.7278  -0.6401   0.8645   2.2057   0.00    0.0
2018/01/07 01:54:00.000   47.480949229   19.056523693   178.1102   5   9   2.2726   1.7380   4.7391  -0.6476   0.8660   2.2147   0.00    0.0
2018/01/07 01:54:30.000   47.480947219   19.056521154   177.4846   5   9   2.2741   1.7398   4.7499  -0.6550   0.8676   2.2233   0.00    0.0
2018/01/07 01:55:00.000   47.480945890   19.056520515   177.6134   5   9   2.2756   1.7416   4.7603  -0.6623   0.8693   2.2315   0.00    0.0
2018/01/07 01:55:30.000   47.480946540   19.056522051   177.9060   5   9   2.2770   1.7434   4.7702  -0.6696   0.8709   2.2392   0.00    0.0
2018/01/07 01:56:00.000   47.480948137   19.056523721   178.3241   5   9   2.2782   1.7453   4.7795  -0.6768   0.8726   2.2466   0.00    0.0
2018/01/07 01:56:30.000   47.480949678   19.056526110   178.7727   5   9   2.2794   1.7472   4.7884  -0.6839   0.8743   2.2534   0.00    0.0
2018/01/07 01:57:00.000   47.480951238   19.056527757   178.9178   5   9   2.2805   1.7491   4.7967  -0.6909   0.8761   2.2598   0.00    0.0
2018/01/07 01:57:30.000   47.480952341   19.056528685   178.7782   5   9   2.2815   1.7511   4.8044  -0.6979   0.8778   2.2658   0.00    0.0
2018/01/07 01:58:00.000   47.480952114   19.056526000   178.3855   5   9   2.2823   1.7531   4.8116  -0.7048   0.8797   2.2713   0.00    0.0
2018/01/07 01:58:30.000   47.480950888   19.056524955   178.2536   5   9   2.2831   1.7552   4.8182  -0.7116   0.8815   2.2763   0.00    0.0
2018/01/07 01:59:00.000   47.480950000   19.056523515   178.0039   5   9   2.2837   1.7572   4.8243  -0.7184   0.8834   2.2809   0.00    0.0
2018/01/07 01:59:30.000   47.480949457   19.056522945   177.8488   5   9   2.2842   1.7593   4.8297  -0.7251   0.8853   2.2849   0.00    0.0
2018/01/07 02:00:00.000   47.480948350   19.056525693   177.7142   5   9   2.4316   1.8340   5.0530  -0.9801   0.1921   2.5419   0.00    0.0
2018/01/07 02:00:30.000   47.480946501   19.056530190   177.5593   5   9   2.4332   1.8359   5.0625  -0.9859   0.1778   2.5489   0.00    0.0
2018/01/07 02:01:00.000   47.480946292   19.056530011   177.2737   5   9   2.4347   1.8379   5.0713  -0.9917   0.1636   2.5553   0.00    0.0
2018/01/07 02:01:30.000   47.480947319   19.056528303   177.1571   5   9   2.4360   1.8399   5.0793  -0.9973   0.1494   2.5612   0.00    0.0
2018/01/07 02:02:00.000   47.480948853   19.056526812   176.9555   5   9   2.4371   1.8420   5.0867  -1.0028   0.1353   2.5664   0.00    0.0
2018/01/07 02:02:30.000   47.480949043   19.056527419   176.9731   5   9   2.4380   1.8440   5.0933  -1.0082   0.1214   2.5711   0.00    0.0
2018/01/07 02:03:00.000   47.480949085   19.056528130   177.2441   5   9   2.4387   1.8461   5.0992  -1.0136   0.1079   2.5751   0.00    0.0
2018/01/07 02:03:30.000   47.480949837   19.056528133   177.5798   5   9   2.4392   1.8483   5.1043  -1.0188   0.0949   2.5786   0.00    0.0
2018/01/07 02:04:00.000   47.480950283   19.056528694   177.8495   5   9   2.4395   1.8504   5.1086  -1.0239   0.0829   2.5814   0.00    0.0
2018/01/07 02:04:30.000   47.480950205   19.056529776   178.0289   5   9   2.4395   1.8525   5.1122  -1.0290   0.0724   2.5836   0.00    0.0
2018/01/07 02:05:00.000   47.480950094   19.056530119   178.1307   5   9   2.4394   1.8547   5.1150  -1.0339   0.0643   2.5852   0.00    0.0
2018/01/07 02:05:30.000   47.480951182   19.056527343   178.1348   5   9   2.4391   1.8569   5.1171  -1.0387   0.0594   2.5861   0.00    0.0
2018/01/07 02:06:00.000   47.480951712   19.056525433   178.1257   5   9   2.4385   1.8592   5.1183  -1.0435   0.0588   2.5864   0.00    0.0
2018/01/07 02:06:30.000   47.480951335   19.056524578   177.8678   5   9   2.4377   1.8614   5.1188  -1.0481   0.0627   2.5861   0.00    0.0
2018/01/07 02:07:00.000   47.480950365   19.056524349   177.5669   5   9   2.4367   1.8637   5.1184  -1.0526   0.0703   2.5852   0.00    0.0
2018/01/07 02:07:30.000   47.480947861   19.056526449   177.3153   5   9   2.4356   1.8660   5.1173  -1.0571   0.0806   2.5836   0.00    0.0
2018/01/07 02:08:00.000   47.480946276   19.056529422   177.2157   5   9   2.4342   1.8683   5.1154  -1.0614   0.0928   2.5814   0.00    0.0
2018/01/07 02:08:30.000   47.480945897   19.056532958   177.3072   5   9   2.4325   1.8706   5.1128  -1.0657   0.1062   2.5786   0.00    0.0
2018/01/07 02:09:00.000   47.480948102   19.056532127   177.3650   5   9   2.4307   1.8730   5.1093  -1.0698   0.1204   2.5752   0.00    0.0
2018/01/07 02:09:30.000   47.480949309   19.056531722   177.6569   5   9   2.4287   1.8753   5.1051  -1.0739   0.1352   2.5712   0.00    0.0
2018/01/07 02:10:00.000   47.480949809   19.056529946   177.6807   5   9   2.4265   1.8777   5.1001  -1.0778   0.1504   2.5665   0.00    0.0
2018/01/07 02:10:30.000   47.480950479   19.056527710   177.3468   5   9   2.4241   1.8802   5.0944  -1.0817   0.1659   2.5613   0.00    0.0
2018/01/07 02:11:00.000   47.480950294   19.056526765   177.1601   5   9   2.4215   1.8826   5.0880  -1.0855   0.1816   2.5554   0.00    0.0
2018/01/07 02:11:30.000   47.480949249   19.056528071   177.0132   5   9   2.4187   1.8851   5.0808  -1.0892   0.1974   2.5490   0.00    0.0
2018/01/07 02:12:00.000   47.480947753   19.056530550   176.9723   5   9   2.4157   1.8875   5.0730  -1.0929   0.2133   2.5420   0.00    0.0
2018/01/07 02:12:30.000   47.480946069   19.056530992   176.9624   5   9   2.4125   1.8900   5.0644  -1.0964   0.2293   2.5344   0.00    0.0
2018/01/07 02:13:00.000   47.480944432   19.056531660   177.1590   5   9   2.4092   1.8925   5.0552  -1.0999   0.2453   2.5263   0.00    0.0
2018/01/07 02:13:30.000   47.480944516   19.056530348   176.9206   5   9   2.4057   1.8951   5.0453  -1.1033   0.2614   2.5176   0.00    0.0
2018/01/07 02:14:00.000   47.480946411   19.056530098   176.9047   5   9   2.4021   1.8976   5.0347  -1.1066   0.2774   2.5084   0.00    0.0
2018/01/07 02:14:30.000   47.480948625   19.056530337   177.1192   5   9   2.3983   1.9002   5.0236  -1.1098   0.2934   2.4987   0.00    0.0
2018/01/07 02:15:00.000   47.480950368   19.056529802   177.4525   5   9   2.3943   1.9028   5.0118  -1.1130   0.3094   2.4884   0.00    0.0
2018/01/07 02:15:30.000   47.480951331   19.056529632   177.8338   5   9   2.3902   1.9054   4.9994  -1.1162   0.3254   2.4777   0.00    0.0
2018/01/07 02:16:00.000   47.480951408   19.056528667   178.0600   5   9   2.3860   1.9081   4.9865  -1.1192   0.3413   2.4665   0.00    0.0
2018/01/07 02:16:30.000   47.480950309   19.056529403   177.9775   5   9   2.3816   1.9108   4.9731  -1.1222   0.3571   2.4548   0.00    0.0
2018/01/07 02:17:00.000   47.480948894   19.056530583   177.6251   5   9   2.3771   1.9134   4.9591  -1.1252   0.3728   2.4426   0.00    0.0
2018/01/07 02:17:30.000   47.480946902   19.056531007   177.3422   5   9   2.3726   1.9161   4.9446  -1.1281   0.3885   2.4300   0.00    0.0
2018/01/07 02:18:00.000   47.480946450   19.056530159   177.3127   5   9   2.3679   1.9189   4.9296  -1.1309   0.4041   2.4170   0.00    0.0
2018/01/07 02:18:30.000   47.480948030   19.056527658   177.4249   5   9   2.3631   1.9216   4.9142  -1.1337   0.4196   2.4036   0.00    0.0
2018/01/07 02:19:00.000   47.480949339   19.056525862   177.4908   5   9   2.3582   1.9244   4.8984  -1.1365   0.4350   2.3897   0.00    0.0
2018/01/07 02:19:30.000   47.480949020   19.056526716   177.5892   5   9   2.3533   1.9272   4.8821  -1.1392   0.4502   2.3755   0.00    0.0
2018/01/07 02:20:00.000   47.480947962   19.056527113   177.6221   5   9   2.3483   1.9300   4.8655  -1.1419   0.4654   2.3609   0.00    0.0
2018/01/07 02:20:30.000   47.480945291   19.056530332   177.6564   5   9   2.3432   1.9329   4.8485  -1.1445   0.4805   2.3460   0.00    0.0
2018/01/07 02:21:00.000   47.480944643   19.056530126   177.6736   5   9   2.3380   1.9357   4.8312  -1.1472   0.4954   2.3307   0.00    0.0
2018/01/07 02:21:30.000   47.480945808   19.056528150   177.6203   5   9   2.3328   1.9386   4.8135  -1.1498   0.5102   2.3150   0.00    0.0
2018/01/07 02:22:00.000   47.480946975   19.056527727   177.4632   5   9   2.3276   1.9415   4.7956  -1.1523   0.5249   2.2991   0.00    0.0
2018/01/07 02:22:30.000   47.480948229   19.056527944   177.5608   5   9   2.3223   1.9444   4.7774  -1.1549   0.5394   2.2828   0.00    0.0
2018/01/07 02:23:00.000   47.480948785   19.056528251   177.8073   5   9   2.3170   1.9474   4.7589  -1.1574   0.5538   2.2663   0.00    0.0
2018/01/07 02:23:30.000   47.480948660   19.056528443   177.9453   5   9   2.3117   1.9504   4.7402  -1.1599   0.5681   2.2494   0.00    0.0
2018/01/07 02:24:00.000   47.480948023   19.056529225   177.8918   5   9   2.3064   1.9534   4.7213  -1.1624   0.5822   2.2323   0.00    0.0
2018/01/07 02:24:30.000   47.480948092   19.056527609   177.6343   5   9   2.3011   1.9564   4.7023  -1.1649   0.5962   2.2150   0.00    0.0
2018/01/07 02:25:00.000   47.480947839   19.056527383   177.4022   5   9   2.2957   1.9595   4.6830  -1.1674   0.6100   2.1974   0.00    0.0
2018/01/07 02:25:30.000   47.480947803   19.056528339   177.3050   5   9   2.2904   1.9625   4.6636  -1.1699   0.6237   2.1796   0.00    0.0
2018/01/07 02:26:00.000   47.480948775   19.056527097   177.3269   5   9   2.2851   1.9656   4.6441  -1.1724   0.6373   2.1615   0.00    0.0
2018/01/07 02:26:30.000   47.480950442   19.056524294   177.3533   5   9   2.2798   1.9688   4.6245  -1.1748   0.6507   2.1433   0.00    0.0
2018/01/07 02:27:00.000   47.480952384   19.056522773   177.5464   5   9   2.2745   1.9719   4.6048  -1.1773   0.6640   2.1248   0.00    0.0
2018/01/07 02:27:30.000   47.480954615   19.056519846   177.8721   5   9   2.2692   1.9751   4.5850  -1.1798   0.6771   2.1062   0.00    0.0
2018/01/07 02:28:00.000   47.480953337   19.056523086   178.2697   5   9   2.2640   1.9783   4.5652  -1.1823   0.6901   2.0874   0.00    0.0
2018/01/07 02:28:30.000   47.480952897   19.056525002   178.0412   5   8   2.2873   2.0202   5.0581  -1.1235  -0.6156   1.8656   0.00    0.0
2018/01/07 02:29:00.000   47.480950809   19.056526912   178.3387   5   8   2.2824   2.0226   5.0413  -1.1266  -0.5939   1.8435   0.00    0.0
2018/01/07 02:29:30.000   47.480949187   19.056527248   178.7461   5   8   2.2775   2.0250   5.0243  -1.1298  -0.5711   1.8211   0.00    0.0
2018/01/07 02:30:00.000   47.480949387   19.056526083   179.0481   5   8   2.2728   2.0275   5.0072  -1.1329  -0.5470   1.7984   0.00    0.0
2018/01/07 02:30:30.000   47.480948980   19.056527682   179.3137   5   8   2.2681   2.0300   4.9899  -1.1360  -0.5214   1.7755   0.00    0.0
2018/01/07 02:31:00.000   47.480949518   19.056529346   179.5231   5   8   2.2635   2.0325   4.9725  -1.1391  -0.4941   1.7523   0.00    0.0
2018/01/07 02:31:30.000   47.480950097   19.056530161   179.6706   5   8   2.2590   2.0350   4.9550  -1.1422  -0.4649   1.7288   0.00    0.0
2018/01/07 02:32:00.000   47.480951446   19.056527507   179.4284   5   8   2.2546   2.0376   4.9374  -1.1454  -0.4334   1.7050   0.00    0.0
2018/01/07 02:32:30.000   47.480951879   19.056527735   178.8686   5   8   2.2503   2.0402   4.9196  -1.1485  -0.3991   1.6810   0.00    0.0
2018/01/07 02:33:00.000   47.480951994   19.056526720   178.2632   5   8   2.2461   2.0429   4.9019  -1.1517  -0.3611   1.6567   0.00    0.0
2018/01/07 02:33:30.000   47.480950668   19.056527508   178.0687   5   8   2.2420   2.0455   4.8840  -1.1549  -0.3183   1.6322   0.00    0.0
2018/01/07 02:34:00.000   47.480950164   19.056526511   177.9832   5   8   2.2380   2.0483   4.8661  -1.1581  -0.2683   1.6074   0.00    0.0
2018/01/07 02:34:30.000   47.480949633   19.056525667   177.8666   5   8   2.2341   2.0510   4.8482  -1.1614  -0.2060   1.5823   0.00    0.0
2018/01/07 02:35:00.000   47.480948341   19.056528834   177.8600   5   8   2.2303   2.0538   4.8303  -1.1647  -0.1127   1.5570   0.00    0.0
2018/01/07 02:35:30.000   47.480948072   19.056529547   177.9019   5   8   2.2267   2.0566   4.8123  -1.1680   0.1312   1.5314   0.00    0.0
2018/01/07 02:36:00.000   47.480947748   19.056528597   178.0408   5   8   2.2231   2.0594   4.7944  -1.1713   0.2175   1.5055   0.00    0.0
2018/01/07 02:36:30.000   47.480947430   19.056527898   178.0130   5   8   2.2196   2.0623   4.7765  -1.1747   0.2784   1.4794   0.00    0.0
2018/01/07 02:37:00.000   47.480948002   19.056526164   177.8353   5   8   2.2163   2.0652   4.7586  -1.1781   0.3285   1.4530   0.00    0.0
2018/01/07 02:37:30.000   47.480947713   19.056526875   177.6662   5   8   2.2131   2.0682   4.7407  -1.1815   0.3720   1.4262   0.00    0.0
2018/01/07 02:38:00.000   47.480947866   19.056530078   177.5578   5   8   2.2099   2.0711   4.7229  -1.1850   0.4111   1.3992   0.00    0.0
2018/01/07 02:38:30.000   47.480948880   19.056532119   177.6077   5   8   2.2070   2.0742   4.7051  -1.1885   0.4469   1.3719   0.00    0.0
2018/01/07 02:39:00.000   47.480949807   19.056532250   177.6517   5   8   2.2041   2.0772   4.6874  -1.1921   0.4801   1.3442   0.00    0.0
2018/01/07 02:39:30.000   47.480951801   19.056530692   177.5285   5   8   2.2013   2.0803   4.6697  -1.1957   0.5112   1.3162   0.00    0.0
2018/01/07 02:40:00.000   47.480952353   19.056530077   177.5566   5   8   2.1987   2.0835   4.6522  -1.1993   0.5406   1.2879   0.00    0.0
2018/01/07 02:40:30.000   47.480950709   19.056534006   178.1542   5   8   2.1962   2.0866   4.6347  -1.2030   0.5686   1.2592   0.00    0.0
2018/01/07 02:41:00.000   47.480952100   19.056533586   178.7275   5   8   2.1938   2.0899   4.6173  -1.2067   0.5952   1.2300   0.00    0.0
2018/01/07 02:41:30.000   47.480954343   19.056530988   179.0189   5   8   2.1915   2.0931   4.6000  -1.2105   0.6208   1.2005   0.00    0.0
2018/01/07 02:42:00.000   47.480955305   19.056530922   179.1850   5   8   2.1894   2.0964   4.5828  -1.2143   0.6453   1.1705   0.00    0.0
2018/01/07 02:42:30.000   47.480956023   19.056529463   179.1983   5   8   2.1873   2.0997   4.5657  -1.2182   0.6690   1.1400   0.00    0.0
2018/01/07 02:43:00.000   47.480956476   19.056531561   178.8851   5   8   2.1854   2.1031   4.5488  -1.2221   0.6918   1.1091   0.00    0.0
2018/01/07 02:43:30.000   47.480957643   19.056532475   178.6572   5   8   2.1836   2.1065   4.5319  -1.2261   0.7140   1.0775   0.00    0.0
2018/01/07 02:44:00.000   47.480958032   19.056531512   178.6840   5   8   2.1819   2.1099   4.5152  -1.2301   0.7355   1.0453   0.00    0.0
2018/01/07 02:44:30.000   47.480956064   19.056533398   178.8401   5   8   2.1804   2.1134   4.4986  -1.2342   0.7563   1.0125   0.00    0.0
2018/01/07 02:45:00.000   47.480952876   19.056535949   179.2387   5   8   2.1790   2.1170   4.4822  -1.2383   0.7766   0.9789   0.00    0.0
2018/01/07 02:45:30.000   47.480951162   19.056535203   179.4528   5   8   2.1777   2.1205   4.4659  -1.2425   0.7963   0.9446   0.00    0.0
2018/01/07 02:46:00.000   47.480951324   19.056532329   179.3647   5   8   2.1765   2.1241   4.4497  -1.2467   0.8156   0.9093   0.00    0.0
2018/01/07 02:46:30.000   47.480950221   19.056532247   179.1372   5   8   2.1754   2.1278   4.4337  -1.2509   0.8344   0.8730   0.00    0.0
2018/01/07 02:47:00.000   47.480950049   19.056531179   178.9263   5   8   2.1744   2.1315   4.4178  -1.2552   0.8527   0.8356   0.00    0.0
2018/01/07 02:47:30.000   47.480948756   19.056531473   178.8838   5   8   2.1736   2.1352   4.4021  -1.2596   0.8707   0.7968   0.00    0.0
2018/01/07 02:48:00.000   47.480949324   19.056530256   178.9046   5   8   2.1729   2.1390   4.3865  -1.2640   0.8883   0.7566   0.00    0.0
2018/01/07 02:48:30.000   47.480950471   19.056526662   179.1330   5   8   2.1723   2.1428   4.3711  -1.2684   0.9054   0.7146   0.00    0.0
2018/01/07 02:49:00.000   47.480950576   19.056525687   179.5265   5   8   2.1718   2.1466   4.3558  -1.2729   0.9223   0.6705   0.00    0.0
2018/01/07 02:49:30.000   47.480951676   19.056526356   179.9943   5   8   2.1714   2.1505   4.3407  -1.2775   0.9388   0.6238   0.00    0.0
2018/01/07 02:50:00.000   47.480952763   19.056527190   180.3273   5   8   2.1711   2.1544   4.3258  -1.2821   0.9550   0.5740   0.00    0.0
2018/01/07 02:50:30.000   47.480953070   19.056528244   180.3387   5   8   2.1710   2.1584   4.3110  -1.2867   0.9709   0.5201   0.00    0.0
2018/01/07 02:51:00.000   47.480952544   19.056529691   180.3475   5   8   2.1709   2.1624   4.2964  -1.2914   0.9865   0.4606   0.00    0.0
2018/01/07 02:51:30.000   47.480952583   19.056530693   180.4003   5   8   2.1710   2.1664   4.2819  -1.2961   1.0018   0.3931   0.00    0.0
2018/01/07 02:52:00.000   47.480951849   19.056533130   180.4992   5   8   2.1712   2.1705   4.2676  -1.3009   1.0168   0.3125   0.00    0.0
2018/01/07 02:52:30.000   47.480952321   19.056531737   180.4562   5   8   2.1714   2.1747   4.2535  -1.3057   1.0316   0.2034   0.00    0.0
2018/01/07 02:53:00.000   47.480953370   19.056530847   180.1228   5   8   2.1718   2.1788   4.2396  -1.3106   1.0462  -0.1191   0.00    0.0
2018/01/07 02:53:30.000   47.480953422   19.056530994   179.8896   5   8   2.1723   2.1830   4.2258  -1.3155   1.0605  -0.2629   0.00    0.0
2018/01/07 02:54:00.000   47.480954342   19.056531243   179.3855   5   8   2.1729   2.1873   4.2122  -1.3205   1.0746  -0.3512   0.00    0.0
2018/01/07 02:54:30.000   47.480954890   19.056530337   178.8289   5   8   2.1736   2.1916   4.1987  -1.3255   1.0885  -0.4206   0.00    0.0
2018/01/07 02:55:00.000   47.480955928   19.056527313   178.4971   5   8   2.1744   2.1959   4.1855  -1.3305   1.1022  -0.4795   0.00    0.0
2018/01/07 02:55:30.000   47.480955804   19.056526926   178.4020   5   8   2.1753   2.2002   4.1723  -1.3356   1.1156  -0.5312   0.00    0.0
2018/01/07 02:56:00.000   47.480955558   19.056526996   178.6449   5   8   2.1763   2.2046   4.1594  -1.3407   1.1289  -0.5778   0.00    0.0
2018/01/07 02:56:30.000   47.480953979   19.056530130   178.6920   5   8   2.1775   2.2091   4.1466  -1.3458   1.1419  -0.6204   0.00    0.0
2018/01/07 02:57:00.000   47.480952472   19.056531629   178.8228   5   8   2.1787   2.2136   4.1340  -1.3510   1.1548  -0.6598   0.00    0.0
2018/01/07 02:57:30.000   47.480952533   19.056532212   178.6333   5   8   2.1800   2.2181   4.1216  -1.3563   1.1675  -0.6965   0.00    0.0
2018/01/07 02:58:00.000   47.480952374   19.056532554   178.6053   5   8   2.1814   2.2226   4.1094  -1.3615   1.1801  -0.7310   0.00    0.0
2018/01/07 02:58:30.000   47.480952332   19.056532389   178.6320   5   8   2.1828   2.2272   4.0973  -1.3669   1.1924  -0.7635   0.00    0.0
2018/01/07 02:59:00.000   47.480951697   19.056534021   178.7896   5   8   2.1844   2.2319   4.0853  -1.3722   1.2046  -0.7943   0.00    0.0
2018/01/07 02:59:30.000   47.480951771   19.056536178   179.0526   5   8   2.1861   2.2365   4.0736  -1.3776   1.2167  -0.8236   0.00    0.0
2018/01/07 03:00:00.000   47.480952982   19.056536786   179.4163   5   8   2.1840   2.2322   3.8498  -1.3736   1.3305  -0.9448   0.00    0.0
2018/01/07 03:00:30.000   47.480954273   19.056535088   179.1299   5   8   2.1864   2.2374   3.8391  -1.3799   1.3385  -0.9631   0.00    0.0
2018/01/07 03:01:00.000   47.480954901   19.056533955   178.7467   5   8   2.1888   2.2427   3.8286  -1.3862   1.3464  -0.9808   0.00    0.0
2018/01/07 03:01:30.000   47.480956718   19.056530876   178.4640   5   8   2.1912   2.2479   3.8183  -1.3925   1.3543  -0.9980   0.00    0.0
2018/01/07 03:02:00.000   47.480955956   19.056530367   178.5469   5   8   2.1937   2.2533   3.8081  -1.3988   1.3621  -1.0146   0.00    0.0
2018/01/07 03:02:30.000   47.480955405   19.056531920   178.6158   5   8   2.1963   2.2586   3.7980  -1.4051   1.3699  -1.0308   0.00    0.0
2018/01/07 03:03:00.000   47.480954888   19.056532615   178.8093   5   8   2.1989   2.2639   3.7880  -1.4114   1.3775  -1.0464   0.00    0.0
2018/01/07 03:03:30.000   47.480956237   19.056532453   178.6897   5   8   2.2016   2.2693   3.7782  -1.4177   1.3851  -1.0616   0.00    0.0
2018/01/07 03:04:00.000   47.480958222   19.056530019   178.6626   5   8   2.2043   2.2747   3.7685  -1.4240   1.3927  -1.0764   0.00    0.0
2018/01/07 03:04:30.000   47.480958005   19.056530296   179.0333   5   8   2.2071   2.2801   3.7589  -1.4303   1.4002  -1.0907   0.00    0.0
2018/01/07 03:05:00.000   47.480958365   19.056530269   179.2863   5   8   2.2099   2.2856   3.7495  -1.4365   1.4076  -1.1047   0.00    0.0
2018/01/07 03:05:30.000   47.480953973   19.056534629   179.0775   5   9   1.9987   2.1930   3.5776  -1.2050   1.6508  -1.5120   0.00    0.0
2018/01/07 03:06:00.000   47.480953567   19.056535532   179.2638   5   9   2.0000   2.1965   3.5749  -1.2085   1.6549  -1.5161   0.00    0.0
2018/01/07 03:06:30.000   47.480952979   19.056535600   179.4523   5   9   2.0013   2.2000   3.5721  -1.2120   1.6589  -1.5201   0.00    0.0
2018/01/07 03:07:00.000   47.480953074   19.056535682   179.5867   5   9   2.0027   2.2036   3.5693  -1.2154   1.6627  -1.5239   0.00    0.0
2018/01/07 03:07:30.000   47.480953432   19.056533725   179.4305   5   9   2.0041   2.2071   3.5665  -1.2188   1.6665  -1.5275   0.00    0.0
2018/01/07 03:08:00.000   47.480954574   19.056530236   179.0122   5   9   2.0054   2.2106   3.5637  -1.2221   1.6702  -1.5310   0.00    0.0
2018/01/07 03:08:30.000   47.480953405   19.056528623   178.6137   5   9   2.0068   2.2141   3.5608  -1.2254   1.6738  -1.5343   0.00    0.0
2018/01/07 03:09:00.000   47.480953272   19.056525925   178.5222   5   9   2.0082   2.2176   3.5580  -1.2286   1.6773  -1.5375   0.00    0.0
2018/01/07 03:09:30.000   47.480954613   19.056521457   178.3596   5   9   2.0096   2.2211   3.5551  -1.2318   1.6807  -1.5405   0.00    0.0
2018/01/07 03:10:00.000   47.480955720   19.056519628   178.2622   5   9   2.0111   2.2245   3.5522  -1.2349   1.6841  -1.5433   0.00    0.0
2018/01/07 03:10:30.000   47.480957916   19.056520436   178.4574   5   8   2.1654   2.2900   3.9130  -1.0533   1.9285  -1.0361   0.00    0.0
2018/01/07 03:11:00.000   47.480958273   19.056522377   178.4497   5   8   2.1648   2.2939   3.9114  -1.0574   1.9326  -1.0432   0.00    0.0
2018/01/07 03:11:30.000   47.480947150   19.056526448   180.9057   5   7   2.8126   2.3162   4.9858  -1.2845   2.1568  -2.5807   0.00    0.0
2018/01/07 03:12:00.000   47.480947144   19.056529588   180.9822   5   7   2.8172   2.3219   4.9938  -1.2986   2.1716  -2.5934   0.00    0.0
2018/01/07 03:12:30.000   47.480946944   19.056530989   181.0130   5   7   2.8218   2.3276   5.0018  -1.3126   2.1862  -2.6058   0.00    0.0
2018/01/07 03:13:00.000   47.480945174   19.056531805   180.9010   5   7   2.8263   2.3334   5.0096  -1.3265   2.2007  -2.6180   0.00    0.0
2018/01/07 03:13:30.000   47.480944762   19.056529654   180.5220   5   7   2.8309   2.3393   5.0172  -1.3402   2.2151  -2.6301   0.00    0.0
2018/01/07 03:14:00.000   47.480946737   19.056527636   180.2466   5   7   2.8355   2.3452   5.0248  -1.3539   2.2294  -2.6420   0.00    0.0
2018/01/07 03:14:30.000   47.480948294   19.056527398   180.4153   5   7   2.8400   2.3512   5.0321  -1.3674   2.2435  -2.6536   0.00    0.0
2018/01/07 03:15:00.000   47.480948661   19.056528415   180.7794   5   7   2.8446   2.3572   5.0394  -1.3808   2.2575  -2.6650   0.00    0.0
2018/01/07 03:15:30.000   47.480947694   19.056529199   180.9200   5   7   2.8491   2.3633   5.0464  -1.3941   2.2714  -2.6762   0.00    0.0
2018/01/07 03:16:00.000   47.480947685   19.056529248   180.8412   5   7   2.8536   2.3694   5.0533  -1.4072   2.2851  -2.6872   0.00    0.0
2018/01/07 03:16:30.000   47.480948322   19.056529685   180.6756   5   7   2.8580   2.3755   5.0600  -1.4203   2.2987  -2.6980   0.00    0.0
2018/01/07 03:17:00.000   47.480948288   19.056531127   180.5946   5   7   2.8624   2.3817   5.0665  -1.4332   2.3121  -2.7085   0.00    0.0
2018/01/07 03:17:30.000   47.480948471   19.056531554   180.6516   5   7   2.8668   2.3880   5.0728  -1.4459   2.3253  -2.7188   0.00    0.0
2018/01/07 03:18:00.000   47.480948472   19.056531723   180.7528   5   7   2.8711   2.3942   5.0789  -1.4586   2.3384  -2.7289   0.00    0.0
2018/01/07 03:18:30.000   47.480948281   19.056533145   180.9875   5   7   2.8754   2.4006   5.0847  -1.4711   2.3513  -2.7387   0.00    0.0
2018/01/07 03:19:00.000   47.480948250   19.056532911   181.1366   5   7   2.8797   2.4069   5.0904  -1.4835   2.3640  -2.7483   0.00    0.0
2018/01/07 03:19:30.000   47.480948871   19.056529698   180.9244   5   7   2.8839   2.4133   5.0958  -1.4957   2.3766  -2.7576   0.00    0.0
2018/01/07 03:20:00.000   47.480948017   19.056527432   180.7085   5   7   2.8880   2.4197   5.1009  -1.5078   2.3890  -2.7666   0.00    0.0
2018/01/07 03:20:30.000   47.480946320   19.056526201   180.6032   5   7   2.8921   2.4261   5.1059  -1.5198   2.4012  -2.7754   0.00    0.0
2018/01/07 03:21:00.000   47.480946413   19.056525296   180.7231   5   7   2.8961   2.4326   5.1105  -1.5316   2.4132  -2.7839   0.00    0.0
2018/01/07 03:21:30.000   47.480947263   19.056525286   180.8705   5   7   2.9000   2.4391   5.1149  -1.5433   2.4251  -2.7922   0.00    0.0
2018/01/07 03:22:00.000   47.480948746   19.056523601   180.7707   5   7   2.9039   2.4456   5.1190  -1.5549   2.4367  -2.8001   0.00    0.0
2018/01/07 03:22:30.000   47.480950148   19.056522627   180.6033   5   7   2.9077   2.4521   5.1229  -1.5663   2.4482  -2.8078   0.00    0.0
2018/01/07 03:23:00.000   47.480950291   19.056523454   180.7161   5   7   2.9114   2.4586   5.1265  -1.5775   2.4594  -2.8152   0.00    0.0
2018/01/07 03:23:30.000   47.480948278   19.056527471   181.1672   5   7   2.9151   2.4652   5.1298  -1.5886   2.4705  -2.8223   0.00    0.0
2018/01/07 03:24:00.000   47.480947127   19.056528910   181.2011   5   7   2.9187   2.4718   5.1328  -1.5996   2.4813  -2.8291   0.00    0.0
2018/01/07 03:24:30.000   47.480947351   19.056527726   180.9742   5   7   2.9221   2.4783   5.1355  -1.6104   2.4920  -2.8356   0.00    0.0
2018/01/07 03:25:00.000   47.480946780   19.056526697   180.6143   5   7   2.9255   2.4849   5.1379  -1.6210   2.5024  -2.8419   0.00    0.0
2018/01/07 03:25:30.000   47.480946178   19.056528126   180.5683   5   8   2.4549   1.7774   3.6125   0.3565  -0.2656  -1.5063   0.00    0.0
2018/01/07 03:26:00.000   47.480947761   19.056527906   180.2248   5   8   2.4531   1.7766   3.6130   0.3528  -0.2471  -1.5055   0.00    0.0
2018/01/07 03:26:30.000   47.480950064   19.056527906   179.8145   5   8   2.4514   1.7759   3.6135   0.3491  -0.2267  -1.5046   0.00    0.0
2018/01/07 03:27:00.000   47.480951178   19.056529361   179.6289   5   8   2.4497   1.7752   3.6141   0.3453  -0.2042  -1.5037   0.00    0.0
2018/01/07 03:27:30.000   47.480951847   19.056529644   179.7376   5   8   2.4479   1.7745   3.6146   0.3415  -0.1785  -1.5026   0.00    0.0
2018/01/07 03:28:00.000   47.480952831   19.056529699   180.0612   5   8   2.4462   1.7739   3.6152   0.3376  -0.1481  -1.5015   0.00    0.0
2018/01/07 03:28:30.000   47.480953282   19.056531205   180.3615   5   8   2.4444   1.7732   3.6157   0.3336  -0.1090  -1.5003   0.00    0.0
2018/01/07 03:29:00.000   47.480954853   19.056531289   180.3951   5   8   2.4427   1.7727   3.6163   0.3296  -0.0419  -1.4990   0.00    0.0
2018/01/07 03:29:30.000   47.480955969   19.056530819   180.1414   5   8   2.4409   1.7721   3.6169   0.3255   0.0920  -1.4976   0.00    0.0
2018/01/07 03:30:00.000   47.480956587   19.056529661   179.7431   5   8   2.4392   1.7717   3.6174   0.3213   0.1371  -1.4962   0.00    0.0
