% program   : RTKLIB ver.demo5 b31
% inp file  : 2018/obs/bute0070.18d
% inp file  : 2018/obs/brdc0070.18n
% inp file  : 2018/ems/y2018_d007_136.ems
% obs start : 2018/01/07 00:00:00.0 GPST (week1983      0.0s)
% obs end   : 2018/01/07 23:59:30.0 GPST (week1983  86370.0s)
% pos mode  : single
% elev mask : 10.0 deg
% ionos opt : sbas
% tropo opt : saastamoinen
% ephemeris : broadcast
%
% (lat/lon/height=WGS84/ellipsoidal,Q=1:fix,2:float,3:sbas,4:dgps,5:single,6:ppp,ns=# of satellites)
%  GPST                  latitude(deg) longitude(deg)  height(m)   Q  ns   sdn(m)   sde(m)   sdu(m)  sdne(m)  sdeu(m)  sdun(m) age(s)  ratio
2018/01/07 00:02:30.000   47.480952104   19.056533089   178.4992   5   5   3.0786  15.6001  10.4317  -6.0131 -11.1104   3.8633   0.00    0.0
2018/01/07 00:03:00.000   47.480951829   19.056532302   179.6716   5   9   1.6512   1.5592   3.7870  -0.1458   1.1577  -1.1985   0.00    0.0
2018/01/07 00:03:30.000   47.480951679   19.056533562   179.6493   5   9   1.6518   1.5610   3.7783  -0.1688   1.1611  -1.2017   0.00    0.0
2018/01/07 00:04:00.000   47.480952009   19.056534050   179.8244   5   9   1.6525   1.5629   3.7695  -0.1890   1.1644  -1.2048   0.00    0.0
2018/01/07 00:04:30.000   47.480951587   19.056535543   179.8724   5   9   1.6531   1.5647   3.7604  -0.2072   1.1675  -1.2077   0.00    0.0
2018/01/07 00:05:00.000   47.480951172   19.056536574   179.6766   5   9   1.6538   1.5666   3.7511  -0.2239   1.1705  -1.2106   0.00    0.0
2018/01/07 00:05:30.000   47.480950556   19.056537192   179.5016   5   9   1.6546   1.5684   3.7416  -0.2395   1.1735  -1.2133   0.00    0.0
2018/01/07 00:06:00.000   47.480949605   19.056536780   179.5377   5   9   1.6553   1.5703   3.7320  -0.2541   1.1763  -1.2158   0.00    0.0
2018/01/07 00:06:30.000   47.480947950   19.056540883   180.3766   5  10   1.6187   1.3268   3.2004   0.4727  -0.4616  -0.9051   0.00    0.0
2018/01/07 00:07:00.000   47.480947904   19.056538946   180.2646   5  10   1.6186   1.3268   3.1954   0.4699  -0.4518  -0.9063   0.00    0.0
2018/01/07 00:07:30.000   47.480947558   19.056537846   180.0231   5  10   1.6186   1.3268   3.1903   0.4670  -0.4418  -0.9076   0.00    0.0
2018/01/07 00:08:00.000   47.480947991   19.056535182   179.5463   5  10   1.6186   1.3269   3.1852   0.4641  -0.4314  -0.9088   0.00    0.0
2018/01/07 00:08:30.000   47.480948089   19.056535841   179.6540   5  10   1.6187   1.3270   3.1799   0.4612  -0.4207  -0.9099   0.00    0.0
2018/01/07 00:09:00.000   47.480948024   19.056537624   179.8894   5  10   1.6187   1.3272   3.1746   0.4583  -0.4097  -0.9111   0.00    0.0
2018/01/07 00:09:30.000   47.480948868   19.056538648   180.2165   5  10   1.6188   1.3274   3.1692   0.4553  -0.3983  -0.9122   0.00    0.0
2018/01/07 00:10:00.000   47.480949943   19.056538667   180.1273   5  10   1.6189   1.3276   3.1637   0.4523  -0.3865  -0.9133   0.00    0.0
2018/01/07 00:10:30.000   47.480950964   19.056538146   179.8418   5  10   1.6190   1.3278   3.1581   0.4493  -0.3743  -0.9143   0.00    0.0
2018/01/07 00:11:00.000   47.480951110   19.056538928   179.6020   5  10   1.6192   1.3281   3.1524   0.4462  -0.3616  -0.9153   0.00    0.0
2018/01/07 00:11:30.000   47.480951170   19.056539432   179.6557   5  10   1.6194   1.3284   3.1467   0.4432  -0.3485  -0.9163   0.00    0.0
2018/01/07 00:12:00.000   47.480950839   19.056538561   180.0620   5  10   1.6196   1.3287   3.1409   0.4400  -0.3348  -0.9172   0.00    0.0
2018/01/07 00:12:30.000   47.480950993   19.056536560   180.3422   5  10   1.6198   1.3291   3.1350   0.4369  -0.3205  -0.9181   0.00    0.0
2018/01/07 00:13:00.000   47.480951908   19.056533896   180.1782   5  10   1.6200   1.3295   3.1290   0.4337  -0.3055  -0.9190   0.00    0.0
2018/01/07 00:13:30.000   47.480951794   19.056532721   179.8167   5  10   1.6203   1.3299   3.1230   0.4305  -0.2897  -0.9198   0.00    0.0
2018/01/07 00:14:00.000   47.480951481   19.056534411   179.7784   5  10   1.6206   1.3304   3.1169   0.4272  -0.2730  -0.9206   0.00    0.0
2018/01/07 00:14:30.000   47.480949597   19.056536730   180.1227   5  10   1.6210   1.3309   3.1108   0.4239  -0.2552  -0.9214   0.00    0.0
2018/01/07 00:15:00.000   47.480948472   19.056538080   180.4032   5  10   1.6213   1.3314   3.1046   0.4206  -0.2362  -0.9221   0.00    0.0
2018/01/07 00:15:30.000   47.480947527   19.056538281   180.3223   5  10   1.6217   1.3320   3.0983   0.4173  -0.2155  -0.9228   0.00    0.0
2018/01/07 00:16:00.000   47.480947924   19.056536822   180.2090   5  10   1.6221   1.3326   3.0920   0.4139  -0.1926  -0.9234   0.00    0.0
2018/01/07 00:16:30.000   47.480948735   19.056534248   180.1082   5  10   1.6226   1.3332   3.0857   0.4104  -0.1667  -0.9240   0.00    0.0
2018/01/07 00:17:00.000   47.480949258   19.056532226   180.0278   5  10   1.6231   1.3339   3.0793   0.4070  -0.1360  -0.9246   0.00    0.0
2018/01/07 00:17:30.000   47.480948434   19.056532266   180.2826   5  10   1.6236   1.3345   3.0729   0.4035  -0.0961  -0.9251   0.00    0.0
2018/01/07 00:18:00.000   47.480947501   19.056533869   180.5045   5  10   1.6241   1.3353   3.0664   0.3999  -0.0041  -0.9256   0.00    0.0
2018/01/07 00:18:30.000   47.480946683   19.056534408   180.4179   5  10   1.6247   1.3360   3.0599   0.3963   0.0958  -0.9260   0.00    0.0
2018/01/07 00:19:00.000   47.480947304   19.056534362   180.2200   5  10   1.6253   1.3368   3.0534   0.3927   0.1353  -0.9264   0.00    0.0
2018/01/07 00:19:30.000   47.480948534   19.056534405   179.7438   5  10   1.6260   1.3376   3.0468   0.3890   0.1655  -0.9268   0.00    0.0
2018/01/07 00:20:00.000   47.480949064   19.056536173   179.5887   5  10   1.6266   1.3384   3.0402   0.3852   0.1909  -0.9271   0.00    0.0
2018/01/07 00:20:30.000   47.480949063   19.056537812   179.9283   5  10   1.6273   1.3393   3.0336   0.3814   0.2132  -0.9274   0.00    0.0
2018/01/07 00:21:00.000   47.480948187   19.056538774   180.3682   5  10   1.6281   1.3402   3.0270   0.3776   0.2332  -0.9276   0.00    0.0
2018/01/07 00:21:30.000   47.480947631   19.056538570   180.3720   5  10   1.6289   1.3411   3.0204   0.3737   0.2515  -0.9278   0.00    0.0
2018/01/07 00:22:00.000   47.480948127   19.056537632   179.9934   5  10   1.6297   1.3421   3.0138   0.3698   0.2685  -0.9280   0.00    0.0
2018/01/07 00:22:30.000   47.480950358   19.056536764   179.2569   5  10   1.6306   1.3431   3.0071   0.3658   0.2843  -0.9280   0.00    0.0
2018/01/07 00:23:00.000   47.480950116   19.056537742   178.9900   5  10   1.6315   1.3441   3.0005   0.3617   0.2992  -0.9281   0.00    0.0
2018/01/07 00:23:30.000   47.480950123   19.056538523   178.8894   5  10   1.6324   1.3452   2.9939   0.3576   0.3133  -0.9281   0.00    0.0
2018/01/07 00:24:00.000   47.480950049   19.056540150   179.2430   5  10   1.6334   1.3463   2.9873   0.3535   0.3267  -0.9280   0.00    0.0
2018/01/07 00:24:30.000   47.480950826   19.056540119   180.0606   5   9   1.8053   1.3910   3.2231  -0.3782  -0.5557   0.2810   0.00    0.0
2018/01/07 00:25:00.000   47.480951228   19.056539852   180.5981   5   9   1.8064   1.3917   3.2182  -0.3806  -0.5471   0.2865   0.00    0.0
2018/01/07 00:25:30.000   47.480952499   19.056538033   180.6336   5   9   1.8076   1.3924   3.2132  -0.3830  -0.5384   0.2917   0.00    0.0
2018/01/07 00:26:00.000   47.480952755   19.056536902   180.3397   5   9   1.8088   1.3932   3.2082  -0.3852  -0.5294   0.2966   0.00    0.0
2018/01/07 00:26:30.000   47.480953214   19.056536245   179.8796   5   9   1.8101   1.3939   3.2032  -0.3875  -0.5203   0.3012   0.00    0.0
2018/01/07 00:27:00.000   47.480952905   19.056535648   179.5784   5   9   1.8113   1.3947   3.1981  -0.3896  -0.5110   0.3054   0.00    0.0
2018/01/07 00:27:30.000   47.480952584   19.056535749   179.3494   5   9   1.8126   1.3955   3.1930  -0.3917  -0.5014   0.3094   0.00    0.0
2018/01/07 00:28:00.000   47.480951605   19.056535800   179.2047   5   9   1.8139   1.3964   3.1878  -0.3937  -0.4916   0.3131   0.00    0.0
2018/01/07 00:28:30.000   47.480949740   19.056534237   179.1769   5   9   1.8152   1.3972   3.1826  -0.3957  -0.4816   0.3166   0.00    0.0
2018/01/07 00:29:00.000   47.480949178   19.056531160   179.3408   5   9   1.8166   1.3981   3.1774  -0.3976  -0.4714   0.3198   0.00    0.0
2018/01/07 00:29:30.000   47.480948091   19.056530753   179.3573   5   9   1.8179   1.3990   3.1722  -0.3995  -0.4609   0.3227   0.00    0.0
2018/01/07 00:30:00.000   47.480947547   19.056532168   179.3700   5   9   1.8194   1.4000   3.1670  -0.4012  -0.4501   0.3254   0.00    0.0
2018/01/07 00:30:30.000   47.480947493   19.056534134   179.3749   5   9   1.8208   1.4009   3.1618  -0.4029  -0.4390   0.3279   0.00    0.0
2018/01/07 00:31:00.000   47.480949080   19.056535463   179.2689   5   9   1.8222   1.4019   3.1565  -0.4046  -0.4276   0.3301   0.00    0.0
2018/01/07 00:31:30.000   47.480946904   19.056531909   179.8395   5   8   2.4426   1.5357   4.0449   0.9220  -1.3255  -2.0025   0.00    0.0
2018/01/07 00:32:00.000   47.480949591   19.056530543   179.4814   5   8   2.4448   1.5343   4.0407   0.9165  -1.3159  -2.0032   0.00    0.0
2018/01/07 00:32:30.000   47.480948958   19.056529683   179.7197   5   8   2.4470   1.5328   4.0363   0.9110  -1.3062  -2.0037   0.00    0.0
2018/01/07 00:33:00.000   47.480945495   19.056529810   180.2924   5   8   2.4491   1.5314   4.0319   0.9054  -1.2962  -2.0041   0.00    0.0
2018/01/07 00:33:30.000   47.480942549   19.056530003   180.4865   5   8   2.4513   1.5300   4.0273   0.8997  -1.2861  -2.0044   0.00    0.0
2018/01/07 00:34:00.000   47.480941203   19.056529634   180.1434   5   8   2.4533   1.5286   4.0225   0.8939  -1.2758  -2.0046   0.00    0.0
2018/01/07 00:34:30.000   47.480941569   19.056528158   179.6412   5   8   2.4554   1.5273   4.0177   0.8880  -1.2654  -2.0047   0.00    0.0
2018/01/07 00:35:00.000   47.480942983   19.056527271   179.4328   5   8   2.4574   1.5260   4.0127   0.8820  -1.2547  -2.0046   0.00    0.0
2018/01/07 00:35:30.000   47.480942264   19.056527881   179.8710   5   8   2.4593   1.5248   4.0077   0.8759  -1.2439  -2.0044   0.00    0.0
2018/01/07 00:36:00.000   47.480941311   19.056528265   180.1356   5   8   2.4612   1.5236   4.0025   0.8698  -1.2328  -2.0041   0.00    0.0
2018/01/07 00:36:30.000   47.480940941   19.056527314   180.1027   5   8   2.4631   1.5224   3.9972   0.8635  -1.2216  -2.0036   0.00    0.0
2018/01/07 00:37:00.000   47.480942471   19.056526492   180.0337   5   8   2.4649   1.5213   3.9919   0.8571  -1.2102  -2.0031   0.00    0.0
2018/01/07 00:37:30.000   47.480943299   19.056526366   179.8267   5   8   2.4667   1.5202   3.9864   0.8507  -1.1985  -2.0024   0.00    0.0
2018/01/07 00:38:00.000   47.480945149   19.056527480   179.6998   5   8   2.4685   1.5191   3.9809   0.8441  -1.1867  -2.0016   0.00    0.0
2018/01/07 00:38:30.000   47.480946528   19.056529771   179.4341   5   8   2.4702   1.5181   3.9753   0.8375  -1.1747  -2.0006   0.00    0.0
2018/01/07 00:39:00.000   47.480946387   19.056531959   179.3773   5   8   2.4719   1.5171   3.9696   0.8307  -1.1624  -1.9995   0.00    0.0
2018/01/07 00:39:30.000   47.480945913   19.056532931   179.5229   5   8   2.4735   1.5162   3.9638   0.8239  -1.1500  -1.9983   0.00    0.0
2018/01/07 00:40:00.000   47.480945830   19.056530926   180.0152   5   8   2.4751   1.5153   3.9580   0.8169  -1.1373  -1.9970   0.00    0.0
2018/01/07 00:40:30.000   47.480944403   19.056528582   180.8267   5   8   2.4766   1.5144   3.9521   0.8099  -1.1244  -1.9955   0.00    0.0
2018/01/07 00:41:00.000   47.480943717   19.056529630   181.4098   5   8   2.4781   1.5137   3.9462   0.8028  -1.1113  -1.9939   0.00    0.0
2018/01/07 00:41:30.000   47.480945450   19.056532291   181.2527   5   8   2.4796   1.5129   3.9402   0.7955  -1.0979  -1.9922   0.00    0.0
2018/01/07 00:42:00.000   47.480942931   19.056533486   180.3518   5   9   2.2729   1.5119   3.8059   0.8091  -1.0687  -2.2255   0.00    0.0
2018/01/07 00:42:30.000   47.480942130   19.056529262   179.4340   5   8   2.3807   1.6225   3.9723   1.0311  -0.6624  -2.0295   0.00    0.0
2018/01/07 00:43:00.000   47.480941795   19.056526458   179.3313   5   8   2.3759   1.6215   3.9784   1.0214  -0.6290  -2.0232   0.00    0.0
2018/01/07 00:43:30.000   47.480941380   19.056523829   179.3073   5   8   2.3710   1.6207   3.9846   1.0117  -0.5935  -2.0168   0.00    0.0
2018/01/07 00:44:00.000   47.480941021   19.056522169   179.7373   5   8   2.3662   1.6200   3.9910   1.0019  -0.5554  -2.0102   0.00    0.0
2018/01/07 00:44:30.000   47.480940256   19.056522773   180.2433   5   8   2.3614   1.6193   3.9975   0.9921  -0.5140  -2.0036   0.00    0.0
2018/01/07 00:45:00.000   47.480940838   19.056523365   180.2541   5   8   2.3567   1.6188   4.0041   0.9823  -0.4687  -1.9969   0.00    0.0
2018/01/07 00:45:30.000   47.480942914   19.056522837   179.9417   5   8   2.3519   1.6183   4.0108   0.9724  -0.4180  -1.9900   0.00    0.0
2018/01/07 00:46:00.000   47.480943947   19.056524275   179.9121   5   8   2.3471   1.6180   4.0177   0.9625  -0.3598  -1.9831   0.00    0.0
2018/01/07 00:46:30.000   47.480944615   19.056524913   179.8126   5   8   2.3424   1.6177   4.0246   0.9525  -0.2894  -1.9760   0.00    0.0
2018/01/07 00:47:00.000   47.480944257   19.056525136   179.8835   5   8   2.3376   1.6175   4.0317   0.9425  -0.1942  -1.9689   0.00    0.0
2018/01/07 00:47:30.000   47.480941890   19.056527079   180.2877   5   8   2.3329   1.6175   4.0390   0.9325   0.0933  -1.9616   0.00    0.0
2018/01/07 00:48:00.000   47.480941852   19.056526273   179.9829   5   8   2.3281   1.6175   4.0463   0.9224   0.2356  -1.9543   0.00    0.0
2018/01/07 00:48:30.000   47.480941826   19.056527301   179.8417   5   8   2.3234   1.6177   4.0538   0.9123   0.3205  -1.9469   0.00    0.0
2018/01/07 00:49:00.000   47.480940433   19.056529702   179.6547   5   8   2.3187   1.6179   4.0615   0.9021   0.3877  -1.9393   0.00    0.0
2018/01/07 00:49:30.000   47.480939855   19.056530790   179.5041   5   8   2.3141   1.6183   4.0692   0.8919   0.4454  -1.9317   0.00    0.0
2018/01/07 00:50:00.000   47.480938786   19.056530975   179.6282   5   8   2.3094   1.6187   4.0771   0.8817   0.4967  -1.9240   0.00    0.0
2018/01/07 00:50:30.000   47.480938672   19.056531869   179.9344   5   8   2.3048   1.6193   4.0851   0.8714   0.5436  -1.9162   0.00    0.0
2018/01/07 00:51:00.000   47.480940653   19.056531765   180.3280   5   8   2.3001   1.6200   4.0933   0.8611   0.5872  -1.9083   0.00    0.0
2018/01/07 00:51:30.000   47.480941081   19.056532409   180.4959   5   8   2.2955   1.6207   4.1015   0.8508   0.6280  -1.9003   0.00    0.0
2018/01/07 00:52:00.000   47.480942241   19.056532332   180.3130   5   8   2.2909   1.6216   4.1100   0.8404   0.6667  -1.8923   0.00    0.0
2018/01/07 00:52:30.000   47.480942356   19.056531142   180.0287   5   8   2.2863   1.6226   4.1185   0.8300   0.7035  -1.8841   0.00    0.0
2018/01/07 00:53:00.000   47.480942107   19.056529813   179.9513   5   8   2.2818   1.6237   4.1272   0.8195   0.7388  -1.8759   0.00    0.0
2018/01/07 00:53:30.000   47.480942546   19.056528014   179.7217   5   8   2.2773   1.6250   4.1360   0.8090   0.7728  -1.8676   0.00    0.0
2018/01/07 00:54:00.000   47.480942503   19.056527501   179.5267   5   8   2.2727   1.6263   4.1449   0.7984   0.8056  -1.8592   0.00    0.0
2018/01/07 00:54:30.000   47.480942578   19.056528753   179.4674   5   8   2.2683   1.6277   4.1540   0.7878   0.8373  -1.8507   0.00    0.0
2018/01/07 00:55:00.000   47.480943061   19.056530598   179.6223   5   8   2.2638   1.6293   4.1632   0.7771   0.8682  -1.8422   0.00    0.0
2018/01/07 00:55:30.000   47.480943663   19.056531245   179.6800   5   8   2.2593   1.6310   4.1726   0.7664   0.8983  -1.8335   0.00    0.0
2018/01/07 00:56:00.000   47.480943311   19.056530891   180.0531   5   8   2.2549   1.6328   4.1820   0.7556   0.9276  -1.8248   0.00    0.0
2018/01/07 00:56:30.000   47.480943214   19.056530163   180.2491   5   8   2.2505   1.6347   4.1917   0.7448   0.9563  -1.8161   0.00    0.0
2018/01/07 00:57:00.000   47.480943028   19.056528908   180.1023   5   8   2.2462   1.6367   4.2014   0.7339   0.9844  -1.8072   0.00    0.0
2018/01/07 00:57:30.000   47.480942690   19.056529696   180.1751   5   8   2.2419   1.6389   4.2113   0.7230   1.0119  -1.7983   0.00    0.0
2018/01/07 00:58:00.000   47.480940432   19.056530369   180.3106   5   8   2.2375   1.6411   4.2213   0.7120   1.0389  -1.7893   0.00    0.0
2018/01/07 00:58:30.000   47.480938377   19.056530170   180.4049   5   8   2.2333   1.6435   4.2314   0.7009   1.0655  -1.7802   0.00    0.0
2018/01/07 00:59:00.000   47.480937482   19.056528701   180.1382   5   8   2.2290   1.6460   4.2416   0.6898   1.0917  -1.7711   0.00    0.0
2018/01/07 00:59:30.000   47.480937621   19.056527243   179.9820   5   8   2.2248   1.6486   4.2520   0.6786   1.1174  -1.7619   0.00    0.0
2018/01/07 01:00:00.000   47.480939490   19.056526310   180.1086   5   8   2.2206   1.6514   4.2625   0.6673   1.1428  -1.7526   0.00    0.0
2018/01/07 01:00:30.000   47.480940002   19.056527635   180.1527   5   8   2.2164   1.6543   4.2731   0.6559   1.1679  -1.7433   0.00    0.0
2018/01/07 01:01:00.000   47.480940153   19.056530036   180.3215   5   8   2.2123   1.6573   4.2839   0.6445   1.1926  -1.7339   0.00    0.0
2018/01/07 01:01:30.000   47.480940287   19.056530644   180.2048   5   8   2.2082   1.6604   4.2948   0.6330   1.2170  -1.7244   0.00    0.0
2018/01/07 01:02:00.000   47.480940540   19.056527816   179.8226   5   8   2.2042   1.6636   4.3058   0.6213   1.2412  -1.7149   0.00    0.0
2018/01/07 01:02:30.000   47.480938837   19.056526198   179.5963   5   8   2.2002   1.6670   4.3169   0.6096   1.2651  -1.7053   0.00    0.0
2018/01/07 01:03:00.000   47.480937793   19.056524886   179.3144   5   8   2.1962   1.6705   4.3281   0.5978   1.2887  -1.6956   0.00    0.0
2018/01/07 01:03:30.000   47.480937322   19.056524908   179.1873   5   8   2.1922   1.6741   4.3394   0.5858   1.3121  -1.6859   0.00    0.0
2018/01/07 01:04:00.000   47.480936508   19.056527440   179.4512   5   8   2.1883   1.6778   4.3508   0.5738   1.3353  -1.6762   0.00    0.0
2018/01/07 01:04:30.000   47.480937749   19.056529040   179.7208   5   8   2.1844   1.6817   4.3624   0.5616   1.3583  -1.6663   0.00    0.0
2018/01/07 01:05:00.000   47.480940567   19.056528739   179.7020   5   8   2.1806   1.6857   4.3740   0.5492   1.3811  -1.6565   0.00    0.0
2018/01/07 01:05:30.000   47.480942931   19.056529731   180.0952   5   8   2.1767   1.6898   4.3858   0.5368   1.4038  -1.6465   0.00    0.0
2018/01/07 01:06:00.000   47.480944657   19.056531413   180.5903   5   8   2.1730   1.6940   4.3976   0.5241   1.4262  -1.6365   0.00    0.0
2018/01/07 01:06:30.000   47.480945315   19.056530920   180.7119   5   8   2.1692   1.6984   4.4095   0.5113   1.4485  -1.6265   0.00    0.0
2018/01/07 01:07:00.000   47.480945105   19.056530492   180.6108   5   8   2.1655   1.7028   4.4216   0.4982   1.4706  -1.6164   0.00    0.0
2018/01/07 01:07:30.000   47.480944080   19.056529448   180.1128   5   8   2.1619   1.7075   4.4337   0.4850   1.4925  -1.6063   0.00    0.0
2018/01/07 01:08:00.000   47.480942134   19.056528078   179.7312   5   8   2.1583   1.7122   4.4458   0.4715   1.5143  -1.5961   0.00    0.0
2018/01/07 01:08:30.000   47.480940492   19.056527870   179.3456   5   8   2.1547   1.7170   4.4581   0.4578   1.5359  -1.5859   0.00    0.0
2018/01/07 01:09:00.000   47.480939692   19.056530654   179.5425   5   8   2.1512   1.7220   4.4704   0.4438   1.5575  -1.5756   0.00    0.0
2018/01/07 01:09:30.000   47.480939887   19.056532271   179.7571   5   8   2.1477   1.7271   4.4828   0.4295   1.5788  -1.5653   0.00    0.0
2018/01/07 01:10:00.000   47.480942278   19.056529085   179.5960   5   8   2.1442   1.7323   4.4953   0.4148   1.6001  -1.5549   0.00    0.0
2018/01/07 01:10:30.000   47.480943523   19.056525732   179.7019   5   8   2.1408   1.7377   4.5078   0.3998   1.6212  -1.5446   0.00    0.0
2018/01/07 01:11:00.000   47.480943833   19.056523288   179.9993   5   8   2.1374   1.7432   4.5204   0.3843   1.6422  -1.5342   0.00    0.0
2018/01/07 01:11:30.000   47.480943651   19.056522673   180.3512   5   8   2.1341   1.7487   4.5330   0.3683   1.6630  -1.5237   0.00    0.0
2018/01/07 01:12:00.000   47.480943022   19.056524277   180.5532   5   8   2.1308   1.7545   4.5456   0.3518   1.6838  -1.5132   0.00    0.0
2018/01/07 01:12:30.000   47.480943216   19.056523523   180.2037   5   8   2.1276   1.7603   4.5583   0.3346   1.7044  -1.5028   0.00    0.0
2018/01/07 01:13:00.000   47.480942579   19.056523435   179.9437   5   8   2.1244   1.7662   4.5710   0.3166   1.7249  -1.4922   0.00    0.0
2018/01/07 01:13:30.000   47.480941436   19.056524500   180.1391   5   8   2.1212   1.7723   4.5837   0.2977   1.7453  -1.4817   0.00    0.0
2018/01/07 01:14:00.000   47.480941811   19.056523647   180.1440   5   8   2.1181   1.7785   4.5965   0.2776   1.7656  -1.4711   0.00    0.0
2018/01/07 01:14:30.000   47.480941826   19.056525045   180.3343   5   8   2.1150   1.7847   4.6092   0.2562   1.7857  -1.4606   0.00    0.0
2018/01/07 01:15:00.000   47.480941791   19.056526686   180.3569   5   8   2.1120   1.7911   4.6219   0.2330   1.8057  -1.4500   0.00    0.0
2018/01/07 01:15:30.000   47.480942341   19.056526143   180.0983   5   8   2.1090   1.7977   4.6347   0.2075   1.8256  -1.4394   0.00    0.0
2018/01/07 01:16:00.000   47.480941338   19.056526312   180.0849   5   8   2.1060   1.8043   4.6474   0.1785   1.8454  -1.4289   0.00    0.0
2018/01/07 01:16:30.000   47.480940332   19.056527984   180.3617   5   8   2.1031   1.8110   4.6600   0.1440   1.8651  -1.4183   0.00    0.0
2018/01/07 01:17:00.000   47.480941538   19.056527872   180.0831   5   8   2.1003   1.8178   4.6727   0.0985   1.8846  -1.4077   0.00    0.0
2018/01/07 01:17:30.000   47.480942939   19.056528632   179.7276   5   8   2.0975   1.8248   4.6853  -0.0358   1.9040  -1.3971   0.00    0.0
2018/01/07 01:18:00.000   47.480943733   19.056529388   179.3326   5   8   2.0947   1.8318   4.6978  -0.1105   1.9233  -1.3866   0.00    0.0
2018/01/07 01:18:30.000   47.480944190   19.056529221   179.0471   5   8   2.0920   1.8389   4.7103  -0.1520   1.9424  -1.3761   0.00    0.0
2018/01/07 01:19:00.000   47.480944128   19.056529315   179.0708   5   8   2.0893   1.8462   4.7227  -0.1842   1.9615  -1.3656   0.00    0.0
2018/01/07 01:19:30.000   47.480943525   19.056529081   179.1362   5   8   2.0867   1.8535   4.7351  -0.2115   1.9803  -1.3551   0.00    0.0
2018/01/07 01:20:00.000   47.480942381   19.056526588   179.1101   5   8   2.0841   1.8609   4.7473  -0.2356   1.9991  -1.3447   0.00    0.0
2018/01/07 01:20:30.000   47.480942696   19.056525889   179.1583   5   8   2.0815   1.8684   4.7595  -0.2573   2.0177  -1.3343   0.00    0.0
2018/01/07 01:21:00.000   47.480943442   19.056525287   179.0436   5   8   2.0790   1.8760   4.7715  -0.2774   2.0361  -1.3239   0.00    0.0
2018/01/07 01:21:30.000   47.480944591   19.056523718   178.5339   5   8   2.0765   1.8837   4.7835  -0.2960   2.0544  -1.3136   0.00    0.0
2018/01/07 01:22:00.000   47.480945343   19.056524208   178.2735   5   8   2.0741   1.8914   4.7953  -0.3136   2.0726  -1.3034   0.00    0.0
2018/01/07 01:22:30.000   47.480946146   19.056522577   177.9163   5   8   2.0718   1.8993   4.8069  -0.3302   2.0906  -1.2932   0.00    0.0
2018/01/07 01:23:00.000   47.480946732   19.056521946   177.8159   5   8   2.0694   1.9072   4.8185  -0.3460   2.1084  -1.2831   0.00    0.0
2018/01/07 01:23:30.000   47.480946793   19.056524067   177.9222   5   8   2.0671   1.9152   4.8298  -0.3612   2.1260  -1.2731   0.00    0.0
2018/01/07 01:24:00.000   47.480946412   19.056524790   178.2372   5   8   2.0649   1.9232   4.8410  -0.3757   2.1435  -1.2632   0.00    0.0
2018/01/07 01:24:30.000   47.480946203   19.056525146   178.3504   5   8   2.0627   1.9313   4.8520  -0.3898   2.1608  -1.2533   0.00    0.0
2018/01/07 01:25:00.000   47.480944022   19.056525633   178.7407   5   8   2.0606   1.9395   4.8629  -0.4034   2.1779  -1.2436   0.00    0.0
2018/01/07 01:25:30.000   47.480943785   19.056523610   178.3554   5   9   1.9910   1.9375   4.3354  -0.5267   2.2934  -0.5993   0.00    0.0
2018/01/07 01:26:00.000   47.480944278   19.056521238   178.2522   5   9   1.9894   1.9461   4.3503  -0.5352   2.3077  -0.5860   0.00    0.0
2018/01/07 01:26:30.000   47.480945406   19.056520998   178.1791   5   9   1.9878   1.9548   4.3650  -0.5436   2.3219  -0.5728   0.00    0.0
2018/01/07 01:27:00.000   47.480946326   19.056520881   178.1534   5   9   1.9863   1.9635   4.3795  -0.5520   2.3360  -0.5596   0.00    0.0
2018/01/07 01:27:30.000   47.480946699   19.056523108   178.3058   5   9   1.9847   1.9722   4.3939  -0.5605   2.3499  -0.5466   0.00    0.0
2018/01/07 01:28:00.000   47.480946371   19.056524652   178.5364   5   9   1.9832   1.9809   4.4080  -0.5689   2.3637  -0.5336   0.00    0.0
2018/01/07 01:28:30.000   47.480945743   19.056523879   178.1566   5   9   1.9818   1.9896   4.4220  -0.5773   2.3774  -0.5208   0.00    0.0
2018/01/07 01:29:00.000   47.480946101   19.056520594   177.6634   5   9   1.9804   1.9984   4.4357  -0.5858   2.3909  -0.5081   0.00    0.0
2018/01/07 01:29:30.000   47.480946320   19.056518586   177.4881   5   9   1.9789   2.0071   4.4492  -0.5943   2.4042  -0.4955   0.00    0.0
2018/01/07 01:30:00.000   47.480945579   19.056519201   177.5228   5   9   1.9776   2.0159   4.4624  -0.6029   2.4174  -0.4831   0.00    0.0
2018/01/07 01:30:30.000   47.480944558   19.056521303   177.5931   5   9   1.9762   2.0247   4.4754  -0.6115   2.4304  -0.4710   0.00    0.0
2018/01/07 01:31:00.000   47.480944417   19.056523007   177.7430   5   9   1.9749   2.0334   4.4882  -0.6201   2.4433  -0.4590   0.00    0.0
2018/01/07 01:31:30.000   47.480945246   19.056524076   177.7858   5   9   1.9736   2.0422   4.5006  -0.6287   2.4559  -0.4473   0.00    0.0
2018/01/07 01:32:00.000   47.480945777   19.056523702   177.9331   5   9   1.9724   2.0510   4.5128  -0.6375   2.4683  -0.4358   0.00    0.0
2018/01/07 01:32:30.000   47.480946205   19.056522238   177.9110   5   9   1.9712   2.0597   4.5246  -0.6462   2.4806  -0.4246   0.00    0.0
2018/01/07 01:33:00.000   47.480945249   19.056521640   177.6536   5   9   1.9700   2.0684   4.5362  -0.6551   2.4926  -0.4138   0.00    0.0
2018/01/07 01:33:30.000   47.480942956   19.056523071   177.5053   5   9   1.9688   2.0771   4.5474  -0.6640   2.5044  -0.4033   0.00    0.0
2018/01/07 01:34:00.000   47.480941372   19.056526188   177.9178   5   8   2.0303   2.0941   5.1213  -0.7391   2.4277   1.0066   0.00    0.0
2018/01/07 01:34:30.000   47.480940088   19.056529378   178.3522   5   8   2.0320   2.1020   5.1476  -0.7455   2.4425   1.0319   0.00    0.0
2018/01/07 01:35:00.000   47.480939781   19.056528683   178.5856   5   8   2.0337   2.1098   5.1738  -0.7520   2.4571   1.0565   0.00    0.0
2018/01/07 01:35:30.000   47.480940204   19.056524589   178.6361   5   8   2.0355   2.1176   5.1996  -0.7584   2.4715   1.0807   0.00    0.0
2018/01/07 01:36:00.000   47.480941784   19.056520205   178.4463   5   8   2.0373   2.1255   5.2252  -0.7649   2.4857   1.1044   0.00    0.0
2018/01/07 01:36:30.000   47.480941527   19.056520746   178.4077   5   8   2.0393   2.1334   5.2505  -0.7714   2.4997   1.1275   0.00    0.0
2018/01/07 01:37:00.000   47.480940746   19.056523908   178.4971   5   8   2.0413   2.1412   5.2755  -0.7779   2.5135   1.1502   0.00    0.0
2018/01/07 01:37:30.000   47.480941753   19.056526095   178.5229   5   8   2.0434   2.1491   5.3001  -0.7845   2.5271   1.1724   0.00    0.0
2018/01/07 01:38:00.000   47.480943735   19.056526316   178.6085   5   8   2.0456   2.1569   5.3243  -0.7912   2.5404   1.1942   0.00    0.0
2018/01/07 01:38:30.000   47.480945568   19.056525109   178.4086   5   8   2.0478   2.1648   5.3481  -0.7979   2.5534   1.2154   0.00    0.0
2018/01/07 01:39:00.000   47.480946363   19.056524232   178.5031   5   8   2.0502   2.1726   5.3714  -0.8046   2.5662   1.2362   0.00    0.0
2018/01/07 01:39:30.000   47.480946638   19.056524303   178.1037   5   8   2.0525   2.1804   5.3943  -0.8115   2.5786   1.2566   0.00    0.0
2018/01/07 01:40:00.000   47.480945590   19.056526008   178.1429   5   8   2.0550   2.1881   5.4166  -0.8184   2.5908   1.2764   0.00    0.0
2018/01/07 01:40:30.000   47.480945635   19.056527217   177.8350   5   8   2.0575   2.1959   5.4383  -0.8255   2.6026   1.2958   0.00    0.0
2018/01/07 01:41:00.000   47.480944108   19.056533085   178.6424   5   9   2.0305   1.4815   3.7852  -0.3544   0.6450   1.7601   0.00    0.0
2018/01/07 01:41:30.000   47.480943601   19.056532624   178.9637   5   9   2.0331   1.4824   3.8026  -0.3657   0.6461   1.7755   0.00    0.0
2018/01/07 01:42:00.000   47.480941821   19.056532142   178.7033   5   9   2.0358   1.4833   3.8200  -0.3766   0.6473   1.7909   0.00    0.0
2018/01/07 01:42:30.000   47.480940691   19.056530281   178.0024   5   9   2.0384   1.4842   3.8375  -0.3872   0.6487   1.8060   0.00    0.0
2018/01/07 01:43:00.000   47.480941042   19.056529275   177.4078   5   9   2.0411   1.4852   3.8550  -0.3975   0.6501   1.8210   0.00    0.0
2018/01/07 01:43:30.000   47.480942048   19.056528460   177.5077   5   9   2.0438   1.4862   3.8725  -0.4076   0.6516   1.8358   0.00    0.0
2018/01/07 01:44:00.000   47.480943704   19.056527059   177.8007   5   9   2.0465   1.4873   3.8899  -0.4174   0.6533   1.8504   0.00    0.0
2018/01/07 01:44:30.000   47.480943708   19.056528475   178.2869   5   9   2.0492   1.4885   3.9073  -0.4270   0.6551   1.8648   0.00    0.0
2018/01/07 01:45:00.000   47.480943795   19.056530844   178.2675   5   9   2.0519   1.4897   3.9246  -0.4364   0.6569   1.8791   0.00    0.0
2018/01/07 01:45:30.000   47.480944064   19.056531179   178.0898   5   9   2.0546   1.4909   3.9419  -0.4456   0.6589   1.8931   0.00    0.0
2018/01/07 01:46:00.000   47.480944135   19.056529941   177.7488   5   9   2.0572   1.4922   3.9591  -0.4546   0.6610   1.9069   0.00    0.0
2018/01/07 01:46:30.000   47.480944579   19.056527780   177.9722   5   9   2.0599   1.4935   3.9761  -0.4634   0.6631   1.9204   0.00    0.0
2018/01/07 01:47:00.000   47.480945444   19.056524274   178.6708   5   9   2.0625   1.4949   3.9930  -0.4720   0.6654   1.9338   0.00    0.0
2018/01/07 01:47:30.000   47.480945489   19.056523176   178.8845   5   9   2.0651   1.4963   4.0098  -0.4805   0.6677   1.9469   0.00    0.0
2018/01/07 01:48:00.000   47.480945529   19.056521006   179.6274   5   8   2.0735   1.7572   4.8268  -0.6173  -1.4132   2.0621   0.00    0.0
2018/01/07 01:48:30.000   47.480944649   19.056526130   179.5864   5   8   2.0764   1.7565   4.8419  -0.6265  -1.4092   2.0769   0.00    0.0
2018/01/07 01:49:00.000   47.480943974   19.056530622   179.4427   5   8   2.0791   1.7558   4.8566  -0.6353  -1.4050   2.0912   0.00    0.0
2018/01/07 01:49:30.000   47.480944393   19.056529830   179.0472   5   8   2.0819   1.7552   4.8708  -0.6438  -1.4006   2.1051   0.00    0.0
2018/01/07 01:50:00.000   47.480945775   19.056524941   178.8792   5   8   2.0845   1.7546   4.8845  -0.6519  -1.3958   2.1185   0.00    0.0
2018/01/07 01:50:30.000   47.480945791   19.056522677   178.9406   5   8   2.0871   1.7539   4.8978  -0.6597  -1.3907   2.1313   0.00    0.0
2018/01/07 01:51:00.000   47.480945395   19.056523103   179.0101   5   8   2.0896   1.7534   4.9104  -0.6672  -1.3853   2.1437   0.00    0.0
2018/01/07 01:51:30.000   47.480945449   19.056524579   179.4429   5   8   2.0920   1.7528   4.9225  -0.6744  -1.3796   2.1555   0.00    0.0
2018/01/07 01:52:00.000   47.480946583   19.056525101   179.7128   5   8   2.0944   1.7522   4.9341  -0.6814  -1.3736   2.1668   0.00    0.0
2018/01/07 01:52:30.000   47.480947590   19.056526726   180.0133   5   9   2.0885   1.5128   4.1648  -0.5579   0.6965   2.0621   0.00    0.0
2018/01/07 01:53:00.000   47.480948918   19.056527772   180.1948   5   9   2.0905   1.5146   4.1786  -0.5650   0.6999   2.0719   0.00    0.0
2018/01/07 01:53:30.000   47.480949527   19.056526904   180.2601   5   9   2.0923   1.5166   4.1920  -0.5721   0.7033   2.0812   0.00    0.0
2018/01/07 01:54:00.000   47.480948139   19.056525399   179.7726   5   9   2.0941   1.5185   4.2050  -0.5790   0.7069   2.0902   0.00    0.0
2018/01/07 01:54:30.000   47.480946147   19.056522594   179.1319   5   9   2.0957   1.5205   4.2176  -0.5858   0.7105   2.0988   0.00    0.0
2018/01/07 01:55:00.000   47.480944875   19.056521981   179.2497   5   9   2.0973   1.5226   4.2297  -0.5926   0.7142   2.1070   0.00    0.0
2018/01/07 01:55:30.000   47.480945505   19.056523706   179.5199   5   9   2.0987   1.5246   4.2414  -0.5993   0.7180   2.1147   0.00    0.0
2018/01/07 01:56:00.000   47.480947074   19.056525565   179.9249   5   9   2.1000   1.5268   4.2526  -0.6059   0.7218   2.1221   0.00    0.0
2018/01/07 01:56:30.000   47.480948488   19.056527251   180.5164   5   9   2.1012   1.5289   4.2632  -0.6124   0.7258   2.1290   0.00    0.0
2018/01/07 01:57:00.000   47.480949997   19.056528831   180.6568   5   9   2.1022   1.5311   4.2734  -0.6189   0.7298   2.1355   0.00    0.0
2018/01/07 01:57:30.000   47.480951065   19.056529601   180.5026   5   9   2.1032   1.5333   4.2830  -0.6253   0.7339   2.1415   0.00    0.0
2018/01/07 01:58:00.000   47.480950888   19.056526618   180.1063   5   9   2.1039   1.5356   4.2921  -0.6316   0.7380   2.1471   0.00    0.0
2018/01/07 01:58:30.000   47.480949666   19.056525612   179.9807   5   9   2.1046   1.5379   4.3006  -0.6379   0.7423   2.1522   0.00    0.0
2018/01/07 01:59:00.000   47.480948773   19.056524214   179.7277   5   9   2.1051   1.5403   4.3086  -0.6441   0.7466   2.1568   0.00    0.0
2018/01/07 01:59:30.000   47.480948245   19.056523627   179.5771   5   9   2.1055   1.5427   4.3160  -0.6502   0.7509   2.1610   0.00    0.0
2018/01/07 02:00:00.000   47.480947041   19.056526479   179.4307   5   9   2.2466   1.6053   4.5605  -0.8785  -0.2501   2.4133   0.00    0.0
2018/01/07 02:00:30.000   47.480944741   19.056530812   179.2394   5   9   2.2479   1.6076   4.5715  -0.8837  -0.2493   2.4198   0.00    0.0
2018/01/07 02:01:00.000   47.480944564   19.056530404   178.9658   5   9   2.2490   1.6098   4.5817  -0.8889  -0.2477   2.4258   0.00    0.0
2018/01/07 02:01:30.000   47.480945645   19.056528450   178.8721   5   9   2.2499   1.6122   4.5913  -0.8939  -0.2453   2.4312   0.00    0.0
2018/01/07 02:02:00.000   47.480947225   19.056526758   178.6819   5   9   2.2505   1.6145   4.6000  -0.8988  -0.2420   2.4359   0.00    0.0
2018/01/07 02:02:30.000   47.480947402   19.056527369   178.6951   5   9   2.2510   1.6169   4.6080  -0.9037  -0.2377   2.4401   0.00    0.0
2018/01/07 02:03:00.000   47.480947401   19.056528158   178.9629   5   9   2.2511   1.6193   4.6152  -0.9084  -0.2324   2.4436   0.00    0.0
2018/01/07 02:03:30.000   47.480948146   19.056528207   179.3001   5   9   2.2511   1.6217   4.6216  -0.9130  -0.2260   2.4465   0.00    0.0
2018/01/07 02:04:00.000   47.480948633   19.056528872   179.5774   5   9   2.2508   1.6242   4.6272  -0.9176  -0.2183   2.4488   0.00    0.0
2018/01/07 02:04:30.000   47.480948515   19.056529930   179.7202   5   9   2.2503   1.6267   4.6320  -0.9221  -0.2092   2.4504   0.00    0.0
2018/01/07 02:05:00.000   47.480948402   19.056530284   179.8133   5   9   2.2495   1.6292   4.6360  -0.9264  -0.1987   2.4514   0.00    0.0
2018/01/07 02:05:30.000   47.480949478   19.056527424   179.8132   5   9   2.2485   1.6317   4.6391  -0.9307  -0.1863   2.4518   0.00    0.0
2018/01/07 02:06:00.000   47.480949939   19.056525615   179.7964   5   9   2.2473   1.6343   4.6414  -0.9349  -0.1716   2.4515   0.00    0.0
2018/01/07 02:06:30.000   47.480949541   19.056524855   179.5423   5   9   2.2458   1.6368   4.6429  -0.9390  -0.1541   2.4505   0.00    0.0
2018/01/07 02:07:00.000   47.480948617   19.056524596   179.2573   5   9   2.2441   1.6395   4.6435  -0.9430  -0.1326   2.4489   0.00    0.0
2018/01/07 02:07:30.000   47.480946150   19.056526683   179.0132   5   9   2.2421   1.6421   4.6433  -0.9469  -0.1047   2.4467   0.00    0.0
2018/01/07 02:08:00.000   47.480944654   19.056529528   178.9223   5   9   2.2399   1.6448   4.6422  -0.9508  -0.0622   2.4438   0.00    0.0
2018/01/07 02:08:30.000   47.480944384   19.056532818   179.0293   5   9   2.2374   1.6475   4.6403  -0.9545   0.0608   2.4403   0.00    0.0
2018/01/07 02:09:00.000   47.480946681   19.056531830   179.0887   5   9   2.2348   1.6502   4.6376  -0.9582   0.1081   2.4362   0.00    0.0
2018/01/07 02:09:30.000   47.480947917   19.056531593   179.3702   5   9   2.2319   1.6529   4.6341  -0.9618   0.1418   2.4314   0.00    0.0
2018/01/07 02:10:00.000   47.480948500   19.056529730   179.4011   5   9   2.2287   1.6557   4.6297  -0.9654   0.1703   2.4260   0.00    0.0
2018/01/07 02:10:30.000   47.480949255   19.056527234   179.0753   5   9   2.2254   1.6585   4.6246  -0.9688   0.1957   2.4200   0.00    0.0
2018/01/07 02:11:00.000   47.480949039   19.056526136   178.8835   5   9   2.2219   1.6613   4.6187  -0.9722   0.2191   2.4134   0.00    0.0
2018/01/07 02:11:30.000   47.480947883   19.056527465   178.7266   5   9   2.2181   1.6641   4.6120  -0.9756   0.2411   2.4062   0.00    0.0
2018/01/07 02:12:00.000   47.480946273   19.056529991   178.6861   5   9   2.2141   1.6670   4.6045  -0.9789   0.2621   2.3984   0.00    0.0
2018/01/07 02:12:30.000   47.480944580   19.056530347   178.7379   5   9   2.2100   1.6699   4.5963  -0.9821   0.2821   2.3900   0.00    0.0
2018/01/07 02:13:00.000   47.480943581   19.056531039   178.9088   5   9   2.2056   1.6728   4.5874  -0.9853   0.3015   2.3811   0.00    0.0
2018/01/07 02:13:30.000   47.480943672   19.056529666   178.6670   5   9   2.2011   1.6757   4.5778  -0.9884   0.3203   2.3716   0.00    0.0
2018/01/07 02:14:00.000   47.480945506   19.056529381   178.6446   5   9   2.1964   1.6787   4.5675  -0.9914   0.3385   2.3616   0.00    0.0
2018/01/07 02:14:30.000   47.480947690   19.056529557   178.8528   5   9   2.1916   1.6817   4.5565  -0.9945   0.3563   2.3511   0.00    0.0
2018/01/07 02:15:00.000   47.480949462   19.056528955   179.1790   5   9   2.1866   1.6847   4.5449  -0.9974   0.3737   2.3400   0.00    0.0
2018/01/07 02:15:30.000   47.480950486   19.056528666   179.5586   5   9   2.1814   1.6878   4.5327  -1.0004   0.3907   2.3285   0.00    0.0
2018/01/07 02:16:00.000   47.480950599   19.056527729   179.7788   5   9   2.1762   1.6908   4.5198  -1.0033   0.4073   2.3165   0.00    0.0
2018/01/07 02:16:30.000   47.480949482   19.056528504   179.6977   5   9   2.1707   1.6939   4.5065  -1.0062   0.4237   2.3040   0.00    0.0
2018/01/07 02:17:00.000   47.480947837   19.056529424   179.4453   5   9   2.1652   1.6971   4.4925  -1.0090   0.4397   2.2911   0.00    0.0
2018/01/07 02:17:30.000   47.480946042   19.056530369   179.1642   5   9   2.1596   1.7002   4.4780  -1.0118   0.4555   2.2778   0.00    0.0
2018/01/07 02:18:00.000   47.480945416   19.056529751   179.1162   5   9   2.1538   1.7034   4.4631  -1.0146   0.4709   2.2640   0.00    0.0
2018/01/07 02:18:30.000   47.480946890   19.056527221   179.2222   5   9   2.1480   1.7066   4.4477  -1.0174   0.4862   2.2498   0.00    0.0
2018/01/07 02:19:00.000   47.480948293   19.056525167   179.3044   5   9   2.1421   1.7098   4.4318  -1.0202   0.5011   2.2353   0.00    0.0
2018/01/07 02:19:30.000   47.480948083   19.056525828   179.4131   5   9   2.1361   1.7131   4.4155  -1.0229   0.5158   2.2204   0.00    0.0
2018/01/07 02:20:00.000   47.480947144   19.056526123   179.4599   5   9   2.1300   1.7163   4.3988  -1.0256   0.5303   2.2051   0.00    0.0
2018/01/07 02:20:30.000   47.480944471   19.056529475   179.4854   5   9   2.1239   1.7196   4.3817  -1.0284   0.5446   2.1895   0.00    0.0
2018/01/07 02:21:00.000   47.480944349   19.056529151   179.4627   5   9   2.1177   1.7230   4.3643  -1.0311   0.5586   2.1736   0.00    0.0
2018/01/07 02:21:30.000   47.480945493   19.056527232   179.4000   5   9   2.1115   1.7263   4.3466  -1.0338   0.5724   2.1574   0.00    0.0
2018/01/07 02:22:00.000   47.480946743   19.056526711   179.2414   5   9   2.1052   1.7297   4.3286  -1.0365   0.5860   2.1409   0.00    0.0
2018/01/07 02:22:30.000   47.480948057   19.056526805   179.3389   5   9   2.0990   1.7331   4.3103  -1.0392   0.5994   2.1241   0.00    0.0
2018/01/07 02:23:00.000   47.480948695   19.056526970   179.6007   5   9   2.0927   1.7366   4.2917  -1.0420   0.6126   2.1071   0.00    0.0
2018/01/07 02:23:30.000   47.480948708   19.056527137   179.7538   5   9   2.0864   1.7400   4.2730  -1.0447   0.6255   2.0898   0.00    0.0
2018/01/07 02:24:00.000   47.480948133   19.056527897   179.7109   5   9   2.0801   1.7435   4.2540  -1.0474   0.6383   2.0722   0.00    0.0
2018/01/07 02:24:30.000   47.480948193   19.056526121   179.4764   5   9   2.0738   1.7470   4.2349  -1.0502   0.6508   2.0545   0.00    0.0
2018/01/07 02:25:00.000   47.480947672   19.056525826   179.1671   5   9   2.0675   1.7505   4.2156  -1.0529   0.6632   2.0365   0.00    0.0
2018/01/07 02:25:30.000   47.480947064   19.056526911   178.9907   5   9   2.0612   1.7541   4.1962  -1.0557   0.6754   2.0184   0.00    0.0
2018/01/07 02:26:00.000   47.480947802   19.056525861   178.9748   5   9   2.0550   1.7577   4.1766  -1.0585   0.6874   2.0000   0.00    0.0
2018/01/07 02:26:30.000   47.480949410   19.056523072   178.9986   5   9   2.0488   1.7613   4.1570  -1.0613   0.6992   1.9815   0.00    0.0
2018/01/07 02:27:00.000   47.480951383   19.056521530   179.2051   5   9   2.0426   1.7649   4.1373  -1.0641   0.7108   1.9629   0.00    0.0
2018/01/07 02:27:30.000   47.480953637   19.056518471   179.5638   5   9   2.0365   1.7686   4.1176  -1.0669   0.7222   1.9440   0.00    0.0
2018/01/07 02:28:00.000   47.480952194   19.056521950   179.9400   5   9   2.0304   1.7723   4.0978  -1.0698   0.7334   1.9251   0.00    0.0
2018/01/07 02:28:30.000   47.480952054   19.056524698   179.4147   5   8   2.0493   1.8109   4.5353  -1.0189  -0.3843   1.7324   0.00    0.0
2018/01/07 02:29:00.000   47.480950192   19.056526757   179.7414   5   8   2.0435   1.8138   4.5196  -1.0224  -0.3536   1.7102   0.00    0.0
2018/01/07 02:29:30.000   47.480948553   19.056527153   180.1288   5   8   2.0379   1.8167   4.5038  -1.0259  -0.3194   1.6877   0.00    0.0
2018/01/07 02:30:00.000   47.480948785   19.056525805   180.4352   5   8   2.0323   1.8196   4.4877  -1.0294  -0.2807   1.6649   0.00    0.0
2018/01/07 02:30:30.000   47.480948399   19.056527361   180.6880   5   8   2.0269   1.8226   4.4716  -1.0329  -0.2352   1.6420   0.00    0.0
2018/01/07 02:31:00.000   47.480948953   19.056529039   180.8806   5   8   2.0216   1.8256   4.4553  -1.0365  -0.1776   1.6188   0.00    0.0
2018/01/07 02:31:30.000   47.480949538   19.056529820   181.0263   5   8   2.0163   1.8286   4.4389  -1.0400  -0.0871   1.5953   0.00    0.0
2018/01/07 02:32:00.000   47.480950909   19.056527083   180.8006   5   8   2.0112   1.8316   4.4224  -1.0436   0.1288   1.5717   0.00    0.0
2018/01/07 02:32:30.000   47.480951181   19.056527394   180.2209   5   8   2.0062   1.8347   4.4058  -1.0472   0.2024   1.5478   0.00    0.0
2018/01/07 02:33:00.000   47.480950876   19.056525997   179.7302   5   8   2.0012   1.8378   4.3891  -1.0508   0.2559   1.5236   0.00    0.0
2018/01/07 02:33:30.000   47.480949722   19.056526802   179.6032   5   8   1.9964   1.8409   4.3724  -1.0544   0.3003   1.4993   0.00    0.0
2018/01/07 02:34:00.000   47.480949162   19.056525681   179.5328   5   8   1.9917   1.8441   4.3557  -1.0581   0.3392   1.4747   0.00    0.0
2018/01/07 02:34:30.000   47.480948620   19.056524721   179.4208   5   8   1.9872   1.8473   4.3389  -1.0618   0.3742   1.4499   0.00    0.0
2018/01/07 02:35:00.000   47.480947283   19.056527872   179.3929   5   8   1.9827   1.8505   4.3221  -1.0655   0.4064   1.4248   0.00    0.0
2018/01/07 02:35:30.000   47.480947049   19.056528443   179.4374   5   8   1.9784   1.8538   4.3053  -1.0693   0.4363   1.3995   0.00    0.0
2018/01/07 02:36:00.000   47.480946868   19.056527458   179.5868   5   8   1.9742   1.8570   4.2885  -1.0731   0.4644   1.3740   0.00    0.0
2018/01/07 02:36:30.000   47.480946669   19.056526803   179.5731   5   8   1.9701   1.8603   4.2717  -1.0769   0.4910   1.3482   0.00    0.0
2018/01/07 02:37:00.000   47.480947225   19.056524986   179.4244   5   8   1.9661   1.8637   4.2549  -1.0807   0.5163   1.3222   0.00    0.0
2018/01/07 02:37:30.000   47.480946556   19.056526073   179.2920   5   8   1.9623   1.8670   4.2381  -1.0846   0.5405   1.2959   0.00    0.0
2018/01/07 02:38:00.000   47.480946568   19.056529154   179.1788   5   8   1.9585   1.8704   4.2214  -1.0885   0.5636   1.2693   0.00    0.0
2018/01/07 02:38:30.000   47.480947480   19.056531090   179.2285   5   8   1.9549   1.8739   4.2047  -1.0925   0.5859   1.2424   0.00    0.0
2018/01/07 02:39:00.000   47.480948303   19.056531132   179.2736   5   8   1.9515   1.8773   4.1881  -1.0965   0.6074   1.2153   0.00    0.0
2018/01/07 02:39:30.000   47.480950294   19.056529488   179.1682   5   8   1.9481   1.8808   4.1716  -1.1005   0.6282   1.1878   0.00    0.0
2018/01/07 02:40:00.000   47.480950892   19.056528833   179.2178   5   8   1.9449   1.8843   4.1551  -1.1045   0.6484   1.1600   0.00    0.0
2018/01/07 02:40:30.000   47.480949374   19.056532807   179.8128   5   8   1.9418   1.8879   4.1387  -1.1086   0.6679   1.1318   0.00    0.0
2018/01/07 02:41:00.000   47.480950901   19.056532327   180.3860   5   8   1.9388   1.8914   4.1223  -1.1128   0.6869   1.1032   0.00    0.0
2018/01/07 02:41:30.000   47.480952841   19.056528554   180.8532   5   8   1.9360   1.8950   4.1061  -1.1169   0.7053   1.0743   0.00    0.0
2018/01/07 02:42:00.000   47.480953870   19.056528556   181.0201   5   8   1.9333   1.8987   4.0899  -1.1211   0.7233   1.0449   0.00    0.0
2018/01/07 02:42:30.000   47.480954642   19.056527093   181.0562   5   8   1.9307   1.9023   4.0739  -1.1254   0.7408   1.0150   0.00    0.0
2018/01/07 02:43:00.000   47.480955122   19.056529242   180.7122   5   8   1.9282   1.9060   4.0579  -1.1297   0.7579   0.9846   0.00    0.0
2018/01/07 02:43:30.000   47.480956196   19.056530084   180.4563   5   8   1.9258   1.9097   4.0421  -1.1340   0.7746   0.9536   0.00    0.0
2018/01/07 02:44:00.000   47.480956396   19.056528974   180.4761   5   8   1.9236   1.9135   4.0264  -1.1383   0.7909   0.9220   0.00    0.0
2018/01/07 02:44:30.000   47.480954358   19.056530842   180.5974   5   8   1.9215   1.9173   4.0108  -1.1427   0.8069   0.8897   0.00    0.0
2018/01/07 02:45:00.000   47.480951163   19.056533412   180.9557   5   8   1.9195   1.9211   3.9953  -1.1471   0.8225   0.8567   0.00    0.0
2018/01/07 02:45:30.000   47.480949439   19.056532690   181.1448   5   8   1.9176   1.9249   3.9799  -1.1515   0.8378   0.8228   0.00    0.0
2018/01/07 02:46:00.000   47.480949591   19.056529535   181.0448   5   8   1.9158   1.9288   3.9647  -1.1560   0.8527   0.7879   0.00    0.0
2018/01/07 02:46:30.000   47.480948356   19.056529527   180.8097   5   8   1.9142   1.9326   3.9495  -1.1605   0.8674   0.7519   0.00    0.0
2018/01/07 02:47:00.000   47.480948080   19.056528462   180.5951   5   8   1.9126   1.9365   3.9346  -1.1651   0.8818   0.7146   0.00    0.0
2018/01/07 02:47:30.000   47.480946748   19.056528774   180.5373   5   8   1.9112   1.9405   3.9197  -1.1696   0.8959   0.6758   0.00    0.0
2018/01/07 02:48:00.000   47.480947334   19.056527512   180.5514   5   8   1.9099   1.9444   3.9050  -1.1742   0.9097   0.6353   0.00    0.0
2018/01/07 02:48:30.000   47.480948511   19.056523873   180.8031   5   8   1.9087   1.9484   3.8904  -1.1789   0.9233   0.5926   0.00    0.0
2018/01/07 02:49:00.000   47.480948616   19.056522901   181.2004   5   8   1.9076   1.9524   3.8760  -1.1835   0.9367   0.5472   0.00    0.0
2018/01/07 02:49:30.000   47.480950093   19.056523369   181.6735   5   8   1.9066   1.9565   3.8617  -1.1882   0.9498   0.4985   0.00    0.0
2018/01/07 02:50:00.000   47.480950955   19.056524352   182.0070   5   8   1.9057   1.9605   3.8476  -1.1929   0.9627   0.4453   0.00    0.0
2018/01/07 02:50:30.000   47.480951158   19.056525449   182.0176   5   8   1.9050   1.9646   3.8336  -1.1977   0.9753   0.3857   0.00    0.0
2018/01/07 02:51:00.000   47.480950513   19.056526949   182.0183   5   8   1.9043   1.9687   3.8197  -1.2024   0.9878   0.3162   0.00    0.0
2018/01/07 02:51:30.000   47.480950478   19.056527955   182.0469   5   8   1.9037   1.9729   3.8060  -1.2072   1.0000   0.2279   0.00    0.0
2018/01/07 02:52:00.000   47.480949857   19.056530429   182.1199   5   8   1.9033   1.9770   3.7924  -1.2120   1.0120   0.0678   0.00    0.0
2018/01/07 02:52:30.000   47.480950447   19.056529048   182.0638   5   8   1.9029   1.9812   3.7790  -1.2168   1.0239  -0.2051   0.00    0.0
2018/01/07 02:53:00.000   47.480951508   19.056528121   181.7086   5   8   1.9026   1.9854   3.7658  -1.2217   1.0355  -0.2967   0.00    0.0
2018/01/07 02:53:30.000   47.480951727   19.056526966   181.3464   5   8   1.9024   1.9896   3.7526  -1.2266   1.0470  -0.3650   0.00    0.0
2018/01/07 02:54:00.000   47.480953135   19.056527165   180.9189   5   8   1.9024   1.9939   3.7397  -1.2314   1.0582  -0.4217   0.00    0.0
2018/01/07 02:54:30.000   47.480953621   19.056526209   180.3420   5   8   1.9024   1.9981   3.7269  -1.2363   1.0694  -0.4709   0.00    0.0
2018/01/07 02:55:00.000   47.480954487   19.056523184   180.0177   5   8   1.9025   2.0024   3.7142  -1.2413   1.0803  -0.5147   0.00    0.0
2018/01/07 02:55:30.000   47.480954343   19.056522801   179.9076   5   8   1.9027   2.0067   3.7017  -1.2462   1.0910  -0.5546   0.00    0.0
2018/01/07 02:56:00.000   47.480954089   19.056522843   180.1399   5   8   1.9030   2.0110   3.6893  -1.2511   1.1016  -0.5911   0.00    0.0
2018/01/07 02:56:30.000   47.480952580   19.056525957   180.1550   5   8   1.9033   2.0154   3.6771  -1.2561   1.1121  -0.6251   0.00    0.0
2018/01/07 02:57:00.000   47.480951055   19.056527492   180.3068   5   8   1.9038   2.0197   3.6651  -1.2611   1.1224  -0.6567   0.00    0.0
2018/01/07 02:57:30.000   47.480951128   19.056528101   180.1233   5   8   1.9043   2.0241   3.6531  -1.2661   1.1325  -0.6865   0.00    0.0
2018/01/07 02:58:00.000   47.480950944   19.056528486   180.1175   5   8   1.9050   2.0285   3.6414  -1.2711   1.1425  -0.7146   0.00    0.0
2018/01/07 02:58:30.000   47.480950858   19.056528358   180.1671   5   8   1.9057   2.0329   3.6298  -1.2761   1.1523  -0.7412   0.00    0.0
2018/01/07 02:59:00.000   47.480950298   19.056529952   180.3148   5   8   1.9065   2.0373   3.6183  -1.2811   1.1620  -0.7664   0.00    0.0
2018/01/07 02:59:30.000   47.480950393   19.056532013   180.5510   5   8   1.9073   2.0417   3.6070  -1.2861   1.1716  -0.7905   0.00    0.0
2018/01/07 03:00:00.000   47.480951660   19.056532550   180.8676   5   8   1.9051   2.0390   3.4013  -1.2838   1.2628  -0.8894   0.00    0.0
2018/01/07 03:00:30.000   47.480952908   19.056530832   180.5755   5   8   1.9065   2.0439   3.3910  -1.2895   1.2692  -0.9048   0.00    0.0
2018/01/07 03:01:00.000   47.480953471   19.056529706   180.1759   5   8   1.9080   2.0487   3.3808  -1.2951   1.2754  -0.9198   0.00    0.0
2018/01/07 03:01:30.000   47.480955168   19.056526592   179.8834   5   8   1.9095   2.0536   3.3707  -1.3008   1.2816  -0.9342   0.00    0.0
2018/01/07 03:02:00.000   47.480953624   19.056526833   179.8675   5   8   1.9110   2.0584   3.3607  -1.3064   1.2878  -0.9481   0.00    0.0
2018/01/07 03:02:30.000   47.480953141   19.056528177   179.9073   5   8   1.9126   2.0633   3.3509  -1.3120   1.2938  -0.9616   0.00    0.0
2018/01/07 03:03:00.000   47.480952576   19.056528794   180.0996   5   8   1.9143   2.0682   3.3412  -1.3176   1.2998  -0.9746   0.00    0.0
2018/01/07 03:03:30.000   47.480954036   19.056528541   179.9709   5   8   1.9160   2.0730   3.3316  -1.3231   1.3057  -0.9872   0.00    0.0
2018/01/07 03:04:00.000   47.480955933   19.056526065   179.9553   5   8   1.9178   2.0779   3.3221  -1.3286   1.3115  -0.9994   0.00    0.0
2018/01/07 03:04:30.000   47.480955569   19.056526381   180.3506   5   8   1.9196   2.0828   3.3128  -1.3341   1.3173  -1.0112   0.00    0.0
2018/01/07 03:05:00.000   47.480955862   19.056526334   180.6060   5   8   1.9214   2.0876   3.3036  -1.3396   1.3229  -1.0227   0.00    0.0
2018/01/07 03:05:30.000   47.480950201   19.056532418   180.3219   5   9   1.7120   1.9825   3.1728  -1.1055   1.5359  -1.3587   0.00    0.0
2018/01/07 03:06:00.000   47.480950642   19.056533323   180.3090   5   9   1.7125   1.9851   3.1696  -1.1082   1.5379  -1.3607   0.00    0.0
2018/01/07 03:06:30.000   47.480950005   19.056533423   180.5137   5   9   1.7131   1.9877   3.1665  -1.1108   1.5398  -1.3625   0.00    0.0
2018/01/07 03:07:00.000   47.480950197   19.056533367   180.6486   5   9   1.7137   1.9903   3.1632  -1.1134   1.5415  -1.3641   0.00    0.0
2018/01/07 03:07:30.000   47.480950528   19.056531281   180.5021   5   9   1.7143   1.9929   3.1600  -1.1159   1.5431  -1.3656   0.00    0.0
2018/01/07 03:08:00.000   47.480951602   19.056527786   180.0934   5   9   1.7149   1.9955   3.1566  -1.1184   1.5446  -1.3670   0.00    0.0
2018/01/07 03:08:30.000   47.480950484   19.056526033   179.6794   5   9   1.7155   1.9980   3.1533  -1.1208   1.5461  -1.3682   0.00    0.0
2018/01/07 03:09:00.000   47.480950445   19.056523207   179.5786   5   9   1.7162   2.0006   3.1499  -1.1232   1.5474  -1.3692   0.00    0.0
2018/01/07 03:09:30.000   47.480951949   19.056518580   179.3961   5   9   1.7168   2.0031   3.1464  -1.1255   1.5486  -1.3701   0.00    0.0
2018/01/07 03:10:00.000   47.480953142   19.056517678   179.2831   5   9   1.7175   2.0056   3.1429  -1.1277   1.5497  -1.3708   0.00    0.0
2018/01/07 03:10:30.000   47.480955133   19.056519301   179.4944   5   8   1.8509   2.0849   3.4884  -0.9437   1.8050  -0.9132   0.00    0.0
2018/01/07 03:11:00.000   47.480955496   19.056521224   179.4777   5   8   1.8501   2.0878   3.4872  -0.9468   1.8073  -0.9155   0.00    0.0
2018/01/07 03:11:30.000   47.480944010   19.056526199   182.0087   5   7   2.5475   2.1224   4.6032  -1.2422   2.0914  -2.4717   0.00    0.0
2018/01/07 03:12:00.000   47.480943941   19.056529326   182.1016   5   7   2.5518   2.1278   4.6130  -1.2559   2.1054  -2.4825   0.00    0.0
2018/01/07 03:12:30.000   47.480943761   19.056530688   182.1513   5   7   2.5561   2.1332   4.6225  -1.2696   2.1192  -2.4932   0.00    0.0
2018/01/07 03:13:00.000   47.480942055   19.056531459   182.0588   5   7   2.5603   2.1387   4.6318  -1.2831   2.1328  -2.5037   0.00    0.0
2018/01/07 03:13:30.000   47.480941780   19.056529308   181.6892   5   7   2.5646   2.1442   4.6409  -1.2965   2.1462  -2.5140   0.00    0.0
2018/01/07 03:14:00.000   47.480944381   19.056527992   181.3416   5   7   2.5688   2.1497   4.6497  -1.3097   2.1595  -2.5241   0.00    0.0
2018/01/07 03:14:30.000   47.480946082   19.056527870   181.4933   5   7   2.5731   2.1552   4.6583  -1.3227   2.1726  -2.5340   0.00    0.0
2018/01/07 03:15:00.000   47.480946642   19.056528936   181.8474   5   7   2.5773   2.1608   4.6666  -1.3357   2.1854  -2.5436   0.00    0.0
2018/01/07 03:15:30.000   47.480945823   19.056529731   181.9856   5   7   2.5814   2.1664   4.6746  -1.3485   2.1981  -2.5531   0.00    0.0
2018/01/07 03:16:00.000   47.480945790   19.056529801   181.9136   5   7   2.5856   2.1721   4.6823  -1.3611   2.2106  -2.5624   0.00    0.0
2018/01/07 03:16:30.000   47.480946338   19.056530195   181.7676   5   7   2.5897   2.1777   4.6898  -1.3736   2.2229  -2.5714   0.00    0.0
2018/01/07 03:17:00.000   47.480946135   19.056531668   181.7029   5   7   2.5938   2.1834   4.6968  -1.3860   2.2350  -2.5802   0.00    0.0
2018/01/07 03:17:30.000   47.480946225   19.056532199   181.7671   5   7   2.5978   2.1891   4.7036  -1.3982   2.2469  -2.5887   0.00    0.0
2018/01/07 03:18:00.000   47.480945489   19.056533153   181.7643   5   7   2.6018   2.1948   4.7100  -1.4102   2.2585  -2.5970   0.00    0.0
2018/01/07 03:18:30.000   47.480945303   19.056534653   182.0081   5   7   2.6057   2.2005   4.7161  -1.4221   2.2699  -2.6051   0.00    0.0
2018/01/07 03:19:00.000   47.480945261   19.056534467   182.1710   5   7   2.6096   2.2062   4.7219  -1.4339   2.2811  -2.6129   0.00    0.0
2018/01/07 03:19:30.000   47.480945926   19.056531296   181.9690   5   7   2.6135   2.2119   4.7272  -1.4454   2.2921  -2.6204   0.00    0.0
2018/01/07 03:20:00.000   47.480945115   19.056529006   181.7702   5   7   2.6173   2.2177   4.7322  -1.4569   2.3028  -2.6277   0.00    0.0
2018/01/07 03:20:30.000   47.480943517   19.056527681   181.6801   5   7   2.6210   2.2234   4.7369  -1.4682   2.3133  -2.6347   0.00    0.0
2018/01/07 03:21:00.000   47.480943672   19.056526729   181.8123   5   7   2.6246   2.2291   4.7411  -1.4793   2.3235  -2.6414   0.00    0.0
2018/01/07 03:21:30.000   47.480944564   19.056526710   181.9714   5   7   2.6282   2.2348   4.7450  -1.4902   2.3335  -2.6479   0.00    0.0
2018/01/07 03:22:00.000   47.480946310   19.056524924   181.8780   5   7   2.6317   2.2405   4.7484  -1.5010   2.3432  -2.6541   0.00    0.0
2018/01/07 03:22:30.000   47.480947473   19.056524239   181.8273   5   7   2.6352   2.2462   4.7515  -1.5117   2.3527  -2.6600   0.00    0.0
2018/01/07 03:23:00.000   47.480947701   19.056525102   181.9394   5   7   2.6386   2.2518   4.7542  -1.5221   2.3619  -2.6656   0.00    0.0
2018/01/07 03:23:30.000   47.480945745   19.056529140   182.3923   5   7   2.6419   2.2575   4.7564  -1.5324   2.3708  -2.6710   0.00    0.0
2018/01/07 03:24:00.000   47.480944667   19.056530586   182.4277   5   7   2.6451   2.2631   4.7582  -1.5426   2.3795  -2.6760   0.00    0.0
2018/01/07 03:24:30.000   47.480944975   19.056529277   182.2072   5   7   2.6482   2.2687   4.7597  -1.5526   2.3879  -2.6808   0.00    0.0
2018/01/07 03:25:00.000   47.480944579   19.056527957   181.8451   5   7   2.6513   2.2743   4.7607  -1.5624   2.3961  -2.6852   0.00    0.0
2018/01/07 03:25:30.000   47.480942577   19.056531551   182.1747   5   8   2.1362   1.5263   3.1903   0.4434  -0.4544  -1.2903   0.00    0.0
2018/01/07 03:26:00.000   47.480944098   19.056531250   181.7958   5   8   2.1343   1.5253   3.1918   0.4387  -0.4445  -1.2890   0.00    0.0
2018/01/07 03:26:30.000   47.480946414   19.056531059   181.3757   5   8   2.1324   1.5242   3.1933   0.4340  -0.4343  -1.2876   0.00    0.0
2018/01/07 03:27:00.000   47.480947512   19.056532433   181.1906   5   8   2.1306   1.5232   3.1948   0.4292  -0.4236  -1.2863   0.00    0.0
2018/01/07 03:27:30.000   47.480948156   19.056532842   181.3102   5   8   2.1287   1.5223   3.1963   0.4242  -0.4124  -1.2850   0.00    0.0
2018/01/07 03:28:00.000   47.480949124   19.056533055   181.6454   5   8   2.1269   1.5214   3.1978   0.4192  -0.4007  -1.2837   0.00    0.0
2018/01/07 03:28:30.000   47.480949631   19.056534548   181.9457   5   8   2.1251   1.5206   3.1993   0.4141  -0.3885  -1.2823   0.00    0.0
2018/01/07 03:29:00.000   47.480951214   19.056534561   181.9815   5   8   2.1233   1.5198   3.2007   0.4088  -0.3757  -1.2810   0.00    0.0
2018/01/07 03:29:30.000   47.480952332   19.056533943   181.7298   5   8   2.1215   1.5191   3.2022   0.4035  -0.3622  -1.2798   0.00    0.0
2018/01/07 03:30:00.000   47.480952922   19.056532766   181.3455   5   8   2.1198   1.5184   3.2036   0.3980  -0.3480  -1.2785   0.00    0.0
2018/01/07 03:30:30.000   47.480952383   19.056531871   181.0965   5   8   2.1180   1.5177   3.2050   0.3925  -0.3330  -1.2772   0.00    0.0
2018/01/07 03:31:00.000   47.480949152   19.056534311   181.2488   5   8   2.1162   1.5171   3.2064   0.3868  -0.3172  -1.2759   0.00    0.0
2018/01/07 03:31:30.000   47.480946729   19.056536122   181.5689   5   8   2.1145   1.5166   3.2077   0.3810  -0.3003  -1.2746   0.00    0.0
2018/01/07 03:32:00.000   47.480945499   19.056537186   181.7763   5   8   2.1128   1.5161   3.2091   0.3751  -0.2821  -1.2734   0.00    0.0
2018/01/07 03:32:30.000   47.480945703   19.056536792   181.8028   5   8   2.1111   1.5156   3.2104   0.3691  -0.2625  -1.2721   0.00    0.0
