     3.01           OBSERVATION DATA    G (GPS)             RINEX VERSION / TYPE
GINA GNSS Simulator Robert Bosch Gmbh.  20180725 083017 UTC PGM / RUN BY / DATE
C1 modelled using GNSS SIM                                  COMMENT
https://github.com/GINAProject/GINA                         COMMENT
Header contents might be invalid in some cases.             COMMENT
---                                                         MARKER NAME
                                                            MARKER NUMBER
---                                                         MARKER TYPE
CC/ENG2             VMPS System Simulation                  OBSERVER / AGENCY
---                 ---                 1.0.0               REC # / TYPE / VERS
---                 No modelled antenna                     ANT # / TYPE
        0.0000        0.0000        0.0000                  APPROX POSITION XYZ
        0.0000        0.0000        0.0000                  ANTENNA: DELTA H/E/N
G    1 C1C                                                  SYS / # / OBS TYPES
1                                                           SIGNAL STRENGTH UNIT
     0.100                                                  INTERVAL
  2017     7     2     0     0    0.1000000     GPS         TIME OF FIRST OBS
  2017     7     2     0     4    5.0000000     GPS         TIME OF LAST OBS
     9                                                      # OF SATELLITES
                                                            END OF HEADER
> 2017 07 02 00 00  0.1000000  0  9      
G02  23065524.701 0
G03  23802618.128 0
G06  21834558.210 0
G07  21214220.825 0
G09  20147826.831 0
G16  23306416.501 0
G23  21573912.788 0
G26  24625480.888 0
G30  23588386.506 0
> 2017 07 02 00 00  0.2000000  0  9      
G02  23065501.563 0
G03  23802682.799 0
G06  21834594.875 0
G07  21214181.029 0
G09  20147834.260 0
G16  23306410.324 0
G23  21573948.030 0
G26  24625509.093 0
G30  23588317.836 0
> 2017 07 02 00 00  0.3000000  0  9      
G02  23065478.426 0
G03  23802747.470 0
G06  21834631.541 0
G07  21214141.234 0
G09  20147841.690 0
G16  23306404.149 0
G23  21573983.272 0
G26  24625537.298 0
G30  23588249.166 0
> 2017 07 02 00 00  0.4000000  0  9      
G02  23065455.290 0
G03  23802812.141 0
G06  21834668.208 0
G07  21214101.440 0
G09  20147849.120 0
G16  23306397.975 0
G23  21574018.515 0
G26  24625565.505 0
G30  23588180.497 0
> 2017 07 02 00 00  0.5000000  0  9      
G02  23065432.156 0
G03  23802876.813 0
G06  21834704.876 0
G07  21214061.647 0
G09  20147856.552 0
G16  23306391.803 0
G23  21574053.758 0
G26  24625593.713 0
G30  23588111.828 0
> 2017 07 02 00 00  0.6000000  0  9      
G02  23065409.022 0
G03  23802941.485 0
G06  21834741.545 0
G07  21214021.855 0
G09  20147863.984 0
G16  23306385.632 0
G23  21574089.002 0
G26  24625621.922 0
G30  23588043.159 0
> 2017 07 02 00 00  0.7000000  0  9      
G02  23065385.889 0
G03  23803006.158 0
G06  21834778.216 0
G07  21213982.064 0
G09  20147871.417 0
G16  23306379.462 0
G23  21574124.246 0
G26  24625650.132 0
G30  23587974.491 0
> 2017 07 02 00 00  0.8000000  0  9      
G02  23065362.758 0
G03  23803070.831 0
G06  21834814.887 0
G07  21213942.273 0
G09  20147878.850 0
G16  23306373.294 0
G23  21574159.491 0
G26  24625678.343 0
G30  23587905.823 0
> 2017 07 02 00 00  0.9000000  0  9      
G02  23065339.627 0
G03  23803135.504 0
G06  21834851.559 0
G07  21213902.484 0
G09  20147886.284 0
G16  23306367.127 0
G23  21574194.736 0
G26  24625706.555 0
G30  23587837.155 0
> 2017 07 02 00 00  1.0000000  0  9      
G02  23065316.498 0
G03  23803200.178 0
G06  21834888.233 0
G07  21213862.695 0
G09  20147893.719 0
G16  23306360.961 0
G23  21574229.981 0
G26  24625734.769 0
G30  23587768.488 0
> 2017 07 02 00 00  1.1000000  0  9      
G02  23065293.369 0
G03  23803264.852 0
G06  21834924.907 0
G07  21213822.908 0
G09  20147901.155 0
G16  23306354.797 0
G23  21574265.228 0
G26  24625762.983 0
G30  23587699.821 0
> 2017 07 02 00 00  1.2000000  0  9      
G02  23065270.242 0
G03  23803329.526 0
G06  21834961.583 0
G07  21213783.121 0
G09  20147908.592 0
G16  23306348.634 0
G23  21574300.474 0
G26  24625791.199 0
G30  23587631.154 0
> 2017 07 02 00 00  1.3000000  0  9      
G02  23065247.116 0
G03  23803394.201 0
G06  21834998.259 0
G07  21213743.335 0
G09  20147916.029 0
G16  23306342.472 0
G23  21574335.721 0
G26  24625819.415 0
G30  23587562.488 0
> 2017 07 02 00 00  1.4000000  0  9      
G02  23065223.991 0
G03  23803458.876 0
G06  21835034.937 0
G07  21213703.550 0
G09  20147923.467 0
G16  23306336.311 0
G23  21574370.969 0
G26  24625847.633 0
G30  23587493.822 0
> 2017 07 02 00 00  1.5000000  0  9      
G02  23065200.867 0
G03  23803523.551 0
G06  21835071.616 0
G07  21213663.766 0
G09  20147930.906 0
G16  23306330.152 0
G23  21574406.217 0
G26  24625875.852 0
G30  23587425.156 0
> 2017 07 02 00 00  1.6000000  0  9      
G02  23065177.744 0
G03  23803588.227 0
G06  21835108.296 0
G07  21213623.983 0
G09  20147938.345 0
G16  23306323.994 0
G23  21574441.466 0
G26  24625904.072 0
G30  23587356.491 0
> 2017 07 02 00 00  1.7000000  0  9      
G02  23065154.622 0
G03  23803652.903 0
G06  21835144.977 0
G07  21213584.200 0
G09  20147945.785 0
G16  23306317.838 0
G23  21574476.715 0
G26  24625932.293 0
G30  23587287.826 0
> 2017 07 02 00 00  1.8000000  0  9      
G02  23065131.501 0
G03  23803717.580 0
G06  21835181.659 0
G07  21213544.419 0
G09  20147953.226 0
G16  23306311.683 0
G23  21574511.965 0
G26  24625960.515 0
G30  23587219.161 0
> 2017 07 02 00 00  1.9000000  0  9      
G02  23065108.381 0
G03  23803782.257 0
G06  21835218.342 0
G07  21213504.638 0
G09  20147960.668 0
G16  23306305.529 0
G23  21574547.215 0
G26  24625988.738 0
G30  23587150.497 0
> 2017 07 02 00 00  2.1000000  0  9      
G02  23065062.137 0
G03  23803911.619 0
G06  21835291.704 0
G07  21213425.079 0
G09  20147975.554 0
G16  23306293.233 0
G23  21574617.723 0
G26  24626045.194 0
G30  23587013.166 0
> 2017 07 02 00 00  2.2000000  0  9      
G02  23065039.006 0
G03  23803976.311 0
G06  21835328.377 0
G07  21213385.301 0
G09  20147983.000 0
G16  23306287.100 0
G23  21574652.987 0
G26  24626073.433 0
G30  23586944.495 0
> 2017 07 02 00 00  2.3000000  0  9      
G02  23065015.868 0
G03  23804041.011 0
G06  21835365.045 0
G07  21213345.522 0
G09  20147990.447 0
G16  23306280.976 0
G23  21574688.258 0
G26  24626101.678 0
G30  23586875.820 0
> 2017 07 02 00 00  2.4000000  0  9      
G02  23064992.724 0
G03  23804105.718 0
G06  21835401.707 0
G07  21213305.744 0
G09  20147997.896 0
G16  23306274.862 0
G23  21574723.536 0
G26  24626129.930 0
G30  23586807.142 0
> 2017 07 02 00 00  2.5000000  0  9      
G02  23064969.573 0
G03  23804170.433 0
G06  21835438.364 0
G07  21213265.966 0
G09  20148005.347 0
G16  23306268.758 0
G23  21574758.820 0
G26  24626158.189 0
G30  23586738.461 0
> 2017 07 02 00 00  2.6000000  0  9      
G02  23064946.416 0
G03  23804235.155 0
G06  21835475.016 0
G07  21213226.189 0
G09  20148012.799 0
G16  23306262.663 0
G23  21574794.111 0
G26  24626186.455 0
G30  23586669.776 0
> 2017 07 02 00 00  2.7000000  0  9      
G02  23064923.252 0
G03  23804299.885 0
G06  21835511.662 0
G07  21213186.412 0
G09  20148020.253 0
G16  23306256.578 0
G23  21574829.409 0
G26  24626214.729 0
G30  23586601.088 0
> 2017 07 02 00 00  2.8000000  0  9      
G02  23064900.082 0
G03  23804364.622 0
G06  21835548.302 0
G07  21213146.635 0
G09  20148027.708 0
G16  23306250.502 0
G23  21574864.714 0
G26  24626243.009 0
G30  23586532.396 0
> 2017 07 02 00 00  2.9000000  0  9      
G02  23064876.906 0
G03  23804429.367 0
G06  21835584.937 0
G07  21213106.859 0
G09  20148035.165 0
G16  23306244.437 0
G23  21574900.025 0
G26  24626271.296 0
G30  23586463.700 0
> 2017 07 02 00 00  3.1000000  0  9      
G02  23064830.541 0
G03  23804558.872 0
G06  21835658.198 0
G07  21213027.308 0
G09  20148050.084 0
G16  23306232.325 0
G23  21574970.662 0
G26  24626327.885 0
G30  23586326.303 0
> 2017 07 02 00 00  3.2000000  0  9      
G02  23064807.361 0
G03  23804623.625 0
G06  21835694.830 0
G07  21212987.534 0
G09  20148057.544 0
G16  23306226.272 0
G23  21575005.981 0
G26  24626356.181 0
G30  23586257.605 0
> 2017 07 02 00 00  3.3000000  0  9      
G02  23064784.181 0
G03  23804688.379 0
G06  21835731.462 0
G07  21212947.761 0
G09  20148065.005 0
G16  23306220.219 0
G23  21575041.300 0
G26  24626384.478 0
G30  23586188.907 0
> 2017 07 02 00 00  3.4000000  0  9      
G02  23064761.003 0
G03  23804753.133 0
G06  21835768.096 0
G07  21212907.989 0
G09  20148072.467 0
G16  23306214.168 0
G23  21575076.620 0
G26  24626412.777 0
G30  23586120.209 0
> 2017 07 02 00 00  3.5000000  0  9      
G02  23064737.825 0
G03  23804817.887 0
G06  21835804.731 0
G07  21212868.217 0
G09  20148079.929 0
G16  23306208.119 0
G23  21575111.941 0
G26  24626441.076 0
G30  23586051.512 0
> 2017 07 02 00 00  3.6000000  0  9      
G02  23064714.649 0
G03  23804882.641 0
G06  21835841.367 0
G07  21212828.447 0
G09  20148087.392 0
G16  23306202.070 0
G23  21575147.262 0
G26  24626469.377 0
G30  23585982.815 0
> 2017 07 02 00 00  3.7000000  0  9      
G02  23064691.474 0
G03  23804947.396 0
G06  21835878.004 0
G07  21212788.677 0
G09  20148094.856 0
G16  23306196.023 0
G23  21575182.583 0
G26  24626497.679 0
G30  23585914.119 0
> 2017 07 02 00 00  3.8000000  0  9      
G02  23064668.299 0
G03  23805012.151 0
G06  21835914.642 0
G07  21212748.908 0
G09  20148102.321 0
G16  23306189.978 0
G23  21575217.906 0
G26  24626525.981 0
G30  23585845.422 0
> 2017 07 02 00 00  3.9000000  0  9      
G02  23064645.126 0
G03  23805076.907 0
G06  21835951.282 0
G07  21212709.140 0
G09  20148109.786 0
G16  23306183.933 0
G23  21575253.228 0
G26  24626554.285 0
G30  23585776.726 0
> 2017 07 02 00 00  4.1000000  0  9      
G02  23064598.788 0
G03  23805206.413 0
G06  21836024.560 0
G07  21212629.602 0
G09  20148124.721 0
G16  23306171.852 0
G23  21575323.877 0
G26  24626610.904 0
G30  23585639.327 0
> 2017 07 02 00 00  4.2000000  0  9      
G02  23064575.627 0
G03  23805271.157 0
G06  21836061.195 0
G07  21212589.826 0
G09  20148132.192 0
G16  23306165.820 0
G23  21575359.205 0
G26  24626639.227 0
G30  23585570.616 0
> 2017 07 02 00 00  4.3000000  0  9      
G02  23064552.472 0
G03  23805335.895 0
G06  21836097.827 0
G07  21212550.045 0
G09  20148139.665 0
G16  23306159.793 0
G23  21575394.535 0
G26  24626667.558 0
G30  23585501.896 0
> 2017 07 02 00 00  4.4000000  0  9      
G02  23064529.323 0
G03  23805400.628 0
G06  21836134.457 0
G07  21212510.260 0
G09  20148147.141 0
G16  23306153.771 0
G23  21575429.868 0
G26  24626695.899 0
G30  23585433.168 0
> 2017 07 02 00 00  4.5000000  0  9      
G02  23064506.179 0
G03  23805465.354 0
G06  21836171.084 0
G07  21212470.469 0
G09  20148154.619 0
G16  23306147.755 0
G23  21575465.203 0
G26  24626724.248 0
G30  23585364.432 0
> 2017 07 02 00 00  4.6000000  0  9      
G02  23064483.041 0
G03  23805530.074 0
G06  21836207.708 0
G07  21212430.675 0
G09  20148162.100 0
G16  23306141.744 0
G23  21575500.540 0
G26  24626752.606 0
G30  23585295.688 0
> 2017 07 02 00 00  4.7000000  0  9      
G02  23064459.909 0
G03  23805594.789 0
G06  21836244.330 0
G07  21212390.875 0
G09  20148169.583 0
G16  23306135.738 0
G23  21575535.881 0
G26  24626780.972 0
G30  23585226.936 0
> 2017 07 02 00 00  4.8000000  0  9      
G02  23064436.783 0
G03  23805659.497 0
G06  21836280.950 0
G07  21212351.071 0
G09  20148177.068 0
G16  23306129.737 0
G23  21575571.223 0
G26  24626809.348 0
G30  23585158.176 0
> 2017 07 02 00 00  4.9000000  0  9      
G02  23064413.662 0
G03  23805724.200 0
G06  21836317.566 0
G07  21212311.263 0
G09  20148184.556 0
G16  23306123.742 0
G23  21575606.568 0
G26  24626837.732 0
G30  23585089.408 0
> 2017 07 02 00 00  5.0000000  0  9      
G02  23064390.547 0
G03  23805788.896 0
G06  21836354.180 0
G07  21212271.449 0
G09  20148192.046 0
G16  23306117.753 0
G23  21575641.915 0
G26  24626866.126 0
G30  23585020.632 0
> 2017 07 02 00 00  5.1000000  0  9      
G02  23064367.484 0
G03  23805853.521 0
G06  21836390.748 0
G07  21212231.570 0
G09  20148199.557 0
G16  23306111.817 0
G23  21575677.289 0
G26  24626894.616 0
G30  23584951.753 0
> 2017 07 02 00 00  5.2000000  0  9      
G02  23064344.367 0
G03  23805918.220 0
G06  21836427.354 0
G07  21212191.753 0
G09  20148207.051 0
G16  23306105.842 0
G23  21575712.646 0
G26  24626923.024 0
G30  23584882.966 0
> 2017 07 02 00 00  5.3000000  0  9      
G02  23064321.248 0
G03  23805982.923 0
G06  21836463.958 0
G07  21212151.937 0
G09  20148214.546 0
G16  23306099.872 0
G23  21575748.006 0
G26  24626951.437 0
G30  23584814.177 0
> 2017 07 02 00 00  5.4000000  0  9      
G02  23064298.125 0
G03  23806047.631 0
G06  21836500.560 0
G07  21212112.122 0
G09  20148222.042 0
G16  23306093.908 0
G23  21575783.370 0
G26  24626979.853 0
G30  23584745.388 0
> 2017 07 02 00 00  5.5000000  0  9      
G02  23064275.000 0
G03  23806112.343 0
G06  21836537.160 0
G07  21212072.308 0
G09  20148229.540 0
G16  23306087.949 0
G23  21575818.737 0
G26  24627008.272 0
G30  23584676.598 0
> 2017 07 02 00 00  5.6000000  0  9      
G02  23064251.870 0
G03  23806177.061 0
G06  21836573.758 0
G07  21212032.495 0
G09  20148237.038 0
G16  23306081.995 0
G23  21575854.108 0
G26  24627036.694 0
G30  23584607.807 0
> 2017 07 02 00 00  5.7000000  0  9      
G02  23064228.738 0
G03  23806241.783 0
G06  21836610.355 0
G07  21211992.684 0
G09  20148244.537 0
G16  23306076.045 0
G23  21575889.481 0
G26  24627065.118 0
G30  23584539.017 0
> 2017 07 02 00 00  5.8000000  0  9      
G02  23064205.602 0
G03  23806306.509 0
G06  21836646.951 0
G07  21211952.875 0
G09  20148252.037 0
G16  23306070.100 0
G23  21575924.858 0
G26  24627093.546 0
G30  23584470.226 0
> 2017 07 02 00 00  5.9000000  0  9      
G02  23064182.463 0
G03  23806371.241 0
G06  21836683.545 0
G07  21211913.068 0
G09  20148259.538 0
G16  23306064.160 0
G23  21575960.238 0
G26  24627121.975 0
G30  23584401.435 0
> 2017 07 02 00 00  6.0000000  0  9      
G02  23064159.321 0
G03  23806435.978 0
G06  21836720.138 0
G07  21211873.262 0
G09  20148267.040 0
G16  23306058.224 0
G23  21575995.621 0
G26  24627150.407 0
G30  23584332.646 0
> 2017 07 02 00 00  6.1000000  0  9      
G02  23064136.175 0
G03  23806500.720 0
G06  21836756.730 0
G07  21211833.458 0
G09  20148274.542 0
G16  23306052.291 0
G23  21576031.006 0
G26  24627178.840 0
G30  23584263.856 0
> 2017 07 02 00 00  6.2000000  0  9      
G02  23064113.026 0
G03  23806565.467 0
G06  21836793.322 0
G07  21211793.657 0
G09  20148282.045 0
G16  23306046.363 0
G23  21576066.395 0
G26  24627207.275 0
G30  23584195.068 0
> 2017 07 02 00 00  6.3000000  0  9      
G02  23064089.873 0
G03  23806630.220 0
G06  21836829.913 0
G07  21211753.858 0
G09  20148289.549 0
G16  23306040.438 0
G23  21576101.786 0
G26  24627235.711 0
G30  23584126.281 0
> 2017 07 02 00 00  6.4000000  0  9      
G02  23064066.717 0
G03  23806694.977 0
G06  21836866.503 0
G07  21211714.061 0
G09  20148297.053 0
G16  23306034.517 0
G23  21576137.179 0
G26  24627264.149 0
G30  23584057.495 0
> 2017 07 02 00 00  6.5000000  0  9      
G02  23064043.558 0
G03  23806759.740 0
G06  21836903.094 0
G07  21211674.266 0
G09  20148304.558 0
G16  23306028.599 0
G23  21576172.574 0
G26  24627292.587 0
G30  23583988.711 0
> 2017 07 02 00 00  6.6000000  0  9      
G02  23064020.395 0
G03  23806824.508 0
G06  21836939.684 0
G07  21211634.475 0
G09  20148312.063 0
G16  23306022.684 0
G23  21576207.972 0
G26  24627321.026 0
G30  23583919.928 0
> 2017 07 02 00 00  6.7000000  0  9      
G02  23063997.229 0
G03  23806889.281 0
G06  21836976.274 0
G07  21211594.686 0
G09  20148319.569 0
G16  23306016.771 0
G23  21576243.372 0
G26  24627349.465 0
G30  23583851.148 0
> 2017 07 02 00 00  6.8000000  0  9      
G02  23063974.060 0
G03  23806954.059 0
G06  21837012.864 0
G07  21211554.899 0
G09  20148327.075 0
G16  23306010.862 0
G23  21576278.774 0
G26  24627377.905 0
G30  23583782.369 0
> 2017 07 02 00 00  6.9000000  0  9      
G02  23063950.888 0
G03  23807018.842 0
G06  21837049.455 0
G07  21211515.116 0
G09  20148334.582 0
G16  23306004.954 0
G23  21576314.177 0
G26  24627406.344 0
G30  23583713.594 0
> 2017 07 02 00 00  7.0000000  0  9      
G02  23063927.713 0
G03  23807083.630 0
G06  21837086.047 0
G07  21211475.336 0
G09  20148342.089 0
G16  23305999.049 0
G23  21576349.582 0
G26  24627434.783 0
G30  23583644.820 0
> 2017 07 02 00 00  7.1000000  0  9      
G02  23063904.534 0
G03  23807148.424 0
G06  21837122.639 0
G07  21211435.558 0
G09  20148349.596 0
G16  23305993.146 0
G23  21576384.988 0
G26  24627463.222 0
G30  23583576.050 0
> 2017 07 02 00 00  7.2000000  0  9      
G02  23063881.353 0
G03  23807213.222 0
G06  21837159.232 0
G07  21211395.784 0
G09  20148357.104 0
G16  23305987.245 0
G23  21576420.396 0
G26  24627491.660 0
G30  23583507.283 0
> 2017 07 02 00 00  7.3000000  0  9      
G02  23063858.170 0
G03  23807278.025 0
G06  21837195.827 0
G07  21211356.013 0
G09  20148364.612 0
G16  23305981.345 0
G23  21576455.805 0
G26  24627520.097 0
G30  23583438.518 0
> 2017 07 02 00 00  7.4000000  0  9      
G02  23063834.983 0
G03  23807342.833 0
G06  21837232.423 0
G07  21211316.246 0
G09  20148372.120 0
G16  23305975.446 0
G23  21576491.215 0
G26  24627548.532 0
G30  23583369.757 0
> 2017 07 02 00 00  7.5000000  0  9      
G02  23063811.794 0
G03  23807407.645 0
G06  21837269.020 0
G07  21211276.482 0
G09  20148379.628 0
G16  23305969.549 0
G23  21576526.625 0
G26  24627576.967 0
G30  23583301.000 0
> 2017 07 02 00 00  7.6000000  0  9      
G02  23063788.603 0
G03  23807472.462 0
G06  21837305.619 0
G07  21211236.721 0
G09  20148387.136 0
G16  23305963.652 0
G23  21576562.036 0
G26  24627605.400 0
G30  23583232.246 0
> 2017 07 02 00 00  7.7000000  0  9      
G02  23063765.410 0
G03  23807537.284 0
G06  21837342.220 0
G07  21211196.963 0
G09  20148394.644 0
G16  23305957.756 0
G23  21576597.448 0
G26  24627633.831 0
G30  23583163.496 0
> 2017 07 02 00 00  7.8000000  0  9      
G02  23063742.214 0
G03  23807602.109 0
G06  21837378.823 0
G07  21211157.209 0
G09  20148402.153 0
G16  23305951.860 0
G23  21576632.860 0
G26  24627662.260 0
G30  23583094.750 0
> 2017 07 02 00 00  7.9000000  0  9      
G02  23063719.017 0
G03  23807666.939 0
G06  21837415.428 0
G07  21211117.459 0
G09  20148409.661 0
G16  23305945.965 0
G23  21576668.272 0
G26  24627690.687 0
G30  23583026.008 0
> 2017 07 02 00 00  8.0000000  0  9      
G02  23063695.817 0
G03  23807731.773 0
G06  21837452.035 0
G07  21211077.712 0
G09  20148417.169 0
G16  23305940.069 0
G23  21576703.685 0
G26  24627719.112 0
G30  23582957.270 0
> 2017 07 02 00 00  8.1000000  0  9      
G02  23063672.616 0
G03  23807796.611 0
G06  21837488.645 0
G07  21211037.969 0
G09  20148424.678 0
G16  23305934.173 0
G23  21576739.097 0
G26  24627747.535 0
G30  23582888.537 0
> 2017 07 02 00 00  8.2000000  0  9      
G02  23063649.414 0
G03  23807861.453 0
G06  21837525.258 0
G07  21210998.230 0
G09  20148432.186 0
G16  23305928.277 0
G23  21576774.509 0
G26  24627775.955 0
G30  23582819.808 0
> 2017 07 02 00 00  8.3000000  0  9      
G02  23063626.210 0
G03  23807926.298 0
G06  21837561.874 0
G07  21210958.494 0
G09  20148439.694 0
G16  23305922.380 0
G23  21576809.920 0
G26  24627804.372 0
G30  23582751.083 0
> 2017 07 02 00 00  8.4000000  0  9      
G02  23063603.006 0
G03  23807991.147 0
G06  21837598.492 0
G07  21210918.762 0
G09  20148447.202 0
G16  23305916.483 0
G23  21576845.331 0
G26  24627832.786 0
G30  23582682.364 0
> 2017 07 02 00 00  8.5000000  0  9      
G02  23063579.800 0
G03  23808055.998 0
G06  21837635.114 0
G07  21210879.034 0
G09  20148454.710 0
G16  23305910.584 0
G23  21576880.741 0
G26  24627861.197 0
G30  23582613.648 0
> 2017 07 02 00 00  8.6000000  0  9      
G02  23063556.594 0
G03  23808120.853 0
G06  21837671.739 0
G07  21210839.309 0
G09  20148462.218 0
G16  23305904.684 0
G23  21576916.151 0
G26  24627889.606 0
G30  23582544.938 0
> 2017 07 02 00 00  8.7000000  0  9      
G02  23063533.387 0
G03  23808185.711 0
G06  21837708.368 0
G07  21210799.588 0
G09  20148469.726 0
G16  23305898.783 0
G23  21576951.559 0
G26  24627918.011 0
G30  23582476.232 0
> 2017 07 02 00 00  8.8000000  0  9      
G02  23063510.179 0
G03  23808250.571 0
G06  21837745.000 0
G07  21210759.870 0
G09  20148477.234 0
G16  23305892.880 0
G23  21576986.966 0
G26  24627946.412 0
G30  23582407.531 0
> 2017 07 02 00 00  8.9000000  0  9      
G02  23063486.972 0
G03  23808315.434 0
G06  21837781.636 0
G07  21210720.157 0
G09  20148484.741 0
G16  23305886.976 0
G23  21577022.372 0
G26  24627974.811 0
G30  23582338.836 0
> 2017 07 02 00 00  9.0000000  0  9      
G02  23063463.764 0
G03  23808380.299 0
G06  21837818.275 0
G07  21210680.446 0
G09  20148492.248 0
G16  23305881.069 0
G23  21577057.777 0
G26  24628003.206 0
G30  23582270.145 0
> 2017 07 02 00 00  9.1000000  0  9      
G02  23063440.557 0
G03  23808445.166 0
G06  21837854.919 0
G07  21210640.740 0
G09  20148499.755 0
G16  23305875.161 0
G23  21577093.180 0
G26  24628031.597 0
G30  23582201.459 0
> 2017 07 02 00 00  9.2000000  0  9      
G02  23063417.350 0
G03  23808510.035 0
G06  21837891.566 0
G07  21210601.037 0
G09  20148507.262 0
G16  23305869.250 0
G23  21577128.582 0
G26  24628059.985 0
G30  23582132.778 0
> 2017 07 02 00 00  9.3000000  0  9      
G02  23063394.144 0
G03  23808574.906 0
G06  21837928.218 0
G07  21210561.337 0
G09  20148514.769 0
G16  23305863.337 0
G23  21577163.981 0
G26  24628088.369 0
G30  23582064.102 0
> 2017 07 02 00 00  9.4000000  0  9      
G02  23063370.939 0
G03  23808639.778 0
G06  21837964.874 0
G07  21210521.641 0
G09  20148522.275 0
G16  23305857.422 0
G23  21577199.379 0
G26  24628116.749 0
G30  23581995.430 0
> 2017 07 02 00 00  9.5000000  0  9      
G02  23063347.735 0
G03  23808704.651 0
G06  21838001.534 0
G07  21210481.948 0
G09  20148529.782 0
G16  23305851.504 0
G23  21577234.775 0
G26  24628145.126 0
G30  23581926.764 0
> 2017 07 02 00 00  9.6000000  0  9      
G02  23063324.532 0
G03  23808769.525 0
G06  21838038.199 0
G07  21210442.259 0
G09  20148537.288 0
G16  23305845.584 0
G23  21577270.169 0
G26  24628173.499 0
G30  23581858.103 0
> 2017 07 02 00 00  9.7000000  0  9      
G02  23063301.331 0
G03  23808834.400 0
G06  21838074.868 0
G07  21210402.572 0
G09  20148544.794 0
G16  23305839.660 0
G23  21577305.561 0
G26  24628201.868 0
G30  23581789.446 0
> 2017 07 02 00 00  9.8000000  0  9      
G02  23063278.131 0
G03  23808899.275 0
G06  21838111.542 0
G07  21210362.889 0
G09  20148552.299 0
G16  23305833.734 0
G23  21577340.951 0
G26  24628230.234 0
G30  23581720.795 0
> 2017 07 02 00 00  9.9000000  0  9      
G02  23063254.933 0
G03  23808964.151 0
G06  21838148.220 0
G07  21210323.209 0
G09  20148559.805 0
G16  23305827.805 0
G23  21577376.338 0
G26  24628258.595 0
G30  23581652.148 0
> 2017 07 02 00 00 10.0000000  0  9      
G02  23063231.737 0
G03  23809029.027 0
G06  21838184.903 0
G07  21210283.533 0
G09  20148567.310 0
G16  23305821.873 0
G23  21577411.723 0
G26  24628286.954 0
G30  23581583.505 0
> 2017 07 02 00 00 10.1000000  0  9      
G02  23063208.457 0
G03  23809094.000 0
G06  21838221.576 0
G07  21210243.898 0
G09  20148574.809 0
G16  23305815.963 0
G23  21577447.133 0
G26  24628315.287 0
G30  23581514.907 0
> 2017 07 02 00 00 10.2000000  0  9      
G02  23063185.267 0
G03  23809158.875 0
G06  21838258.269 0
G07  21210204.228 0
G09  20148582.314 0
G16  23305810.023 0
G23  21577482.512 0
G26  24628343.637 0
G30  23581446.275 0
> 2017 07 02 00 00 10.3000000  0  9      
G02  23063162.078 0
G03  23809223.750 0
G06  21838294.967 0
G07  21210164.560 0
G09  20148589.819 0
G16  23305804.082 0
G23  21577517.889 0
G26  24628371.984 0
G30  23581377.646 0
> 2017 07 02 00 00 10.4000000  0  9      
G02  23063138.892 0
G03  23809288.624 0
G06  21838331.667 0
G07  21210124.893 0
G09  20148597.324 0
G16  23305798.138 0
G23  21577553.265 0
G26  24628400.329 0
G30  23581309.021 0
> 2017 07 02 00 00 10.5000000  0  9      
G02  23063115.708 0
G03  23809353.498 0
G06  21838368.372 0
G07  21210085.229 0
G09  20148604.829 0
G16  23305792.193 0
G23  21577588.640 0
G26  24628428.672 0
G30  23581240.398 0
> 2017 07 02 00 00 10.6000000  0  9      
G02  23063092.527 0
G03  23809418.372 0
G06  21838405.079 0
G07  21210045.567 0
G09  20148612.335 0
G16  23305786.247 0
G23  21577624.012 0
G26  24628457.014 0
G30  23581171.778 0
> 2017 07 02 00 00 10.7000000  0  9      
G02  23063069.348 0
G03  23809483.245 0
G06  21838441.791 0
G07  21210005.907 0
G09  20148619.840 0
G16  23305780.298 0
G23  21577659.383 0
G26  24628485.353 0
G30  23581103.161 0
> 2017 07 02 00 00 10.8000000  0  9      
G02  23063046.171 0
G03  23809548.117 0
G06  21838478.506 0
G07  21209966.249 0
G09  20148627.346 0
G16  23305774.348 0
G23  21577694.753 0
G26  24628513.691 0
G30  23581034.547 0
> 2017 07 02 00 00 10.9000000  0  9      
G02  23063022.997 0
G03  23809612.988 0
G06  21838515.224 0
G07  21209926.593 0
G09  20148634.853 0
G16  23305768.396 0
G23  21577730.121 0
G26  24628542.027 0
G30  23580965.935 0
> 2017 07 02 00 00 11.0000000  0  9      
G02  23062999.826 0
G03  23809677.858 0
G06  21838551.946 0
G07  21209886.938 0
G09  20148642.359 0
G16  23305762.443 0
G23  21577765.487 0
G26  24628570.361 0
G30  23580897.326 0
> 2017 07 02 00 00 11.1000000  0  9      
G02  23062976.658 0
G03  23809742.728 0
G06  21838588.672 0
G07  21209847.286 0
G09  20148649.866 0
G16  23305756.487 0
G23  21577800.851 0
G26  24628598.693 0
G30  23580828.720 0
> 2017 07 02 00 00 11.2000000  0  9      
G02  23062953.492 0
G03  23809807.596 0
G06  21838625.401 0
G07  21209807.635 0
G09  20148657.373 0
G16  23305750.530 0
G23  21577836.214 0
G26  24628627.024 0
G30  23580760.117 0
> 2017 07 02 00 00 11.3000000  0  9      
G02  23062930.329 0
G03  23809872.463 0
G06  21838662.134 0
G07  21209767.985 0
G09  20148664.880 0
G16  23305744.571 0
G23  21577871.575 0
G26  24628655.353 0
G30  23580691.515 0
> 2017 07 02 00 00 11.4000000  0  9      
G02  23062907.170 0
G03  23809937.329 0
G06  21838698.870 0
G07  21209728.337 0
G09  20148672.388 0
G16  23305738.610 0
G23  21577906.935 0
G26  24628683.681 0
G30  23580622.916 0
> 2017 07 02 00 00 11.5000000  0  9      
G02  23062884.013 0
G03  23810002.193 0
G06  21838735.609 0
G07  21209688.691 0
G09  20148679.895 0
G16  23305732.648 0
G23  21577942.292 0
G26  24628712.007 0
G30  23580554.320 0
> 2017 07 02 00 00 11.6000000  0  9      
G02  23062860.860 0
G03  23810067.056 0
G06  21838772.352 0
G07  21209649.047 0
G09  20148687.404 0
G16  23305726.684 0
G23  21577977.648 0
G26  24628740.332 0
G30  23580485.726 0
> 2017 07 02 00 00 11.7000000  0  9      
G02  23062837.710 0
G03  23810131.917 0
G06  21838809.099 0
G07  21209609.403 0
G09  20148694.912 0
G16  23305720.718 0
G23  21578013.003 0
G26  24628768.656 0
G30  23580417.134 0
> 2017 07 02 00 00 11.8000000  0  9      
G02  23062814.563 0
G03  23810196.777 0
G06  21838845.849 0
G07  21209569.762 0
G09  20148702.421 0
G16  23305714.751 0
G23  21578048.356 0
G26  24628796.978 0
G30  23580348.544 0
> 2017 07 02 00 00 11.9000000  0  9      
G02  23062791.419 0
G03  23810261.636 0
G06  21838882.602 0
G07  21209530.121 0
G09  20148709.930 0
G16  23305708.782 0
G23  21578083.707 0
G26  24628825.299 0
G30  23580279.956 0
> 2017 07 02 00 00 12.0000000  0  9      
G02  23062768.279 0
G03  23810326.492 0
G06  21838919.358 0
G07  21209490.482 0
G09  20148717.440 0
G16  23305702.812 0
G23  21578119.057 0
G26  24628853.619 0
G30  23580211.369 0
> 2017 07 02 00 00 12.1000000  0  9      
G02  23062745.142 0
G03  23810391.347 0
G06  21838956.118 0
G07  21209450.844 0
G09  20148724.950 0
G16  23305696.840 0
G23  21578154.405 0
G26  24628881.938 0
G30  23580142.785 0
> 2017 07 02 00 00 12.2000000  0  9      
G02  23062722.008 0
G03  23810456.199 0
G06  21838992.881 0
G07  21209411.207 0
G09  20148732.460 0
G16  23305690.867 0
G23  21578189.751 0
G26  24628910.256 0
G30  23580074.203 0
> 2017 07 02 00 00 12.3000000  0  9      
G02  23062698.878 0
G03  23810521.050 0
G06  21839029.648 0
G07  21209371.571 0
G09  20148739.971 0
G16  23305684.892 0
G23  21578225.096 0
G26  24628938.573 0
G30  23580005.622 0
> 2017 07 02 00 00 12.4000000  0  9      
G02  23062675.752 0
G03  23810585.899 0
G06  21839066.417 0
G07  21209331.936 0
G09  20148747.482 0
G16  23305678.916 0
G23  21578260.439 0
G26  24628966.889 0
G30  23579937.042 0
> 2017 07 02 00 00 12.5000000  0  9      
G02  23062652.629 0
G03  23810650.746 0
G06  21839103.190 0
G07  21209292.303 0
G09  20148754.994 0
G16  23305672.938 0
G23  21578295.781 0
G26  24628995.205 0
G30  23579868.465 0
> 2017 07 02 00 00 12.6000000  0  9      
G02  23062629.510 0
G03  23810715.590 0
G06  21839139.966 0
G07  21209252.670 0
G09  20148762.507 0
G16  23305666.959 0
G23  21578331.121 0
G26  24629023.520 0
G30  23579799.888 0
> 2017 07 02 00 00 12.7000000  0  9      
G02  23062606.395 0
G03  23810780.432 0
G06  21839176.744 0
G07  21209213.038 0
G09  20148770.019 0
G16  23305660.979 0
G23  21578366.460 0
G26  24629051.834 0
G30  23579731.313 0
> 2017 07 02 00 00 12.8000000  0  9      
G02  23062583.283 0
G03  23810845.273 0
G06  21839213.526 0
G07  21209173.407 0
G09  20148777.533 0
G16  23305654.998 0
G23  21578401.797 0
G26  24629080.148 0
G30  23579662.739 0
> 2017 07 02 00 00 12.9000000  0  9      
G02  23062560.175 0
G03  23810910.110 0
G06  21839250.311 0
G07  21209133.776 0
G09  20148785.047 0
G16  23305649.015 0
G23  21578437.133 0
G26  24629108.462 0
G30  23579594.166 0
> 2017 07 02 00 00 13.0000000  0  9      
G02  23062537.071 0
G03  23810974.946 0
G06  21839287.098 0
G07  21209094.146 0
G09  20148792.561 0
G16  23305643.032 0
G23  21578472.468 0
G26  24629136.775 0
G30  23579525.594 0
> 2017 07 02 00 00 13.1000000  0  9      
G02  23062513.971 0
G03  23811039.779 0
G06  21839323.889 0
G07  21209054.517 0
G09  20148800.076 0
G16  23305637.048 0
G23  21578507.801 0
G26  24629165.089 0
G30  23579457.023 0
> 2017 07 02 00 00 13.2000000  0  9      
G02  23062490.874 0
G03  23811104.610 0
G06  21839360.682 0
G07  21209014.889 0
G09  20148807.592 0
G16  23305631.062 0
G23  21578543.133 0
G26  24629193.402 0
G30  23579388.453 0
> 2017 07 02 00 00 13.3000000  0  9      
G02  23062467.782 0
G03  23811169.438 0
G06  21839397.478 0
G07  21208975.261 0
G09  20148815.108 0
G16  23305625.076 0
G23  21578578.464 0
G26  24629221.715 0
G30  23579319.883 0
> 2017 07 02 00 00 13.4000000  0  9      
G02  23062444.693 0
G03  23811234.263 0
G06  21839434.277 0
G07  21208935.633 0
G09  20148822.625 0
G16  23305619.089 0
G23  21578613.793 0
G26  24629250.029 0
G30  23579251.314 0
> 2017 07 02 00 00 13.5000000  0  9      
G02  23062421.608 0
G03  23811299.087 0
G06  21839471.078 0
G07  21208896.006 0
G09  20148830.142 0
G16  23305613.101 0
G23  21578649.122 0
G26  24629278.342 0
G30  23579182.746 0
> 2017 07 02 00 00 13.6000000  0  9      
G02  23062398.527 0
G03  23811363.907 0
G06  21839507.882 0
G07  21208856.379 0
G09  20148837.660 0
G16  23305607.113 0
G23  21578684.449 0
G26  24629306.656 0
G30  23579114.178 0
> 2017 07 02 00 00 13.7000000  0  9      
G02  23062375.450 0
G03  23811428.725 0
G06  21839544.688 0
G07  21208816.753 0
G09  20148845.179 0
G16  23305601.124 0
G23  21578719.775 0
G26  24629334.971 0
G30  23579045.611 0
> 2017 07 02 00 00 13.8000000  0  9      
G02  23062352.377 0
G03  23811493.540 0
G06  21839581.497 0
G07  21208777.126 0
G09  20148852.699 0
G16  23305595.134 0
G23  21578755.100 0
G26  24629363.286 0
G30  23578977.043 0
> 2017 07 02 00 00 13.9000000  0  9      
G02  23062329.308 0
G03  23811558.353 0
G06  21839618.308 0
G07  21208737.500 0
G09  20148860.219 0
G16  23305589.144 0
G23  21578790.424 0
G26  24629391.601 0
G30  23578908.476 0
> 2017 07 02 00 00 14.0000000  0  9      
G02  23062306.242 0
G03  23811623.163 0
G06  21839655.121 0
G07  21208697.874 0
G09  20148867.740 0
G16  23305583.154 0
G23  21578825.747 0
G26  24629419.918 0
G30  23578839.909 0
> 2017 07 02 00 00 14.1000000  0  9      
G02  23062283.181 0
G03  23811687.970 0
G06  21839691.936 0
G07  21208658.248 0
G09  20148875.262 0
G16  23305577.164 0
G23  21578861.070 0
G26  24629448.235 0
G30  23578771.341 0
> 2017 07 02 00 00 14.2000000  0  9      
G02  23062260.124 0
G03  23811752.775 0
G06  21839728.754 0
G07  21208618.623 0
G09  20148882.785 0
G16  23305571.173 0
G23  21578896.391 0
G26  24629476.553 0
G30  23578702.774 0
> 2017 07 02 00 00 14.3000000  0  9      
G02  23062237.070 0
G03  23811817.577 0
G06  21839765.573 0
G07  21208578.997 0
G09  20148890.309 0
G16  23305565.182 0
G23  21578931.712 0
G26  24629504.872 0
G30  23578634.206 0
> 2017 07 02 00 00 14.4000000  0  9      
G02  23062214.020 0
G03  23811882.376 0
G06  21839802.395 0
G07  21208539.371 0
G09  20148897.833 0
G16  23305559.192 0
G23  21578967.032 0
G26  24629533.192 0
G30  23578565.638 0
> 2017 07 02 00 00 14.5000000  0  9      
G02  23062190.975 0
G03  23811947.173 0
G06  21839839.219 0
G07  21208499.745 0
G09  20148905.358 0
G16  23305553.201 0
G23  21579002.351 0
G26  24629561.514 0
G30  23578497.070 0
> 2017 07 02 00 00 14.6000000  0  9      
G02  23062167.933 0
G03  23812011.967 0
G06  21839876.044 0
G07  21208460.119 0
G09  20148912.884 0
G16  23305547.211 0
G23  21579037.670 0
G26  24629589.837 0
G30  23578428.501 0
> 2017 07 02 00 00 14.7000000  0  9      
G02  23062144.895 0
G03  23812076.758 0
G06  21839912.871 0
G07  21208420.492 0
G09  20148920.411 0
G16  23305541.221 0
G23  21579072.989 0
G26  24629618.161 0
G30  23578359.931 0
> 2017 07 02 00 00 14.8000000  0  9      
G02  23062121.860 0
G03  23812141.546 0
G06  21839949.700 0
G07  21208380.865 0
G09  20148927.939 0
G16  23305535.231 0
G23  21579108.306 0
G26  24629646.487 0
G30  23578291.360 0
> 2017 07 02 00 00 14.9000000  0  9      
G02  23062098.830 0
G03  23812206.332 0
G06  21839986.530 0
G07  21208341.238 0
G09  20148935.468 0
G16  23305529.242 0
G23  21579143.624 0
G26  24629674.815 0
G30  23578222.789 0
> 2017 07 02 00 00 15.0000000  0  9      
G02  23062075.803 0
G03  23812271.115 0
G06  21840023.362 0
G07  21208301.611 0
G09  20148942.998 0
G16  23305523.253 0
G23  21579178.941 0
G26  24629703.144 0
G30  23578154.217 0
> 2017 07 02 00 00 15.1000000  0  9      
G02  23062052.812 0
G03  23812335.878 0
G06  21840060.271 0
G07  21208262.022 0
G09  20148950.511 0
G16  23305517.173 0
G23  21579214.195 0
G26  24629731.380 0
G30  23578085.728 0
> 2017 07 02 00 00 15.2000000  0  9      
G02  23062029.793 0
G03  23812400.655 0
G06  21840097.106 0
G07  21208222.394 0
G09  20148958.043 0
G16  23305511.185 0
G23  21579249.512 0
G26  24629759.713 0
G30  23578017.154 0
> 2017 07 02 00 00 15.3000000  0  9      
G02  23062006.777 0
G03  23812465.431 0
G06  21840133.942 0
G07  21208182.766 0
G09  20148965.575 0
G16  23305505.199 0
G23  21579284.828 0
G26  24629788.048 0
G30  23577948.579 0
> 2017 07 02 00 00 15.4000000  0  9      
G02  23061983.763 0
G03  23812530.206 0
G06  21840170.779 0
G07  21208143.138 0
G09  20148973.109 0
G16  23305499.213 0
G23  21579320.145 0
G26  24629816.384 0
G30  23577880.003 0
> 2017 07 02 00 00 15.5000000  0  9      
G02  23061960.752 0
G03  23812594.979 0
G06  21840207.617 0
G07  21208103.510 0
G09  20148980.643 0
G16  23305493.229 0
G23  21579355.462 0
G26  24629844.722 0
G30  23577811.427 0
> 2017 07 02 00 00 15.6000000  0  9      
G02  23061937.743 0
G03  23812659.751 0
G06  21840244.457 0
G07  21208063.882 0
G09  20148988.179 0
G16  23305487.246 0
G23  21579390.779 0
G26  24629873.062 0
G30  23577742.851 0
> 2017 07 02 00 00 15.7000000  0  9      
G02  23061914.737 0
G03  23812724.521 0
G06  21840281.297 0
G07  21208024.254 0
G09  20148995.715 0
G16  23305481.264 0
G23  21579426.096 0
G26  24629901.404 0
G30  23577674.273 0
> 2017 07 02 00 00 15.8000000  0  9      
G02  23061891.734 0
G03  23812789.290 0
G06  21840318.139 0
G07  21207984.626 0
G09  20149003.252 0
G16  23305475.283 0
G23  21579461.413 0
G26  24629929.748 0
G30  23577605.696 0
> 2017 07 02 00 00 15.9000000  0  9      
G02  23061868.733 0
G03  23812854.058 0
G06  21840354.982 0
G07  21207944.999 0
G09  20149010.791 0
G16  23305469.304 0
G23  21579496.731 0
G26  24629958.093 0
G30  23577537.117 0
> 2017 07 02 00 00 16.0000000  0  9      
G02  23061845.735 0
G03  23812918.825 0
G06  21840391.826 0
G07  21207905.371 0
G09  20149018.330 0
G16  23305463.325 0
G23  21579532.049 0
G26  24629986.440 0
G30  23577468.538 0
> 2017 07 02 00 00 16.1000000  0  9      
G02  23061822.739 0
G03  23812983.590 0
G06  21840428.670 0
G07  21207865.743 0
G09  20149025.870 0
G16  23305457.348 0
G23  21579567.367 0
G26  24630014.789 0
G30  23577399.958 0
> 2017 07 02 00 00 16.2000000  0  9      
G02  23061799.745 0
G03  23813048.354 0
G06  21840465.516 0
G07  21207826.115 0
G09  20149033.411 0
G16  23305451.372 0
G23  21579602.686 0
G26  24630043.140 0
G30  23577331.377 0
> 2017 07 02 00 00 16.3000000  0  9      
G02  23061776.754 0
G03  23813113.117 0
G06  21840502.363 0
G07  21207786.488 0
G09  20149040.953 0
G16  23305445.398 0
G23  21579638.005 0
G26  24630071.493 0
G30  23577262.796 0
> 2017 07 02 00 00 16.4000000  0  9      
G02  23061753.765 0
G03  23813177.879 0
G06  21840539.210 0
G07  21207746.860 0
G09  20149048.495 0
G16  23305439.425 0
G23  21579673.324 0
G26  24630099.848 0
G30  23577194.214 0
> 2017 07 02 00 00 16.5000000  0  9      
G02  23061730.779 0
G03  23813242.639 0
G06  21840576.059 0
G07  21207707.233 0
G09  20149056.039 0
G16  23305433.453 0
G23  21579708.643 0
G26  24630128.205 0
G30  23577125.630 0
> 2017 07 02 00 00 16.6000000  0  9      
G02  23061707.795 0
G03  23813307.398 0
G06  21840612.908 0
G07  21207667.605 0
G09  20149063.584 0
G16  23305427.483 0
G23  21579743.964 0
G26  24630156.564 0
G30  23577057.047 0
> 2017 07 02 00 00 16.7000000  0  9      
G02  23061684.813 0
G03  23813372.156 0
G06  21840649.758 0
G07  21207627.977 0
G09  20149071.130 0
G16  23305421.515 0
G23  21579779.284 0
G26  24630184.925 0
G30  23576988.462 0
> 2017 07 02 00 00 16.8000000  0  9      
G02  23061661.834 0
G03  23813436.913 0
G06  21840686.609 0
G07  21207588.349 0
G09  20149078.677 0
G16  23305415.548 0
G23  21579814.605 0
G26  24630213.288 0
G30  23576919.876 0
> 2017 07 02 00 00 16.9000000  0  9      
G02  23061638.857 0
G03  23813501.669 0
G06  21840723.461 0
G07  21207548.722 0
G09  20149086.224 0
G16  23305409.582 0
G23  21579849.926 0
G26  24630241.653 0
G30  23576851.289 0
> 2017 07 02 00 00 17.0000000  0  9      
G02  23061615.883 0
G03  23813566.423 0
G06  21840760.313 0
G07  21207509.094 0
G09  20149093.773 0
G16  23305403.618 0
G23  21579885.248 0
G26  24630270.021 0
G30  23576782.702 0
> 2017 07 02 00 00 17.1000000  0  9      
G02  23061592.911 0
G03  23813631.176 0
G06  21840797.167 0
G07  21207469.466 0
G09  20149101.323 0
G16  23305397.655 0
G23  21579920.570 0
G26  24630298.390 0
G30  23576714.113 0
> 2017 07 02 00 00 17.2000000  0  9      
G02  23061569.941 0
G03  23813695.929 0
G06  21840834.021 0
G07  21207429.838 0
G09  20149108.873 0
G16  23305391.695 0
G23  21579955.893 0
G26  24630326.762 0
G30  23576645.524 0
> 2017 07 02 00 00 17.3000000  0  9      
G02  23061546.973 0
G03  23813760.680 0
G06  21840870.875 0
G07  21207390.210 0
G09  20149116.425 0
G16  23305385.736 0
G23  21579991.217 0
G26  24630355.136 0
G30  23576576.934 0
> 2017 07 02 00 00 17.4000000  0  9      
G02  23061524.007 0
G03  23813825.430 0
G06  21840907.731 0
G07  21207350.582 0
G09  20149123.978 0
G16  23305379.778 0
G23  21580026.541 0
G26  24630383.512 0
G30  23576508.342 0
> 2017 07 02 00 00 17.5000000  0  9      
G02  23061501.044 0
G03  23813890.178 0
G06  21840944.587 0
G07  21207310.953 0
G09  20149131.531 0
G16  23305373.823 0
G23  21580061.865 0
G26  24630411.891 0
G30  23576439.750 0
> 2017 07 02 00 00 17.6000000  0  9      
G02  23061478.083 0
G03  23813954.926 0
G06  21840981.443 0
G07  21207271.325 0
G09  20149139.086 0
G16  23305367.869 0
G23  21580097.191 0
G26  24630440.272 0
G30  23576371.156 0
> 2017 07 02 00 00 17.7000000  0  9      
G02  23061455.124 0
G03  23814019.673 0
G06  21841018.301 0
G07  21207231.697 0
G09  20149146.642 0
G16  23305361.916 0
G23  21580132.517 0
G26  24630468.655 0
G30  23576302.561 0
> 2017 07 02 00 00 17.8000000  0  9      
G02  23061432.167 0
G03  23814084.419 0
G06  21841055.158 0
G07  21207192.068 0
G09  20149154.198 0
G16  23305355.966 0
G23  21580167.843 0
G26  24630497.040 0
G30  23576233.966 0
> 2017 07 02 00 00 17.9000000  0  9      
G02  23061409.213 0
G03  23814149.164 0
G06  21841092.017 0
G07  21207152.439 0
G09  20149161.756 0
G16  23305350.018 0
G23  21580203.170 0
G26  24630525.428 0
G30  23576165.369 0
> 2017 07 02 00 00 18.0000000  0  9      
G02  23061386.260 0
G03  23814213.908 0
G06  21841128.876 0
G07  21207112.811 0
G09  20149169.315 0
G16  23305344.071 0
G23  21580238.498 0
G26  24630553.819 0
G30  23576096.771 0
> 2017 07 02 00 00 18.1000000  0  9      
G02  23061363.309 0
G03  23814278.651 0
G06  21841165.735 0
G07  21207073.182 0
G09  20149176.875 0
G16  23305338.127 0
G23  21580273.827 0
G26  24630582.211 0
G30  23576028.172 0
> 2017 07 02 00 00 18.2000000  0  9      
G02  23061340.361 0
G03  23814343.393 0
G06  21841202.595 0
G07  21207033.553 0
G09  20149184.435 0
G16  23305332.184 0
G23  21580309.157 0
G26  24630610.606 0
G30  23575959.571 0
> 2017 07 02 00 00 18.3000000  0  9      
G02  23061317.415 0
G03  23814408.134 0
G06  21841239.455 0
G07  21206993.924 0
G09  20149191.997 0
G16  23305326.243 0
G23  21580344.487 0
G26  24630639.004 0
G30  23575890.970 0
> 2017 07 02 00 00 18.4000000  0  9      
G02  23061294.470 0
G03  23814472.874 0
G06  21841276.316 0
G07  21206954.295 0
G09  20149199.560 0
G16  23305320.304 0
G23  21580379.818 0
G26  24630667.404 0
G30  23575822.367 0
> 2017 07 02 00 00 18.5000000  0  9      
G02  23061271.528 0
G03  23814537.614 0
G06  21841313.177 0
G07  21206914.665 0
G09  20149207.124 0
G16  23305314.368 0
G23  21580415.150 0
G26  24630695.807 0
G30  23575753.763 0
> 2017 07 02 00 00 18.6000000  0  9      
G02  23061248.587 0
G03  23814602.352 0
G06  21841350.038 0
G07  21206875.036 0
G09  20149214.689 0
G16  23305308.433 0
G23  21580450.483 0
G26  24630724.212 0
G30  23575685.158 0
> 2017 07 02 00 00 18.7000000  0  9      
G02  23061225.648 0
G03  23814667.090 0
G06  21841386.900 0
G07  21206835.406 0
G09  20149222.255 0
G16  23305302.501 0
G23  21580485.817 0
G26  24630752.620 0
G30  23575616.552 0
> 2017 07 02 00 00 18.8000000  0  9      
G02  23061202.712 0
G03  23814731.827 0
G06  21841423.762 0
G07  21206795.776 0
G09  20149229.822 0
G16  23305296.570 0
G23  21580521.151 0
G26  24630781.030 0
G30  23575547.944 0
> 2017 07 02 00 00 18.9000000  0  9      
G02  23061179.777 0
G03  23814796.564 0
G06  21841460.624 0
G07  21206756.147 0
G09  20149237.390 0
G16  23305290.642 0
G23  21580556.486 0
G26  24630809.443 0
G30  23575479.336 0
> 2017 07 02 00 00 19.1000000  0  9      
G02  23061133.912 0
G03  23814926.035 0
G06  21841534.351 0
G07  21206676.887 0
G09  20149252.530 0
G16  23305278.791 0
G23  21580627.160 0
G26  24630866.275 0
G30  23575342.116 0
> 2017 07 02 00 00 19.2000000  0  9      
G02  23061110.981 0
G03  23814990.771 0
G06  21841571.216 0
G07  21206637.259 0
G09  20149260.100 0
G16  23305272.868 0
G23  21580662.497 0
G26  24630894.693 0
G30  23575273.506 0
> 2017 07 02 00 00 19.3000000  0  9      
G02  23061088.051 0
G03  23815055.508 0
G06  21841608.082 0
G07  21206597.632 0
G09  20149267.672 0
G16  23305266.946 0
G23  21580697.835 0
G26  24630923.112 0
G30  23575204.897 0
> 2017 07 02 00 00 19.4000000  0  9      
G02  23061065.122 0
G03  23815120.245 0
G06  21841644.949 0
G07  21206558.005 0
G09  20149275.244 0
G16  23305261.025 0
G23  21580733.173 0
G26  24630951.532 0
G30  23575136.289 0
> 2017 07 02 00 00 19.5000000  0  9      
G02  23061042.194 0
G03  23815184.983 0
G06  21841681.817 0
G07  21206518.380 0
G09  20149282.817 0
G16  23305255.105 0
G23  21580768.512 0
G26  24630979.953 0
G30  23575067.680 0
> 2017 07 02 00 00 19.6000000  0  9      
G02  23061019.268 0
G03  23815249.720 0
G06  21841718.686 0
G07  21206478.755 0
G09  20149290.390 0
G16  23305249.187 0
G23  21580803.852 0
G26  24631008.375 0
G30  23574999.072 0
> 2017 07 02 00 00 19.7000000  0  9      
G02  23060996.342 0
G03  23815314.458 0
G06  21841755.556 0
G07  21206439.132 0
G09  20149297.965 0
G16  23305243.270 0
G23  21580839.192 0
G26  24631036.798 0
G30  23574930.465 0
> 2017 07 02 00 00 19.8000000  0  9      
G02  23060973.418 0
G03  23815379.197 0
G06  21841792.427 0
G07  21206399.509 0
G09  20149305.540 0
G16  23305237.355 0
G23  21580874.532 0
G26  24631065.222 0
G30  23574861.857 0
> 2017 07 02 00 00 19.9000000  0  9      
G02  23060950.495 0
G03  23815443.936 0
G06  21841829.299 0
G07  21206359.887 0
G09  20149313.116 0
G16  23305231.441 0
G23  21580909.873 0
G26  24631093.648 0
G30  23574793.250 0
> 2017 07 02 00 00 20.1000000  0  9      
G02  23060904.655 0
G03  23815573.407 0
G06  21841903.039 0
G07  21206280.637 0
G09  20149328.273 0
G16  23305219.625 0
G23  21580980.561 0
G26  24631150.516 0
G30  23574656.023 0
> 2017 07 02 00 00 20.2000000  0  9      
G02  23060881.742 0
G03  23815638.135 0
G06  21841939.898 0
G07  21206241.001 0
G09  20149335.856 0
G16  23305213.734 0
G23  21581015.914 0
G26  24631178.972 0
G30  23574587.390 0
> 2017 07 02 00 00 20.3000000  0  9      
G02  23060858.831 0
G03  23815702.860 0
G06  21841976.749 0
G07  21206201.359 0
G09  20149343.444 0
G16  23305207.855 0
G23  21581051.275 0
G26  24631207.444 0
G30  23574518.742 0
> 2017 07 02 00 00 20.4000000  0  9      
G02  23060835.918 0
G03  23815767.585 0
G06  21842013.590 0
G07  21206161.710 0
G09  20149351.034 0
G16  23305201.991 0
G23  21581086.645 0
G26  24631235.931 0
G30  23574450.082 0
> 2017 07 02 00 00 20.5000000  0  9      
G02  23060813.004 0
G03  23815832.311 0
G06  21842050.421 0
G07  21206122.057 0
G09  20149358.629 0
G16  23305196.140 0
G23  21581122.024 0
G26  24631264.434 0
G30  23574381.409 0
> 2017 07 02 00 00 20.6000000  0  9      
G02  23060790.085 0
G03  23815897.041 0
G06  21842087.243 0
G07  21206082.399 0
G09  20149366.226 0
G16  23305190.304 0
G23  21581157.412 0
G26  24631292.951 0
G30  23574312.726 0
> 2017 07 02 00 00 20.7000000  0  9      
G02  23060767.161 0
G03  23815961.777 0
G06  21842124.055 0
G07  21206042.737 0
G09  20149373.826 0
G16  23305184.483 0
G23  21581192.810 0
G26  24631321.482 0
G30  23574244.032 0
> 2017 07 02 00 00 20.8000000  0  9      
G02  23060744.230 0
G03  23816026.520 0
G06  21842160.857 0
G07  21206003.074 0
G09  20149381.429 0
G16  23305178.676 0
G23  21581228.218 0
G26  24631350.025 0
G30  23574175.330 0
> 2017 07 02 00 00 20.9000000  0  9      
G02  23060721.290 0
G03  23816091.271 0
G06  21842197.651 0
G07  21205963.409 0
G09  20149389.035 0
G16  23305172.882 0
G23  21581263.636 0
G26  24631378.579 0
G30  23574106.621 0
> 2017 07 02 00 00 21.1000000  0  9      
G02  23060675.393 0
G03  23816220.796 0
G06  21842271.224 0
G07  21205884.082 0
G09  20149404.251 0
G16  23305161.323 0
G23  21581334.489 0
G26  24631435.706 0
G30  23573969.193 0
> 2017 07 02 00 00 21.2000000  0  9      
G02  23060652.447 0
G03  23816285.558 0
G06  21842308.012 0
G07  21205844.419 0
G09  20149411.860 0
G16  23305155.545 0
G23  21581369.917 0
G26  24631464.271 0
G30  23573900.480 0
> 2017 07 02 00 00 21.3000000  0  9      
G02  23060629.501 0
G03  23816350.322 0
G06  21842344.801 0
G07  21205804.757 0
G09  20149419.469 0
G16  23305149.768 0
G23  21581405.345 0
G26  24631492.838 0
G30  23573831.767 0
> 2017 07 02 00 00 21.4000000  0  9      
G02  23060606.556 0
G03  23816415.085 0
G06  21842381.591 0
G07  21205765.097 0
G09  20149427.080 0
G16  23305143.993 0
G23  21581440.774 0
G26  24631521.405 0
G30  23573763.054 0
> 2017 07 02 00 00 21.5000000  0  9      
G02  23060583.613 0
G03  23816479.849 0
G06  21842418.382 0
G07  21205725.437 0
G09  20149434.691 0
G16  23305138.219 0
G23  21581476.203 0
G26  24631549.974 0
G30  23573694.342 0
> 2017 07 02 00 00 21.6000000  0  9      
G02  23060560.670 0
G03  23816544.613 0
G06  21842455.175 0
G07  21205685.778 0
G09  20149442.303 0
G16  23305132.446 0
G23  21581511.632 0
G26  24631578.544 0
G30  23573625.630 0
> 2017 07 02 00 00 21.7000000  0  9      
G02  23060537.729 0
G03  23816609.377 0
G06  21842491.968 0
G07  21205646.120 0
G09  20149449.915 0
G16  23305126.675 0
G23  21581547.063 0
G26  24631607.114 0
G30  23573556.918 0
> 2017 07 02 00 00 21.8000000  0  9      
G02  23060514.789 0
G03  23816674.142 0
G06  21842528.762 0
G07  21205606.463 0
G09  20149457.529 0
G16  23305120.905 0
G23  21581582.493 0
G26  24631635.686 0
G30  23573488.207 0
> 2017 07 02 00 00 21.9000000  0  9      
G02  23060491.849 0
G03  23816738.907 0
G06  21842565.558 0
G07  21205566.807 0
G09  20149465.143 0
G16  23305115.136 0
G23  21581617.924 0
G26  24631664.259 0
G30  23573419.496 0
> 2017 07 02 00 00 22.0000000  0  9      
G02  23060468.911 0
G03  23816803.673 0
G06  21842602.354 0
G07  21205527.151 0
G09  20149472.758 0
G16  23305109.369 0
G23  21581653.356 0
G26  24631692.833 0
G30  23573350.785 0
> 2017 07 02 00 00 22.1000000  0  9      
G02  23060445.974 0
G03  23816868.439 0
G06  21842639.152 0
G07  21205487.497 0
G09  20149480.374 0
G16  23305103.603 0
G23  21581688.788 0
G26  24631721.409 0
G30  23573282.075 0
> 2017 07 02 00 00 22.2000000  0  9      
G02  23060423.038 0
G03  23816933.205 0
G06  21842675.950 0
G07  21205447.843 0
G09  20149487.990 0
G16  23305097.838 0
G23  21581724.221 0
G26  24631749.985 0
G30  23573213.365 0
> 2017 07 02 00 00 22.3000000  0  9      
G02  23060400.103 0
G03  23816997.972 0
G06  21842712.750 0
G07  21205408.191 0
G09  20149495.607 0
G16  23305092.075 0
G23  21581759.654 0
G26  24631778.562 0
G30  23573144.656 0
> 2017 07 02 00 00 22.4000000  0  9      
G02  23060377.169 0
G03  23817062.739 0
G06  21842749.551 0
G07  21205368.539 0
G09  20149503.225 0
G16  23305086.313 0
G23  21581795.087 0
G26  24631807.141 0
G30  23573075.946 0
> 2017 07 02 00 00 22.5000000  0  9      
G02  23060354.236 0
G03  23817127.506 0
G06  21842786.352 0
G07  21205328.888 0
G09  20149510.844 0
G16  23305080.552 0
G23  21581830.522 0
G26  24631835.721 0
G30  23573007.238 0
> 2017 07 02 00 00 22.6000000  0  9      
G02  23060331.305 0
G03  23817192.274 0
G06  21842823.155 0
G07  21205289.238 0
G09  20149518.463 0
G16  23305074.792 0
G23  21581865.956 0
G26  24631864.301 0
G30  23572938.529 0
> 2017 07 02 00 00 22.7000000  0  9      
G02  23060308.374 0
G03  23817257.042 0
G06  21842859.959 0
G07  21205249.589 0
G09  20149526.083 0
G16  23305069.034 0
G23  21581901.391 0
G26  24631892.883 0
G30  23572869.821 0
> 2017 07 02 00 00 22.8000000  0  9      
G02  23060285.445 0
G03  23817321.811 0
G06  21842896.764 0
G07  21205209.941 0
G09  20149533.704 0
G16  23305063.278 0
G23  21581936.827 0
G26  24631921.466 0
G30  23572801.113 0
> 2017 07 02 00 00 22.9000000  0  9      
G02  23060262.516 0
G03  23817386.579 0
G06  21842933.570 0
G07  21205170.294 0
G09  20149541.325 0
G16  23305057.522 0
G23  21581972.263 0
G26  24631950.050 0
G30  23572732.406 0
> 2017 07 02 00 00 23.0000000  0  9      
G02  23060239.589 0
G03  23817451.349 0
G06  21842970.377 0
G07  21205130.648 0
G09  20149548.948 0
G16  23305051.768 0
G23  21582007.700 0
G26  24631978.635 0
G30  23572663.698 0
> 2017 07 02 00 00 23.1000000  0  9      
G02  23060216.662 0
G03  23817516.118 0
G06  21843007.185 0
G07  21205091.002 0
G09  20149556.571 0
G16  23305046.015 0
G23  21582043.137 0
G26  24632007.222 0
G30  23572594.992 0
> 2017 07 02 00 00 23.2000000  0  9      
G02  23060193.737 0
G03  23817580.888 0
G06  21843043.994 0
G07  21205051.358 0
G09  20149564.195 0
G16  23305040.264 0
G23  21582078.574 0
G26  24632035.809 0
G30  23572526.285 0
> 2017 07 02 00 00 23.3000000  0  9      
G02  23060170.813 0
G03  23817645.658 0
G06  21843080.804 0
G07  21205011.714 0
G09  20149571.819 0
G16  23305034.514 0
G23  21582114.013 0
G26  24632064.397 0
G30  23572457.579 0
> 2017 07 02 00 00 23.4000000  0  9      
G02  23060147.890 0
G03  23817710.429 0
G06  21843117.616 0
G07  21204972.071 0
G09  20149579.444 0
G16  23305028.765 0
G23  21582149.451 0
G26  24632092.987 0
G30  23572388.873 0
> 2017 07 02 00 00 23.5000000  0  9      
G02  23060124.968 0
G03  23817775.200 0
G06  21843154.428 0
G07  21204932.430 0
G09  20149587.070 0
G16  23305023.017 0
G23  21582184.890 0
G26  24632121.578 0
G30  23572320.168 0
> 2017 07 02 00 00 23.6000000  0  9      
G02  23060102.047 0
G03  23817839.971 0
G06  21843191.241 0
G07  21204892.789 0
G09  20149594.697 0
G16  23305017.271 0
G23  21582220.330 0
G26  24632150.169 0
G30  23572251.463 0
> 2017 07 02 00 00 23.7000000  0  9      
G02  23060079.127 0
G03  23817904.743 0
G06  21843228.056 0
G07  21204853.149 0
G09  20149602.325 0
G16  23305011.526 0
G23  21582255.770 0
G26  24632178.762 0
G30  23572182.758 0
> 2017 07 02 00 00 23.8000000  0  9      
G02  23060056.208 0
G03  23817969.515 0
G06  21843264.871 0
G07  21204813.509 0
G09  20149609.953 0
G16  23305005.783 0
G23  21582291.211 0
G26  24632207.356 0
G30  23572114.053 0
> 2017 07 02 00 00 23.9000000  0  9      
G02  23060033.290 0
G03  23818034.287 0
G06  21843301.688 0
G07  21204773.871 0
G09  20149617.582 0
G16  23305000.041 0
G23  21582326.652 0
G26  24632235.951 0
G30  23572045.349 0
> 2017 07 02 00 00 24.0000000  0  9      
G02  23060010.374 0
G03  23818099.060 0
G06  21843338.505 0
G07  21204734.234 0
G09  20149625.212 0
G16  23304994.300 0
G23  21582362.093 0
G26  24632264.548 0
G30  23571976.646 0
> 2017 07 02 00 00 24.1000000  0  9      
G02  23059987.458 0
G03  23818163.833 0
G06  21843375.324 0
G07  21204694.597 0
G09  20149632.842 0
G16  23304988.560 0
G23  21582397.536 0
G26  24632293.145 0
G30  23571907.942 0
> 2017 07 02 00 00 24.2000000  0  9      
G02  23059964.544 0
G03  23818228.607 0
G06  21843412.144 0
G07  21204654.962 0
G09  20149640.473 0
G16  23304982.822 0
G23  21582432.978 0
G26  24632321.743 0
G30  23571839.239 0
> 2017 07 02 00 00 24.3000000  0  9      
G02  23059941.630 0
G03  23818293.381 0
G06  21843448.964 0
G07  21204615.327 0
G09  20149648.105 0
G16  23304977.085 0
G23  21582468.421 0
G26  24632350.343 0
G30  23571770.537 0
> 2017 07 02 00 00 24.4000000  0  9      
G02  23059918.718 0
G03  23818358.155 0
G06  21843485.786 0
G07  21204575.694 0
G09  20149655.738 0
G16  23304971.350 0
G23  21582503.865 0
G26  24632378.943 0
G30  23571701.834 0
> 2017 07 02 00 00 24.5000000  0  9      
G02  23059895.807 0
G03  23818422.929 0
G06  21843522.609 0
G07  21204536.061 0
G09  20149663.372 0
G16  23304965.616 0
G23  21582539.309 0
G26  24632407.545 0
G30  23571633.132 0
> 2017 07 02 00 00 24.6000000  0  9      
G02  23059872.896 0
G03  23818487.704 0
G06  21843559.433 0
G07  21204496.429 0
G09  20149671.006 0
G16  23304959.883 0
G23  21582574.754 0
G26  24632436.148 0
G30  23571564.431 0
> 2017 07 02 00 00 24.7000000  0  9      
G02  23059849.987 0
G03  23818552.480 0
G06  21843596.258 0
G07  21204456.798 0
G09  20149678.641 0
G16  23304954.151 0
G23  21582610.199 0
G26  24632464.752 0
G30  23571495.729 0
> 2017 07 02 00 00 24.8000000  0  9      
G02  23059827.079 0
G03  23818617.255 0
G06  21843633.084 0
G07  21204417.168 0
G09  20149686.276 0
G16  23304948.421 0
G23  21582645.644 0
G26  24632493.357 0
G30  23571427.028 0
> 2017 07 02 00 00 24.9000000  0  9      
G02  23059804.172 0
G03  23818682.031 0
G06  21843669.911 0
G07  21204377.538 0
G09  20149693.913 0
G16  23304942.692 0
G23  21582681.090 0
G26  24632521.963 0
G30  23571358.328 0
> 2017 07 02 00 00 25.0000000  0  9      
G02  23059781.266 0
G03  23818746.808 0
G06  21843706.739 0
G07  21204337.910 0
G09  20149701.550 0
G16  23304936.964 0
G23  21582716.537 0
G26  24632550.570 0
G30  23571289.627 0
> 2017 07 02 00 00 25.1000000  0  9      
G02  23059758.362 0
G03  23818811.584 0
G06  21843743.568 0
G07  21204298.283 0
G09  20149709.188 0
G16  23304931.238 0
G23  21582751.984 0
G26  24632579.178 0
G30  23571220.927 0
> 2017 07 02 00 00 25.2000000  0  9      
G02  23059735.458 0
G03  23818876.362 0
G06  21843780.398 0
G07  21204258.656 0
G09  20149716.827 0
G16  23304925.513 0
G23  21582787.432 0
G26  24632607.788 0
G30  23571152.228 0
> 2017 07 02 00 00 25.3000000  0  9      
G02  23059712.555 0
G03  23818941.139 0
G06  21843817.230 0
G07  21204219.031 0
G09  20149724.466 0
G16  23304919.789 0
G23  21582822.880 0
G26  24632636.398 0
G30  23571083.529 0
> 2017 07 02 00 00 25.4000000  0  9      
G02  23059689.654 0
G03  23819005.917 0
G06  21843854.062 0
G07  21204179.406 0
G09  20149732.106 0
G16  23304914.067 0
G23  21582858.329 0
G26  24632665.010 0
G30  23571014.830 0
> 2017 07 02 00 00 25.5000000  0  9      
G02  23059666.753 0
G03  23819070.695 0
G06  21843890.896 0
G07  21204139.782 0
G09  20149739.747 0
G16  23304908.346 0
G23  21582893.778 0
G26  24632693.623 0
G30  23570946.131 0
> 2017 07 02 00 00 25.6000000  0  9      
G02  23059643.854 0
G03  23819135.473 0
G06  21843927.730 0
G07  21204100.159 0
G09  20149747.389 0
G16  23304902.626 0
G23  21582929.227 0
G26  24632722.236 0
G30  23570877.433 0
> 2017 07 02 00 00 25.7000000  0  9      
G02  23059620.955 0
G03  23819200.252 0
G06  21843964.566 0
G07  21204060.537 0
G09  20149755.031 0
G16  23304896.908 0
G23  21582964.677 0
G26  24632750.851 0
G30  23570808.735 0
> 2017 07 02 00 00 25.8000000  0  9      
G02  23059598.058 0
G03  23819265.032 0
G06  21844001.402 0
G07  21204020.916 0
G09  20149762.674 0
G16  23304891.191 0
G23  21583000.128 0
G26  24632779.467 0
G30  23570740.037 0
> 2017 07 02 00 00 25.9000000  0  9      
G02  23059575.162 0
G03  23819329.811 0
G06  21844038.240 0
G07  21203981.296 0
G09  20149770.318 0
G16  23304885.475 0
G23  21583035.579 0
G26  24632808.084 0
G30  23570671.340 0
> 2017 07 02 00 00 26.0000000  0  9      
G02  23059552.267 0
G03  23819394.591 0
G06  21844075.078 0
G07  21203941.676 0
G09  20149777.963 0
G16  23304879.761 0
G23  21583071.031 0
G26  24632836.703 0
G30  23570602.643 0
> 2017 07 02 00 00 26.1000000  0  9      
G02  23059529.373 0
G03  23819459.372 0
G06  21844111.918 0
G07  21203902.058 0
G09  20149785.608 0
G16  23304874.048 0
G23  21583106.483 0
G26  24632865.322 0
G30  23570533.947 0
> 2017 07 02 00 00 26.2000000  0  9      
G02  23059506.480 0
G03  23819524.152 0
G06  21844148.759 0
G07  21203862.440 0
G09  20149793.254 0
G16  23304868.336 0
G23  21583141.936 0
G26  24632893.942 0
G30  23570465.251 0
> 2017 07 02 00 00 26.3000000  0  9      
G02  23059483.588 0
G03  23819588.933 0
G06  21844185.601 0
G07  21203822.824 0
G09  20149800.901 0
G16  23304862.626 0
G23  21583177.389 0
G26  24632922.564 0
G30  23570396.555 0
> 2017 07 02 00 00 26.4000000  0  9      
G02  23059460.697 0
G03  23819653.715 0
G06  21844222.444 0
G07  21203783.208 0
G09  20149808.548 0
G16  23304856.917 0
G23  21583212.842 0
G26  24632951.187 0
G30  23570327.859 0
> 2017 07 02 00 00 26.5000000  0  9      
G02  23059437.807 0
G03  23819718.496 0
G06  21844259.288 0
G07  21203743.593 0
G09  20149816.197 0
G16  23304851.209 0
G23  21583248.296 0
G26  24632979.810 0
G30  23570259.164 0
> 2017 07 02 00 00 26.6000000  0  9      
G02  23059414.918 0
G03  23819783.279 0
G06  21844296.133 0
G07  21203703.979 0
G09  20149823.846 0
G16  23304845.503 0
G23  21583283.751 0
G26  24633008.435 0
G30  23570190.469 0
> 2017 07 02 00 00 26.7000000  0  9      
G02  23059392.031 0
G03  23819848.061 0
G06  21844332.979 0
G07  21203664.366 0
G09  20149831.496 0
G16  23304839.798 0
G23  21583319.206 0
G26  24633037.061 0
G30  23570121.775 0
> 2017 07 02 00 00 26.8000000  0  9      
G02  23059369.144 0
G03  23819912.844 0
G06  21844369.826 0
G07  21203624.754 0
G09  20149839.146 0
G16  23304834.094 0
G23  21583354.662 0
G26  24633065.688 0
G30  23570053.081 0
> 2017 07 02 00 00 26.9000000  0  9      
G02  23059346.259 0
G03  23819977.627 0
G06  21844406.674 0
G07  21203585.143 0
G09  20149846.797 0
G16  23304828.392 0
G23  21583390.118 0
G26  24633094.316 0
G30  23569984.387 0
> 2017 07 02 00 00 27.1000000  0  9      
G02  23059300.508 0
G03  23820107.180 0
G06  21844480.395 0
